[{"type":"Feature","geometry":{"type":"Point","coordinates":[-117.612295,34.102354]},"properties":{"listingKey":"20251011055726371851000000","listingId":"CV-25237615","listPrice":525000,"city":"Rancho Cucamonga","baths":2.5,"slug":"20251011055726371851000000","mlsSource":"CRMLS","propertyType":"A","propertySubType":"Townhouse","livingArea":1357,"associationFee":422,"unparsedAddress":"8844 Knollwood, Rancho Cucamonga, CA 91730"}},{"type":"Feature","geometry":{"type":"Point","coordinates":[-117.61314,34.100613]},"properties":{"listingKey":"20250904221219597763000000","listingId":"AR-25192492","listPrice":3250,"city":"Rancho Cucamonga","baths":2.5,"slug":"20250904221219597763000000","mlsSource":"CRMLS","propertyType":"B","propertySubType":"Condominium","livingArea":1260,"unparsedAddress":"8424 Bayberry Road, Rancho Cucamonga, CA 91730"}},{"type":"Feature","geometry":{"type":"Point","coordinates":[-117.610208,34.105789]},"properties":{"listingKey":"20251112211031387968000000","listingId":"CV-25259147","listPrice":445000,"city":"Rancho Cucamonga","baths":1.5,"slug":"20251112211031387968000000","mlsSource":"CRMLS","propertyType":"A","propertySubType":"Townhouse","livingArea":932,"associationFee":340,"unparsedAddress":"8167 Vineyard, 47, Rancho Cucamonga, CA 91730"}},{"type":"Feature","geometry":{"type":"Point","coordinates":[-117.619106,34.106805]},"properties":{"listingKey":"20250912234719073309000000","listingId":"CV-25215343","listPrice":769900,"city":"Rancho Cucamonga","baths":3,"slug":"20250912234719073309000000","mlsSource":"CRMLS","propertyType":"A","propertySubType":"Condominium","livingArea":1871,"associationFee":495,"unparsedAddress":"8525 Calle Carabe, Rancho Cucamonga, CA 91730"}},{"type":"Feature","geometry":{"type":"Point","coordinates":[-117.615581,34.100753]},"properties":{"listingKey":"20251114091804936604000000","listingId":"TR-25260441","listPrice":749000,"city":"Rancho Cucamonga","baths":2.5,"slug":"20251114091804936604000000","mlsSource":"CRMLS","propertyType":"A","propertySubType":"Single Family Residence","livingArea":1763,"associationFee":0,"unparsedAddress":"8419 Floro Pl, Rancho Cucamonga, CA 91730"}},{"type":"Feature","geometry":{"type":"Point","coordinates":[-117.619428,34.099937]},"properties":{"listingKey":"20251008010830028288000000","listingId":"TR-25234452","listPrice":3200,"city":"Rancho Cucamonga","baths":2.5,"slug":"20251008010830028288000000","mlsSource":"CRMLS","propertyType":"B","propertySubType":"Single Family Residence","livingArea":1763,"unparsedAddress":"8478 Tavano Place, Rancho Cucamonga, CA 91730"}}]