[{"type":"Feature","id":171657,"properties":{"cluster":true,"cluster_id":171657,"point_count":3,"point_count_abbreviated":3},"geometry":{"type":"Point","coordinates":[-117.61715412139891,33.42400645864032]}},{"type":"Feature","id":189833,"properties":{"cluster":true,"cluster_id":189833,"point_count":2,"point_count_abbreviated":2},"geometry":{"type":"Point","coordinates":[-117.61886715888977,33.42372737719448]}},{"type":"Feature","geometry":{"type":"Point","coordinates":[-117.614622,33.428316]},"properties":{"listingKey":"20251107213908334745000000","listingId":"OC-25256298","listPrice":2600,"city":"San Clemente","baths":1,"slug":"20251107213908334745000000","mlsSource":"CRMLS","propertyType":"B","propertySubType":"Apartment","livingArea":600,"associationFee":0,"unparsedAddress":"116 Avenida Serra, 4, San Clemente, CA 92672"}},{"type":"Feature","geometry":{"type":"Point","coordinates":[-117.612931,33.430411]},"properties":{"listingKey":"20251009181843919556000000","listingId":"OC-25221927","listPrice":1995000,"city":"San Clemente","baths":3.5,"slug":"20251009181843919556000000","mlsSource":"CRMLS","propertyType":"A","propertySubType":"Single Family Residence","livingArea":2958,"associationFee":0,"unparsedAddress":"143 North La Esperanza, San Clemente, CA 92672"}},{"type":"Feature","geometry":{"type":"Point","coordinates":[-117.616377,33.422895]},"properties":{"listingKey":"20250809061045509025000000","listingId":"OC-25177000","listPrice":3000,"city":"San Clemente","baths":1,"slug":"20250809061045509025000000","mlsSource":"CRMLS","propertyType":"B","propertySubType":"Condominium","livingArea":900,"associationFee":0,"unparsedAddress":"258 Avenida Victoria, D, San Clemente, CA 92672"}},{"type":"Feature","geometry":{"type":"Point","coordinates":[-117.611265,33.4304]},"properties":{"listingKey":"20250917185031068869000000","listingId":"OC-25217345","listPrice":8900,"city":"San Clemente","baths":4.5,"slug":"20250917185031068869000000","mlsSource":"CRMLS","propertyType":"B","propertySubType":"Single Family Residence","livingArea":3761,"associationFee":0,"unparsedAddress":"18 Via Cima, San Clemente, CA 92672"}},{"type":"Feature","id":221769,"properties":{"cluster":true,"cluster_id":221769,"point_count":4,"point_count_abbreviated":4},"geometry":{"type":"Point","coordinates":[-117.61125236749649,33.424072124732504]}},{"type":"Feature","geometry":{"type":"Point","coordinates":[-117.610415,33.423847]},"properties":{"listingKey":"20251022152343102451000000","listingId":"OC-25244862","listPrice":2850000,"city":"San Clemente","baths":4,"slug":"20251022152343102451000000","mlsSource":"CRMLS","propertyType":"A","propertySubType":"Single Family Residence","livingArea":3025,"associationFee":0,"unparsedAddress":"102 Trafalgar, San Clemente, CA 92672"}},{"type":"Feature","id":180105,"properties":{"cluster":true,"cluster_id":180105,"point_count":2,"point_count_abbreviated":2},"geometry":{"type":"Point","coordinates":[-117.61602938175201,33.427546387135735]}}]