[{"type":"Feature","geometry":{"type":"Point","coordinates":[-117.003604,32.624357]},"properties":{"listingKey":"20251115223758155926000000","listingId":"8P-2508607","listPrice":1000000,"city":"Chula Vista","baths":2.5,"slug":"20251115223758155926000000","mlsSource":"CRMLS","propertyType":"A","propertySubType":"Single Family Residence","livingArea":2008,"associationFee":119,"unparsedAddress":"1266 Morgan Hill Drive, Chula Vista, CA 91913"}},{"type":"Feature","geometry":{"type":"Point","coordinates":[-117.002259,32.626885]},"properties":{"listingKey":"20250904002719216173000000","listingId":"8P-2506728","listPrice":1325000,"city":"Chula Vista","baths":3.5,"slug":"20250904002719216173000000","mlsSource":"CRMLS","propertyType":"A","propertySubType":"Single Family Residence","livingArea":3213,"associationFee":116,"unparsedAddress":"1209 Morgan Hill Dr, Chula Vista, CA 91913"}},{"type":"Feature","geometry":{"type":"Point","coordinates":[-116.983845,32.636096]},"properties":{"listingKey":"20251028175755106043000000","listingId":"8P-2508133","listPrice":1300000,"city":"Chula Vista","baths":4,"slug":"20251028175755106043000000","mlsSource":"CRMLS","propertyType":"A","propertySubType":"Single Family Residence","livingArea":3235,"associationFee":89,"unparsedAddress":"1777 Clover Tree Ct, Chula Vista, CA 91913"}},{"type":"Feature","geometry":{"type":"Point","coordinates":[-116.99844,32.628261]},"properties":{"listingKey":"20250822063722654225000000","listingId":"8P-2506401","listPrice":1419000,"city":"Chula Vista","baths":3.5,"slug":"20250822063722654225000000","mlsSource":"CRMLS","propertyType":"A","propertySubType":"Single Family Residence","livingArea":3649,"associationFee":116,"unparsedAddress":"1402 Antioch Avenue, Chula Vista, CA 91913"}},{"type":"Feature","geometry":{"type":"Point","coordinates":[-116.994259,32.637648]},"properties":{"listingKey":"20251116041957765668000000","listingId":"8P-2508612","listPrice":645000,"city":"Chula Vista","baths":2,"slug":"20251116041957765668000000","mlsSource":"CRMLS","propertyType":"A","propertySubType":"Townhouse","livingArea":1266,"associationFee":325,"unparsedAddress":"1532 Apache Drive, D, Chula Vista, CA 91910"}}]