[{"type":"Feature","geometry":{"type":"Point","coordinates":[-117.124259,33.00979]},"properties":{"listingKey":"20251013152125428024000000","listingId":"8N-2509880","listPrice":1125000,"city":"San Diego","baths":3.5,"slug":"20251013152125428024000000","mlsSource":"CRMLS","propertyType":"A","propertySubType":"Townhouse","livingArea":1858,"associationFee":464,"unparsedAddress":"16162 Veridian Circle, San Diego, CA 92127"}},{"type":"Feature","geometry":{"type":"Point","coordinates":[-117.119249,33.012284]},"properties":{"listingKey":"20251018055758878566000000","listingId":"8N-2510076","listPrice":2140000,"city":"San Diego","baths":3,"slug":"20251018055758878566000000","mlsSource":"CRMLS","propertyType":"A","propertySubType":"Single Family Residence","livingArea":2860,"associationFee":100,"unparsedAddress":"9815 Fox Valley Way, San Diego, CA 92127"}},{"type":"Feature","geometry":{"type":"Point","coordinates":[-117.121595,32.995797]},"properties":{"listingKey":"20251016031712733301000000","listingId":"8N-2509975","listPrice":5199000,"city":"San Diego","baths":5.5,"slug":"20251016031712733301000000","mlsSource":"CRMLS","propertyType":"A","propertySubType":"Single Family Residence","livingArea":5417,"associationFee":360,"unparsedAddress":"14788 Valle Del Sur, San Diego, CA 92127"}},{"type":"Feature","id":661481,"properties":{"cluster":true,"cluster_id":661481,"point_count":2,"point_count_abbreviated":2},"geometry":{"type":"Point","coordinates":[-117.14695394039154,33.01271208556754]}},{"type":"Feature","geometry":{"type":"Point","coordinates":[-117.142085,33.020608]},"properties":{"listingKey":"20250917202600279707000000","listingId":"8N-2509137","listPrice":1979900,"city":"San Diego","baths":2.5,"slug":"20250917202600279707000000","mlsSource":"CRMLS","propertyType":"A","propertySubType":"Single Family Residence","livingArea":2473,"associationFee":213,"unparsedAddress":"16055 Penny Lane, San Diego, CA 92127"}},{"type":"Feature","id":693063,"properties":{"cluster":true,"cluster_id":693063,"point_count":2,"point_count_abbreviated":2},"geometry":{"type":"Point","coordinates":[-117.15626388788223,33.026071117077834]}},{"type":"Feature","geometry":{"type":"Point","coordinates":[-117.150165,32.997215]},"properties":{"listingKey":"20250703121534901318000000","listingId":"8N-2506540","listPrice":8500,"city":"San Diego","baths":3,"slug":"20250703121534901318000000","mlsSource":"CRMLS","propertyType":"B","propertySubType":"Single Family Residence","livingArea":2248,"unparsedAddress":"8134 Santaluz Village Green N., San Diego, CA 92127"}},{"type":"Feature","id":215271,"properties":{"cluster":true,"cluster_id":215271,"point_count":2,"point_count_abbreviated":2},"geometry":{"type":"Point","coordinates":[-117.13008284568787,33.01808292942857]}}]