[{"type":"Feature","geometry":{"type":"Point","coordinates":[-117.121337,32.940692]},"properties":{"listingKey":"20251028060900095147000000","listingId":"8P-2508128","listPrice":1625000,"city":"San Diego","baths":3,"slug":"20251028060900095147000000","mlsSource":"CRMLS","propertyType":"A","propertySubType":"Single Family Residence","livingArea":2725,"associationFee":165,"unparsedAddress":"9432 Hito Court, San Diego, CA 92129"}},{"type":"Feature","id":144711,"properties":{"cluster":true,"cluster_id":144711,"point_count":7,"point_count_abbreviated":7},"geometry":{"type":"Point","coordinates":[-117.13786508355822,32.91809749018198]}},{"type":"Feature","id":260840,"properties":{"cluster":true,"cluster_id":260840,"point_count":2,"point_count_abbreviated":2},"geometry":{"type":"Point","coordinates":[-117.11895167827606,32.92876931537819]}},{"type":"Feature","geometry":{"type":"Point","coordinates":[-117.13831,32.931689]},"properties":{"listingKey":"20251009203533427704000000","listingId":"8P-2507709","listPrice":1099000,"city":"San Diego","baths":2,"slug":"20251009203533427704000000","mlsSource":"CRMLS","propertyType":"A","propertySubType":"Single Family Residence","livingArea":1552,"associationFee":0,"unparsedAddress":"11358 Vela Drive, San Diego, CA 92126"}},{"type":"Feature","id":547623,"properties":{"cluster":true,"cluster_id":547623,"point_count":2,"point_count_abbreviated":2},"geometry":{"type":"Point","coordinates":[-117.1427509188652,32.92866575532692]}},{"type":"Feature","geometry":{"type":"Point","coordinates":[-117.123333,32.920008]},"properties":{"listingKey":"20251120223930264735000000","listingId":"8N-2510982","listPrice":1329000,"city":"Mira Mesa","baths":2.5,"slug":"20251120223930264735000000","mlsSource":"CRMLS","propertyType":"A","propertySubType":"Single Family Residence","livingArea":1938,"associationFee":0,"unparsedAddress":"9378 Twin Mountain Circle, Mira Mesa, CA 92126"}},{"type":"Feature","id":738824,"properties":{"cluster":true,"cluster_id":738824,"point_count":2,"point_count_abbreviated":2},"geometry":{"type":"Point","coordinates":[-117.15724557638168,32.92588309638663]}},{"type":"Feature","id":602727,"properties":{"cluster":true,"cluster_id":602727,"point_count":2,"point_count_abbreviated":2},"geometry":{"type":"Point","coordinates":[-117.14647114276886,32.92236187177326]}},{"type":"Feature","geometry":{"type":"Point","coordinates":[-117.136689,32.952812]},"properties":{"listingKey":"20250828073839669748000000","listingId":"8N-2508407","listPrice":1269000,"city":"San Diego","baths":2.5,"slug":"20250828073839669748000000","mlsSource":"CRMLS","propertyType":"A","propertySubType":"Single Family Residence","livingArea":1915,"associationFee":142,"unparsedAddress":"8754 Park Run Road, San Diego, CA 92129"}}]