[{"type":"Feature","geometry":{"type":"Point","coordinates":[-118.140824,34.130217]},"properties":{"listingKey":"20250819074504655348000000","listingId":"WS-25185431","listPrice":1888000,"city":"Pasadena","baths":0,"slug":"20250819074504655348000000","mlsSource":"CRMLS","propertyType":"C","propertySubType":"Duplex","livingArea":2225,"associationFee":0,"unparsedAddress":"900 South Los Robles Avenue, Pasadena, CA 91106"}},{"type":"Feature","geometry":{"type":"Point","coordinates":[-118.145373,34.131095]},"properties":{"listingKey":"20251013190636413291000000","listingId":"TR-25238256","listPrice":1050000,"city":"Pasadena","baths":2.5,"slug":"20251013190636413291000000","mlsSource":"CRMLS","propertyType":"A","propertySubType":"Townhouse","livingArea":1484,"associationFee":551.85,"unparsedAddress":"856 South Marengo, 7, Pasadena, CA 91106"}},{"type":"Feature","geometry":{"type":"Point","coordinates":[-118.142411,34.129241]},"properties":{"listingKey":"20251028163735418627000000","listingId":"AR-25239110","listPrice":1599800,"city":"Pasadena","baths":2,"slug":"20251028163735418627000000","mlsSource":"CRMLS","propertyType":"A","propertySubType":"Single Family Residence","livingArea":1370,"associationFee":0,"unparsedAddress":"380 Alpine, Pasadena, CA 91106"}},{"type":"Feature","geometry":{"type":"Point","coordinates":[-118.14459,34.128874]},"properties":{"listingKey":"20250923100257352525000000","listingId":"PF-25223020","listPrice":3500,"city":"Pasadena","baths":2,"slug":"20250923100257352525000000","mlsSource":"CRMLS","propertyType":"B","propertySubType":"Townhouse","livingArea":1200,"associationFee":0,"unparsedAddress":"269 Ohio Street, 2, Pasadena, CA 91106"}},{"type":"Feature","geometry":{"type":"Point","coordinates":[-118.143873,34.131524]},"properties":{"listingKey":"20251106230753498454000000","listingId":"P1-24847","listPrice":758000,"city":"Pasadena","baths":2.5,"slug":"20251106230753498454000000","mlsSource":"CRMLS","propertyType":"A","propertySubType":"Townhouse","livingArea":1238,"associationFee":500,"unparsedAddress":"832 Magnolia Avenue, 2, Pasadena, CA 91106"}},{"type":"Feature","geometry":{"type":"Point","coordinates":[-118.140887,34.127206]},"properties":{"listingKey":"20250928044614151466000000","listingId":"AR-25226420","listPrice":7350,"city":"Pasadena","baths":2,"slug":"20250928044614151466000000","mlsSource":"CRMLS","propertyType":"B","propertySubType":"Single Family Residence","livingArea":2412,"associationFee":0,"unparsedAddress":"1080 South Los Robles, Pasadena, CA 91106"}},{"type":"Feature","geometry":{"type":"Point","coordinates":[-118.140936,34.131856]},"properties":{"listingKey":"20250819050317431502000000","listingId":"OC-25186558","listPrice":1698000,"city":"Pasadena","baths":3,"slug":"20250819050317431502000000","mlsSource":"CRMLS","propertyType":"A","propertySubType":"Single Family Residence","livingArea":1431,"associationFee":0,"unparsedAddress":"808 South Los Robles Avenue, Pasadena, CA 91106"}},{"type":"Feature","geometry":{"type":"Point","coordinates":[-118.146252,34.132156]},"properties":{"listingKey":"20250930181642246053000000","listingId":"PF-25223283","listPrice":938000,"city":"Pasadena","baths":3,"slug":"20250930181642246053000000","mlsSource":"CRMLS","propertyType":"A","propertySubType":"Townhouse","livingArea":1450,"associationFee":434.76,"unparsedAddress":"785 South Marengo, 2, Pasadena, CA 91106"}}]