[{"type":"Feature","geometry":{"type":"Point","coordinates":[-118.138816,34.036351]},"properties":{"listingKey":"20250729014217019766000000","listingId":"CV-25169203","listPrice":1175000,"city":"Monterey Park","baths":0,"slug":"20250729014217019766000000","mlsSource":"CRMLS","propertyType":"C","propertySubType":"Apartment","livingArea":2442,"associationFee":0,"unparsedAddress":"498 West Riggin Street, Monterey Park, CA 91754"}},{"type":"Feature","geometry":{"type":"Point","coordinates":[-118.138722,34.034648]},"properties":{"listingKey":"20251106023552605069000000","listingId":"WS-25254799","listPrice":3800,"city":"Monterey Park","baths":2,"slug":"20251106023552605069000000","mlsSource":"CRMLS","propertyType":"B","propertySubType":"Single Family Residence","livingArea":1549,"associationFee":0,"unparsedAddress":"2408 Hendricks Avenue, Monterey Park, CA 91754"}},{"type":"Feature","geometry":{"type":"Point","coordinates":[-118.14056,34.035529]},"properties":{"listingKey":"20251023220850277932000000","listingId":"TR-25246151","listPrice":3000,"city":"Monterey Park","baths":1,"slug":"20251023220850277932000000","mlsSource":"CRMLS","propertyType":"B","propertySubType":"Single Family Residence","livingArea":1046,"associationFee":0,"unparsedAddress":"532 West Markland Dr, Monterey Park, CA 91754"}},{"type":"Feature","geometry":{"type":"Point","coordinates":[-118.139214,34.038393]},"properties":{"listingKey":"20251030184317040266000000","listingId":"WS-25250075","listPrice":950000,"city":"Monterey Park","baths":2.75,"slug":"20251030184317040266000000","mlsSource":"CRMLS","propertyType":"A","propertySubType":"Single Family Residence","livingArea":1336,"associationFee":0,"unparsedAddress":"501 West Floral Drive, Monterey Park, CA 91754"}},{"type":"Feature","geometry":{"type":"Point","coordinates":[-118.143153,34.037202]},"properties":{"listingKey":"20251118182109811345000000","listingId":"AR-25261750","listPrice":3650,"city":"Monterey Park","baths":1,"slug":"20251118182109811345000000","mlsSource":"CRMLS","propertyType":"B","propertySubType":"Single Family Residence","livingArea":1032,"associationFee":0,"unparsedAddress":"648 West Hammel, Monterey Park, CA 91754"}}]