[{"type":"Feature","geometry":{"type":"Point","coordinates":[-118.164072,33.793189]},"properties":{"listingKey":"20251115033823179728000000","listingId":"OC-25260969","listPrice":950000,"city":"Signal Hill","baths":0,"slug":"20251115033823179728000000","mlsSource":"CRMLS","propertyType":"C","propertySubType":"Duplex","livingArea":3172,"unparsedAddress":"1984 Raymond, Signal Hill, CA 90755"}},{"type":"Feature","geometry":{"type":"Point","coordinates":[-118.162987,33.788358]},"properties":{"listingKey":"20250916202205136754000000","listingId":"SB-25218251","listPrice":799999,"city":"Long Beach","baths":3,"slug":"20250916202205136754000000","mlsSource":"CRMLS","propertyType":"A","propertySubType":"Single Family Residence","livingArea":1530,"associationFee":0,"unparsedAddress":"1720 Junipero Ave, Long Beach, CA 90804"}},{"type":"Feature","id":673577,"properties":{"cluster":true,"cluster_id":673577,"point_count":2,"point_count_abbreviated":2},"geometry":{"type":"Point","coordinates":[-118.16221296787262,33.79330295883874]}},{"type":"Feature","geometry":{"type":"Point","coordinates":[-118.160005,33.792987]},"properties":{"listingKey":"20251112061807398840000000","listingId":"OC-25258786","listPrice":624900,"city":"Signal Hill","baths":2,"slug":"20251112061807398840000000","mlsSource":"CRMLS","propertyType":"A","propertySubType":"Condominium","livingArea":1470,"associationFee":645,"unparsedAddress":"2722 East 20th, 104, Signal Hill, CA 90755"}},{"type":"Feature","geometry":{"type":"Point","coordinates":[-118.159728,33.796291]},"properties":{"listingKey":"20251002043103657336000000","listingId":"PW-25223795","listPrice":400000,"city":"Signal Hill","baths":1,"slug":"20251002043103657336000000","mlsSource":"CRMLS","propertyType":"A","propertySubType":"Condominium","livingArea":638,"associationFee":300,"unparsedAddress":"2150 Ohio, E, Signal Hill, CA 90755"}},{"type":"Feature","id":866409,"properties":{"cluster":true,"cluster_id":866409,"point_count":4,"point_count_abbreviated":4},"geometry":{"type":"Point","coordinates":[-118.1595267355442,33.788278536259966]}},{"type":"Feature","geometry":{"type":"Point","coordinates":[-118.159227,33.790432]},"properties":{"listingKey":"20251004002439698953000000","listingId":"AR-25232308","listPrice":499000,"city":"Signal Hill","baths":1.75,"slug":"20251004002439698953000000","mlsSource":"CRMLS","propertyType":"A","propertySubType":"Condominium","livingArea":1007,"associationFee":289,"unparsedAddress":"1837 Temple Avenue, C, Signal Hill, CA 90755"}},{"type":"Feature","geometry":{"type":"Point","coordinates":[-118.165761,33.790753]},"properties":{"listingKey":"20250724174421857929000000","listingId":"PW-25165972","listPrice":879999,"city":"Signal Hill","baths":0,"slug":"20250724174421857929000000","mlsSource":"CRMLS","propertyType":"C","propertySubType":"Duplex","livingArea":1158,"unparsedAddress":"1845 Dawson Avenue, Signal Hill, CA 90755"}},{"type":"Feature","geometry":{"type":"Point","coordinates":[-118.167322,33.793768]},"properties":{"listingKey":"20251118194754544390000000","listingId":"PW-25262385","listPrice":1795,"city":"Signal Hill","baths":1,"slug":"20251118194754544390000000","mlsSource":"CRMLS","propertyType":"B","propertySubType":"Quadruplex","livingArea":550,"associationFee":0,"unparsedAddress":"2012 Cherry Ave, Signal Hill, CA 90755"}}]