[{"type":"Feature","geometry":{"type":"Point","coordinates":[-118.325373,33.974261]},"properties":{"listingKey":"20251030230156250836000000","listingId":"DW-25250280","listPrice":980000,"city":"Los Angeles","baths":2,"slug":"20251030230156250836000000","mlsSource":"CRMLS","propertyType":"A","propertySubType":"Single Family Residence","livingArea":1200,"associationFee":0,"unparsedAddress":"2930 West Florence, Los Angeles, CA 90043"}},{"type":"Feature","geometry":{"type":"Point","coordinates":[-118.323964,33.962102]},"properties":{"listingKey":"20251104212932568210000000","listingId":"IG-25253333","listPrice":1099000,"city":"Inglewood","baths":4,"slug":"20251104212932568210000000","mlsSource":"CRMLS","propertyType":"A","propertySubType":"Single Family Residence","livingArea":2186,"associationFee":0,"unparsedAddress":"2816 West 84th, Inglewood, CA 90305"}},{"type":"Feature","id":549928,"properties":{"cluster":true,"cluster_id":549928,"point_count":4,"point_count_abbreviated":4},"geometry":{"type":"Point","coordinates":[-118.33193108439445,33.9686848745025]}},{"type":"Feature","geometry":{"type":"Point","coordinates":[-118.335982,33.979515]},"properties":{"listingKey":"20251112235036026336000000","listingId":"PW-25259374","listPrice":769999,"city":"Inglewood","baths":1,"slug":"20251112235036026336000000","mlsSource":"CRMLS","propertyType":"A","propertySubType":"Single Family Residence","livingArea":950,"associationFee":0,"unparsedAddress":"1144 East 65th, Inglewood, CA 90302"}},{"type":"Feature","id":575080,"properties":{"cluster":true,"cluster_id":575080,"point_count":3,"point_count_abbreviated":3},"geometry":{"type":"Point","coordinates":[-118.34215342998506,33.976899450884744]}},{"type":"Feature","geometry":{"type":"Point","coordinates":[-118.333075,33.975399]},"properties":{"listingKey":"20251104174343780630000000","listingId":"DW-25252658","listPrice":1349000,"city":"Los Angeles","baths":0,"slug":"20251104174343780630000000","mlsSource":"CRMLS","propertyType":"C","propertySubType":"Apartment","livingArea":4122,"unparsedAddress":"3468 West 71st Street West, Los Angeles, CA 90043"}},{"type":"Feature","geometry":{"type":"Point","coordinates":[-118.33165,33.964259]},"properties":{"listingKey":"20250909203020785723000000","listingId":"SB-25203421","listPrice":1195000,"city":"Inglewood","baths":2.5,"slug":"20250909203020785723000000","mlsSource":"CRMLS","propertyType":"A","propertySubType":"Single Family Residence","livingArea":2509,"associationFee":0,"unparsedAddress":"3414 W 82nd Street, Inglewood, CA 90305"}},{"type":"Feature","geometry":{"type":"Point","coordinates":[-118.327162,33.967892]},"properties":{"listingKey":"20251103195036291549000000","listingId":"OC-25251397","listPrice":1124900,"city":"Los Angeles","baths":2.5,"slug":"20251103195036291549000000","mlsSource":"CRMLS","propertyType":"A","propertySubType":"Single Family Residence","livingArea":1659,"associationFee":0,"unparsedAddress":"3116 West 78th Place, Los Angeles, CA 90043"}}]