[{"type":"Feature","id":486824,"properties":{"cluster":true,"cluster_id":486824,"point_count":3,"point_count_abbreviated":3},"geometry":{"type":"Point","coordinates":[-118.33287298679353,33.91047799101227]}},{"type":"Feature","geometry":{"type":"Point","coordinates":[-118.329982,33.912614]},"properties":{"listingKey":"20250717001115155369000000","listingId":"RS-25159758","listPrice":799998,"city":"Hawthorne","baths":1,"slug":"20250717001115155369000000","mlsSource":"CRMLS","propertyType":"A","propertySubType":"Single Family Residence","livingArea":1148,"associationFee":0,"unparsedAddress":"3237 West 132nd Street, Hawthorne, CA 90250"}},{"type":"Feature","geometry":{"type":"Point","coordinates":[-118.324531,33.914886]},"properties":{"listingKey":"20251104011118399070000000","listingId":"DW-25253153","listPrice":939900,"city":"Gardena","baths":2,"slug":"20251104011118399070000000","mlsSource":"CRMLS","propertyType":"A","propertySubType":"Single Family Residence","livingArea":1466,"associationFee":0,"unparsedAddress":"2915 West 129th Place, Gardena, CA 90249"}},{"type":"Feature","geometry":{"type":"Point","coordinates":[-118.342233,33.912557]},"properties":{"listingKey":"20251001220507680342000000","listingId":"SB-25229818","listPrice":3900,"city":"Hawthorne","baths":2,"slug":"20251001220507680342000000","mlsSource":"CRMLS","propertyType":"B","propertySubType":"Single Family Residence","livingArea":1286,"associationFee":0,"unparsedAddress":"3912 West 132nd Street, Hawthorne, CA 90250"}},{"type":"Feature","geometry":{"type":"Point","coordinates":[-118.344681,33.923394]},"properties":{"listingKey":"20250913014016638954000000","listingId":"CV-25214420","listPrice":825000,"city":"Hawthorne","baths":0,"slug":"20250913014016638954000000","mlsSource":"CRMLS","propertyType":"C","propertySubType":"Duplex","livingArea":1800,"associationFee":0,"unparsedAddress":"4026 West 120th Street, Hawthorne, CA 90250"}},{"type":"Feature","id":144009,"properties":{"cluster":true,"cluster_id":144009,"point_count":2,"point_count_abbreviated":2},"geometry":{"type":"Point","coordinates":[-118.34427058696747,33.9078037896911]}},{"type":"Feature","geometry":{"type":"Point","coordinates":[-118.339194,33.914808]},"properties":{"listingKey":"20251113183027319188000000","listingId":"SB-25259797","listPrice":1450,"city":"Hawthorne","baths":1,"slug":"20251113183027319188000000","mlsSource":"CRMLS","propertyType":"B","propertySubType":"Apartment","livingArea":283,"associationFee":0,"unparsedAddress":"12926 Doty Avenue, 9, Hawthorne, CA 90250"}},{"type":"Feature","id":780937,"properties":{"cluster":true,"cluster_id":780937,"point_count":2,"point_count_abbreviated":2},"geometry":{"type":"Point","coordinates":[-118.3370366692543,33.91737532163957]}},{"type":"Feature","id":149097,"properties":{"cluster":true,"cluster_id":149097,"point_count":3,"point_count_abbreviated":3},"geometry":{"type":"Point","coordinates":[-118.33575189113617,33.90806201256815]}}]