[{"type":"Feature","geometry":{"type":"Point","coordinates":[-118.333853,33.892634]},"properties":{"listingKey":"20251008012751760656000000","listingId":"SB-25215094","listPrice":889000,"city":"Gardena","baths":1,"slug":"20251008012751760656000000","mlsSource":"CRMLS","propertyType":"A","propertySubType":"Single Family Residence","livingArea":1008,"associationFee":0,"unparsedAddress":"15309 Patronella Avenue, Gardena, CA 90249"}},{"type":"Feature","geometry":{"type":"Point","coordinates":[-118.333591,33.900675]},"properties":{"listingKey":"20251016203954221318000000","listingId":"SB-25235860","listPrice":436000,"city":"Hawthorne","baths":2,"slug":"20251016203954221318000000","mlsSource":"CRMLS","propertyType":"A","propertySubType":"Condominium","livingArea":805,"associationFee":350,"unparsedAddress":"14405 Cerise, 35, Hawthorne, CA 90250"}},{"type":"Feature","geometry":{"type":"Point","coordinates":[-118.334175,33.905215]},"properties":{"listingKey":"20251027235133450496000000","listingId":"PW-25248155","listPrice":3200,"city":"Hawthorne","baths":2,"slug":"20251027235133450496000000","mlsSource":"CRMLS","propertyType":"B","propertySubType":"Single Family Residence","livingArea":750,"associationFee":0,"unparsedAddress":"3534 West 139th, Hawthorne, CA 90250"}},{"type":"Feature","id":202248,"properties":{"cluster":true,"cluster_id":202248,"point_count":4,"point_count_abbreviated":4},"geometry":{"type":"Point","coordinates":[-118.33164140582085,33.90433773967035]}},{"type":"Feature","geometry":{"type":"Point","coordinates":[-118.330863,33.892547]},"properties":{"listingKey":"20251106011456555137000000","listingId":"PW-25254107","listPrice":759998,"city":"Gardena","baths":2,"slug":"20251106011456555137000000","mlsSource":"CRMLS","propertyType":"A","propertySubType":"Single Family Residence","livingArea":1100,"associationFee":0,"unparsedAddress":"15245 Lemoli, Gardena, CA 90249"}},{"type":"Feature","id":125736,"properties":{"cluster":true,"cluster_id":125736,"point_count":2,"point_count_abbreviated":2},"geometry":{"type":"Point","coordinates":[-118.33019971847534,33.897447517200746]}},{"type":"Feature","id":147561,"properties":{"cluster":true,"cluster_id":147561,"point_count":2,"point_count_abbreviated":2},"geometry":{"type":"Point","coordinates":[-118.32924485206604,33.90657499424796]}},{"type":"Feature","geometry":{"type":"Point","coordinates":[-118.330054,33.894899]},"properties":{"listingKey":"20250809121253943760000000","listingId":"RS-25175245","listPrice":1350000,"city":"Gardena","baths":0,"slug":"20250809121253943760000000","mlsSource":"CRMLS","propertyType":"C","propertySubType":"Apartment","livingArea":3276,"associationFee":0,"unparsedAddress":"3245 Marine Avenue, Gardena, CA 90249"}},{"type":"Feature","id":227880,"properties":{"cluster":true,"cluster_id":227880,"point_count":3,"point_count_abbreviated":3},"geometry":{"type":"Point","coordinates":[-118.32548797130583,33.88872875121233]}},{"type":"Feature","id":565801,"properties":{"cluster":true,"cluster_id":565801,"point_count":3,"point_count_abbreviated":3},"geometry":{"type":"Point","coordinates":[-118.34446191787718,33.89974506198283]}},{"type":"Feature","geometry":{"type":"Point","coordinates":[-118.339325,33.896388]},"properties":{"listingKey":"20250925050021367511000000","listingId":"SB-25202984","listPrice":4295,"city":"Hawthorne","baths":1.75,"slug":"20250925050021367511000000","mlsSource":"CRMLS","propertyType":"B","propertySubType":"Single Family Residence","livingArea":1024,"associationFee":0,"unparsedAddress":"14900 Doty Avenue, Hawthorne, CA 90250"}}]