[{"type":"Feature","id":346569,"properties":{"cluster":true,"cluster_id":346569,"point_count":2,"point_count_abbreviated":2},"geometry":{"type":"Point","coordinates":[-118.32542538642883,33.763950277656576]}},{"type":"Feature","geometry":{"type":"Point","coordinates":[-118.328671,33.764314]},"properties":{"listingKey":"20251022182317560973000000","listingId":"SB-25244983","listPrice":10000,"city":"Rancho Palos Verdes","baths":3.5,"slug":"20251022182317560973000000","mlsSource":"CRMLS","propertyType":"B","propertySubType":"Single Family Residence","livingArea":4000,"associationFee":0,"unparsedAddress":"2 Headland Drive, Rancho Palos Verdes, CA 90275"}},{"type":"Feature","geometry":{"type":"Point","coordinates":[-118.33571,33.764625]},"properties":{"listingKey":"20251104192843537632000000","listingId":"SB-25253528","listPrice":7200,"city":"Rancho Palos Verdes","baths":2,"slug":"20251104192843537632000000","mlsSource":"CRMLS","propertyType":"B","propertySubType":"Single Family Residence","livingArea":1616,"associationFee":0,"unparsedAddress":"1 Martingale, Rancho Palos Verdes, CA 90275"}},{"type":"Feature","geometry":{"type":"Point","coordinates":[-118.328324,33.761594]},"properties":{"listingKey":"20251101215138923920000000","listingId":"RS-25252007","listPrice":2000,"city":"Rancho Palos Verdes","baths":1,"slug":"20251101215138923920000000","mlsSource":"CRMLS","propertyType":"B","propertySubType":"Studio","livingArea":405,"associationFee":0,"unparsedAddress":"12 Coach Rd, Rancho Palos Verdes, CA 90275"}},{"type":"Feature","geometry":{"type":"Point","coordinates":[-118.340467,33.76875]},"properties":{"listingKey":"20250331184721247818000000","listingId":"PV-25069474","listPrice":5995000,"city":"Rolling Hills","baths":5,"slug":"20250331184721247818000000","mlsSource":"CRMLS","propertyType":"A","propertySubType":"Single Family Residence","livingArea":5141,"associationFee":1033,"unparsedAddress":"57 Saddleback Road, Rolling Hills, CA 90274"}},{"type":"Feature","geometry":{"type":"Point","coordinates":[-118.338324,33.778131]},"properties":{"listingKey":"20251013220230715918000000","listingId":"SB-25237219","listPrice":2749000,"city":"Rolling Hills Estates","baths":3,"slug":"20251013220230715918000000","mlsSource":"CRMLS","propertyType":"A","propertySubType":"Single Family Residence","livingArea":2733,"associationFee":0,"unparsedAddress":"36 Pony Lane, Rolling Hills Estates, CA 90274"}}]