[{"type":"Feature","geometry":{"type":"Point","coordinates":[-118.322777,33.750503]},"properties":{"listingKey":"20250926090400692433000000","listingId":"SB-25224543","listPrice":1449999,"city":"Rancho Palos Verdes","baths":2,"slug":"20250926090400692433000000","mlsSource":"CRMLS","propertyType":"A","propertySubType":"Single Family Residence","livingArea":1327,"associationFee":0,"unparsedAddress":"4052 Miraleste, Rancho Palos Verdes, CA 90275"}},{"type":"Feature","geometry":{"type":"Point","coordinates":[-118.323221,33.748367]},"properties":{"listingKey":"20251001060323294525000000","listingId":"PV-25221575","listPrice":1995000,"city":"Rancho Palos Verdes","baths":3,"slug":"20251001060323294525000000","mlsSource":"CRMLS","propertyType":"A","propertySubType":"Single Family Residence","livingArea":3168,"associationFee":0,"unparsedAddress":"6432 Bramante Plaza, Rancho Palos Verdes, CA 90275"}},{"type":"Feature","geometry":{"type":"Point","coordinates":[-118.341711,33.748145]},"properties":{"listingKey":"20250903183805017677000000","listingId":"WS-25197866","listPrice":6000000,"city":"Rolling Hills","baths":6,"slug":"20250903183805017677000000","mlsSource":"CRMLS","propertyType":"A","propertySubType":"Single Family Residence","livingArea":7085,"associationFee":0,"unparsedAddress":"60 Crest Road East, Rolling Hills, CA 90274"}},{"type":"Feature","geometry":{"type":"Point","coordinates":[-118.343442,33.752008]},"properties":{"listingKey":"20251021205720681104000000","listingId":"PV-25243012","listPrice":13800000,"city":"Rolling Hills","baths":7.5,"slug":"20251021205720681104000000","mlsSource":"CRMLS","propertyType":"A","propertySubType":"Single Family Residence","livingArea":7123,"associationFee":2300,"unparsedAddress":"34 Crest East, Rolling Hills, CA 90274"}},{"type":"Feature","geometry":{"type":"Point","coordinates":[-118.335632,33.755015]},"properties":{"listingKey":"20250715015247783676000000","listingId":"PV-25157424","listPrice":2600000,"city":"Rolling Hills","baths":2.5,"slug":"20250715015247783676000000","mlsSource":"CRMLS","propertyType":"A","propertySubType":"Single Family Residence","livingArea":2600,"associationFee":2712,"unparsedAddress":"2 Chuckwagon Road, Rolling Hills, CA 90274"}},{"type":"Feature","geometry":{"type":"Point","coordinates":[-118.328827,33.758689]},"properties":{"listingKey":"20251008015746037701000000","listingId":"OC-25234852","listPrice":6900,"city":"Rancho Palos Verdes","baths":2,"slug":"20251008015746037701000000","mlsSource":"CRMLS","propertyType":"B","propertySubType":"Single Family Residence","livingArea":2471,"associationFee":0,"unparsedAddress":"2831 Via El Miro, Rancho Palos Verdes, CA 90275"}},{"type":"Feature","id":261192,"properties":{"cluster":true,"cluster_id":261192,"point_count":5,"point_count_abbreviated":5},"geometry":{"type":"Point","coordinates":[-118.32791340351105,33.74486987945595]}},{"type":"Feature","geometry":{"type":"Point","coordinates":[-118.335361,33.752352]},"properties":{"listingKey":"20241118173725946435000000","listingId":"PV-24234187","listPrice":6000000,"city":"Rolling Hills","baths":4.75,"slug":"20241118173725946435000000","mlsSource":"CRMLS","propertyType":"A","propertySubType":"Single Family Residence","livingArea":6600,"associationFee":6800,"unparsedAddress":"50 Eastfield Drive, Rolling Hills, CA 90274"}},{"type":"Feature","id":1065577,"properties":{"cluster":true,"cluster_id":1065577,"point_count":2,"point_count_abbreviated":2},"geometry":{"type":"Point","coordinates":[-118.33370000123978,33.74847844302259]}},{"type":"Feature","geometry":{"type":"Point","coordinates":[-118.326925,33.756135]},"properties":{"listingKey":"20250715211247535952000000","listingId":"PV-25158533","listPrice":5850,"city":"Rancho Palos Verdes","baths":2.5,"slug":"20250715211247535952000000","mlsSource":"CRMLS","propertyType":"B","propertySubType":"Single Family Residence","livingArea":2468,"unparsedAddress":"2821 Colt Rd, Rancho Palos Verdes, CA 90275"}}]