[{"type":"Feature","geometry":{"type":"Point","coordinates":[-118.913996,34.235973]},"properties":{"listingKey":"20250921044221803380000000","listingId":"V1-32467","listPrice":3325000,"city":"Santa Rosa (VEN)","baths":4.5,"slug":"20250921044221803380000000","mlsSource":"CRMLS","propertyType":"A","propertySubType":"Single Family Residence","livingArea":5400,"associationFee":215,"unparsedAddress":"11016 Red Barn Road, Santa Rosa (VEN), CA 93012"}},{"type":"Feature","geometry":{"type":"Point","coordinates":[-118.884759,34.270822]},"properties":{"listingKey":"20251111182943830906000000","listingId":"V1-33344","listPrice":1149000,"city":"Moorpark","baths":3,"slug":"20251111182943830906000000","mlsSource":"CRMLS","propertyType":"A","propertySubType":"Single Family Residence","livingArea":2701,"associationFee":180,"unparsedAddress":"4374 East Autumnmeadow Circle, Moorpark, CA 93021"}},{"type":"Feature","geometry":{"type":"Point","coordinates":[-118.893976,34.269695]},"properties":{"listingKey":"20251017013723533460000000","listingId":"BB-25233287","listPrice":1069000,"city":"Moorpark","baths":2.25,"slug":"20251017013723533460000000","mlsSource":"CRMLS","propertyType":"A","propertySubType":"Single Family Residence","livingArea":2645,"associationFee":170,"unparsedAddress":"12401 Willow Forest Drive, Moorpark, CA 93021"}},{"type":"Feature","geometry":{"type":"Point","coordinates":[-118.878883,34.269019]},"properties":{"listingKey":"20250909143325836842000000","listingId":"TR-25202931","listPrice":1051000,"city":"Moorpark","baths":2,"slug":"20250909143325836842000000","mlsSource":"CRMLS","propertyType":"A","propertySubType":"Single Family Residence","livingArea":1605,"associationFee":0,"unparsedAddress":"13191 Honeybee Street, Moorpark, CA 93021"}},{"type":"Feature","geometry":{"type":"Point","coordinates":[-118.911207,34.260872]},"properties":{"listingKey":"20251101054601617602000000","listingId":"V1-33179","listPrice":4300,"city":"Moorpark","baths":3,"slug":"20251101054601617602000000","mlsSource":"CRMLS","propertyType":"B","propertySubType":"Single Family Residence","livingArea":2200,"unparsedAddress":"3808 Sunsetridge Road, Moorpark, CA 93021"}},{"type":"Feature","geometry":{"type":"Point","coordinates":[-118.877293,34.247421]},"properties":{"listingKey":"20251017112001549516000000","listingId":"TR-25240723","listPrice":2100000,"city":"Camarillo","baths":3,"slug":"20251017112001549516000000","mlsSource":"CRMLS","propertyType":"A","propertySubType":"Single Family Residence","livingArea":3080,"associationFee":140,"unparsedAddress":"13049 Sunny Lane, Camarillo, CA 93012"}}]