[{"type":"Feature","geometry":{"type":"Point","coordinates":[-118.873611,34.226761]},"properties":{"listingKey":"20250912233456366348000000","listingId":"BB-25206817","listPrice":589000,"city":"Thousand Oaks","baths":2,"slug":"20250912233456366348000000","mlsSource":"CRMLS","propertyType":"A","propertySubType":"Condominium","livingArea":1143,"associationFee":396,"unparsedAddress":"87 Mcafee Court, Thousand Oaks, CA 91360"}},{"type":"Feature","geometry":{"type":"Point","coordinates":[-118.87372,34.221766]},"properties":{"listingKey":"20250927224853125839000000","listingId":"V1-32585","listPrice":1319000,"city":"Thousand Oaks","baths":2.5,"slug":"20250927224853125839000000","mlsSource":"CRMLS","propertyType":"A","propertySubType":"Single Family Residence","livingArea":2164,"unparsedAddress":"71 Del Ray Circle, Thousand Oaks, CA 91360"}},{"type":"Feature","geometry":{"type":"Point","coordinates":[-118.880791,34.220527]},"properties":{"listingKey":"20251113041027268985000000","listingId":"V1-33365","listPrice":1350000,"city":"Thousand Oaks","baths":3.5,"slug":"20251113041027268985000000","mlsSource":"CRMLS","propertyType":"A","propertySubType":"Single Family Residence","livingArea":2879,"unparsedAddress":"202 Faculty Street, Thousand Oaks, CA 91360"}},{"type":"Feature","geometry":{"type":"Point","coordinates":[-118.89865,34.220575]},"properties":{"listingKey":"20251112032118111830000000","listingId":"IV-25258720","listPrice":930000,"city":"Thousand Oaks","baths":2.5,"slug":"20251112032118111830000000","mlsSource":"CRMLS","propertyType":"A","propertySubType":"Single Family Residence","livingArea":1893,"associationFee":0,"unparsedAddress":"3030 Frontier, Thousand Oaks, CA 91360"}},{"type":"Feature","geometry":{"type":"Point","coordinates":[-118.885591,34.21331]},"properties":{"listingKey":"20250916002439401135000000","listingId":"V1-32366","listPrice":1170000,"city":"Thousand Oaks","baths":3,"slug":"20250916002439401135000000","mlsSource":"CRMLS","propertyType":"A","propertySubType":"Single Family Residence","livingArea":2068,"unparsedAddress":"2531 Scott Place, Thousand Oaks, CA 91360"}},{"type":"Feature","geometry":{"type":"Point","coordinates":[-118.894774,34.198685]},"properties":{"listingKey":"20250805215346422804000000","listingId":"V1-31772","listPrice":1299000,"city":"Thousand Oaks","baths":2.5,"slug":"20250805215346422804000000","mlsSource":"CRMLS","propertyType":"A","propertySubType":"Single Family Residence","livingArea":2348,"associationFee":200,"unparsedAddress":"633 Camino Roberto, Thousand Oaks, CA 91360"}}]