[{"type":"Feature","geometry":{"type":"Point","coordinates":[-117.711987,33.675311]},"properties":{"listingKey":"20250910055311079919000000","listingId":"OC-25192490","listPrice":3458888,"city":"Irvine","baths":5,"slug":"20250910055311079919000000","mlsSource":"CRMLS","propertyType":"A","propertySubType":"Single Family Residence","livingArea":4468,"associationFee":389,"unparsedAddress":"74 Iluna, Irvine, CA 92618"}},{"type":"Feature","id":975081,"properties":{"cluster":true,"cluster_id":975081,"point_count":2,"point_count_abbreviated":2},"geometry":{"type":"Point","coordinates":[-117.70865947008133,33.67147473845857]}},{"type":"Feature","id":338409,"properties":{"cluster":true,"cluster_id":338409,"point_count":3,"point_count_abbreviated":3},"geometry":{"type":"Point","coordinates":[-117.71272301673889,33.67694051642161]}},{"type":"Feature","geometry":{"type":"Point","coordinates":[-117.709143,33.674928]},"properties":{"listingKey":"20250626033548386918000000","listingId":"WS-25142168","listPrice":4998000,"city":"Irvine","baths":5.5,"slug":"20250626033548386918000000","mlsSource":"CRMLS","propertyType":"A","propertySubType":"Single Family Residence","livingArea":5046,"associationFee":389,"unparsedAddress":"61 Dorado, Irvine, CA 92618"}},{"type":"Feature","id":343625,"properties":{"cluster":true,"cluster_id":343625,"point_count":2,"point_count_abbreviated":2},"geometry":{"type":"Point","coordinates":[-117.71095544099808,33.677800604486634]}},{"type":"Feature","id":1020841,"properties":{"cluster":true,"cluster_id":1020841,"point_count":2,"point_count_abbreviated":2},"geometry":{"type":"Point","coordinates":[-117.71129339933395,33.67077828440611]}},{"type":"Feature","id":301769,"properties":{"cluster":true,"cluster_id":301769,"point_count":3,"point_count_abbreviated":3},"geometry":{"type":"Point","coordinates":[-117.70791828632356,33.67040475651176]}},{"type":"Feature","geometry":{"type":"Point","coordinates":[-117.716387,33.671611]},"properties":{"listingKey":"20251104050513369919000000","listingId":"OC-25253268","listPrice":1380000,"city":"Irvine","baths":2.5,"slug":"20251104050513369919000000","mlsSource":"CRMLS","propertyType":"A","propertySubType":"Condominium","livingArea":1804,"associationFee":240,"unparsedAddress":"156 Keeper, Irvine, CA 92618"}},{"type":"Feature","id":959113,"properties":{"cluster":true,"cluster_id":959113,"point_count":2,"point_count_abbreviated":2},"geometry":{"type":"Point","coordinates":[-117.71576195955276,33.67014432773718]}},{"type":"Feature","geometry":{"type":"Point","coordinates":[-117.713641,33.677525]},"properties":{"listingKey":"20251105032030558268000000","listingId":"TR-25253929","listPrice":9000,"city":"Irvine","baths":4.5,"slug":"20251105032030558268000000","mlsSource":"CRMLS","propertyType":"B","propertySubType":"Single Family Residence","livingArea":3443,"unparsedAddress":"64 Turnstone, Irvine, CA 92618"}}]