[{"type":"Feature","geometry":{"type":"Point","coordinates":[-117.713511,33.681364]},"properties":{"listingKey":"20250725084058322674000000","listingId":"OC-25156121","listPrice":3150000,"city":"Irvine","baths":4.5,"slug":"20250725084058322674000000","mlsSource":"CRMLS","propertyType":"A","propertySubType":"Single Family Residence","livingArea":3443,"associationFee":389,"unparsedAddress":"94 Swift, Irvine, CA 92618"}},{"type":"Feature","id":340137,"properties":{"cluster":true,"cluster_id":340137,"point_count":2,"point_count_abbreviated":2},"geometry":{"type":"Point","coordinates":[-117.7128329873085,33.67878270144507]}},{"type":"Feature","geometry":{"type":"Point","coordinates":[-117.712449,33.685159]},"properties":{"listingKey":"20251101141800982284000000","listingId":"OC-25251844","listPrice":4350,"city":"Irvine","baths":2.5,"slug":"20251101141800982284000000","mlsSource":"CRMLS","propertyType":"B","propertySubType":"Condominium","livingArea":1445,"unparsedAddress":"120 Leafy Twig, Irvine, CA 92618"}},{"type":"Feature","geometry":{"type":"Point","coordinates":[-117.711066,33.687165]},"properties":{"listingKey":"20251030185624999591000000","listingId":"OC-25249406","listPrice":4500,"city":"Irvine","baths":2.5,"slug":"20251030185624999591000000","mlsSource":"CRMLS","propertyType":"B","propertySubType":"Condominium","livingArea":1640,"unparsedAddress":"123 Quiet Grove, Irvine, CA 92618"}},{"type":"Feature","id":255145,"properties":{"cluster":true,"cluster_id":255145,"point_count":2,"point_count_abbreviated":2},"geometry":{"type":"Point","coordinates":[-117.71247625350952,33.687192563291276]}},{"type":"Feature","id":350505,"properties":{"cluster":true,"cluster_id":350505,"point_count":2,"point_count_abbreviated":2},"geometry":{"type":"Point","coordinates":[-117.70925760269165,33.68461255515611]}},{"type":"Feature","geometry":{"type":"Point","coordinates":[-117.710825,33.681046]},"properties":{"listingKey":"20251002114707793394000000","listingId":"OC-25229222","listPrice":2200,"city":"Irvine","baths":1.5,"slug":"20251002114707793394000000","mlsSource":"CRMLS","propertyType":"B","propertySubType":"Single Family Residence","livingArea":475,"unparsedAddress":"84 Bellatrix, Irvine, CA 92618"}},{"type":"Feature","id":1039529,"properties":{"cluster":true,"cluster_id":1039529,"point_count":2,"point_count_abbreviated":2},"geometry":{"type":"Point","coordinates":[-117.71824836730957,33.68126467830369]}},{"type":"Feature","id":342345,"properties":{"cluster":true,"cluster_id":342345,"point_count":6,"point_count_abbreviated":6},"geometry":{"type":"Point","coordinates":[-117.71710127592085,33.68203544550521]}}]