[{"type":"Feature","geometry":{"type":"Point","coordinates":[-118.096151,34.684973]},"properties":{"listingKey":"20250819175023055632000000","listingId":"V1-31848","listPrice":415000,"city":"Lancaster","baths":3,"slug":"20250819175023055632000000","mlsSource":"CRMLS","propertyType":"A","propertySubType":"Single Family Residence","livingArea":1526,"unparsedAddress":"1822 Park Circle Drive, Lancaster, CA 93535"}},{"type":"Feature","geometry":{"type":"Point","coordinates":[-118.089597,34.675914]},"properties":{"listingKey":"20251016010257812113000000","listingId":"SB-25240635","listPrice":350000,"city":"Lancaster","baths":2,"slug":"20251016010257812113000000","mlsSource":"CRMLS","propertyType":"A","propertySubType":"Single Family Residence","livingArea":960,"associationFee":0,"unparsedAddress":"43625 Ponderosa, Lancaster, CA 93535"}},{"type":"Feature","id":492873,"properties":{"cluster":true,"cluster_id":492873,"point_count":2,"point_count_abbreviated":2},"geometry":{"type":"Point","coordinates":[-118.10197323560715,34.68163169991054]}},{"type":"Feature","geometry":{"type":"Point","coordinates":[-118.093022,34.673974]},"properties":{"listingKey":"20250704113102497929000000","listingId":"DW-25150083","listPrice":465000,"city":"Lancaster","baths":2,"slug":"20250704113102497929000000","mlsSource":"CRMLS","propertyType":"A","propertySubType":"Single Family Residence","livingArea":1547,"associationFee":0,"unparsedAddress":"43525 Palos Way, Lancaster, CA 93535"}},{"type":"Feature","geometry":{"type":"Point","coordinates":[-118.101209,34.673559]},"properties":{"listingKey":"20251113011739522843000000","listingId":"DW-25259463","listPrice":529999,"city":"Lancaster","baths":3,"slug":"20251113011739522843000000","mlsSource":"CRMLS","propertyType":"A","propertySubType":"Single Family Residence","livingArea":2890,"associationFee":0,"unparsedAddress":"1563 Marion Avenue, Lancaster, CA 93535"}},{"type":"Feature","geometry":{"type":"Point","coordinates":[-118.084783,34.687139]},"properties":{"listingKey":"20250922042426497714000000","listingId":"CV-25201729","listPrice":350000,"city":"Lancaster","baths":2,"slug":"20250922042426497714000000","mlsSource":"CRMLS","propertyType":"A","propertySubType":"Single Family Residence","livingArea":1102,"associationFee":0,"unparsedAddress":"2527 Garnet Lane, Lancaster, CA 93535"}},{"type":"Feature","geometry":{"type":"Point","coordinates":[-118.083863,34.671945]},"properties":{"listingKey":"20250729224744118386000000","listingId":"V1-31426","listPrice":550000,"city":"Lancaster","baths":4.75,"slug":"20250729224744118386000000","mlsSource":"CRMLS","propertyType":"A","propertySubType":"Single Family Residence","livingArea":3264,"unparsedAddress":"43414 Tranquility Court, Lancaster, CA 93535"}}]