[{"type":"Feature","geometry":{"type":"Point","coordinates":[-118.101447,33.834543]},"properties":{"listingKey":"20251021204949981196000000","listingId":"SB-25243875","listPrice":1099950,"city":"Lakewood","baths":2,"slug":"20251021204949981196000000","mlsSource":"CRMLS","propertyType":"A","propertySubType":"Single Family Residence","livingArea":1773,"associationFee":0,"unparsedAddress":"4212 Nipomo, Lakewood, CA 90713"}},{"type":"Feature","geometry":{"type":"Point","coordinates":[-118.096462,33.839251]},"properties":{"listingKey":"20251027185712842303000000","listingId":"PW-25244040","listPrice":885000,"city":"Lakewood","baths":2,"slug":"20251027185712842303000000","mlsSource":"CRMLS","propertyType":"A","propertySubType":"Single Family Residence","livingArea":1217,"unparsedAddress":"4468 Stevely Avenue, Lakewood, CA 90713"}},{"type":"Feature","geometry":{"type":"Point","coordinates":[-118.09102,33.837123]},"properties":{"listingKey":"20251110224251566143000000","listingId":"PW-25257593","listPrice":895000,"city":"Lakewood","baths":2,"slug":"20251110224251566143000000","mlsSource":"CRMLS","propertyType":"A","propertySubType":"Single Family Residence","livingArea":1554,"associationFee":0,"unparsedAddress":"11321 212th, Lakewood, CA 90715"}},{"type":"Feature","geometry":{"type":"Point","coordinates":[-118.085012,33.837003]},"properties":{"listingKey":"20251105205239076324000000","listingId":"IV-25254452","listPrice":820000,"city":"Lakewood","baths":1,"slug":"20251105205239076324000000","mlsSource":"CRMLS","propertyType":"A","propertySubType":"Single Family Residence","livingArea":1048,"associationFee":0,"unparsedAddress":"11612 Massinger, Lakewood, CA 90715"}},{"type":"Feature","id":670632,"properties":{"cluster":true,"cluster_id":670632,"point_count":2,"point_count_abbreviated":2},"geometry":{"type":"Point","coordinates":[-118.085558116436,33.84122744943649]}},{"type":"Feature","geometry":{"type":"Point","coordinates":[-118.08775,33.851934]},"properties":{"listingKey":"20251108001448367227000000","listingId":"DW-25256481","listPrice":1145000,"city":"Cerritos","baths":2,"slug":"20251108001448367227000000","mlsSource":"CRMLS","propertyType":"A","propertySubType":"Single Family Residence","livingArea":1152,"associationFee":0,"unparsedAddress":"11524 Jerry, Cerritos, CA 90703"}},{"type":"Feature","geometry":{"type":"Point","coordinates":[-118.084234,33.850273]},"properties":{"listingKey":"20251018215105207367000000","listingId":"RS-25242641","listPrice":1274900,"city":"Cerritos","baths":3,"slug":"20251018215105207367000000","mlsSource":"CRMLS","propertyType":"A","propertySubType":"Single Family Residence","livingArea":2010,"associationFee":0,"unparsedAddress":"11702 Christy Street, Cerritos, CA 90703"}}]