[{"type":"Feature","geometry":{"type":"Point","coordinates":[-117.907929,33.782952]},"properties":{"listingKey":"20250816063054517363000000","listingId":"PW-25179448","listPrice":1120000,"city":"Garden Grove","baths":2,"slug":"20250816063054517363000000","mlsSource":"CRMLS","propertyType":"A","propertySubType":"Single Family Residence","livingArea":1340,"associationFee":0,"unparsedAddress":"12414 Fallingleaf Street, Garden Grove, CA 92840"}},{"type":"Feature","id":324231,"properties":{"cluster":true,"cluster_id":324231,"point_count":3,"point_count_abbreviated":3},"geometry":{"type":"Point","coordinates":[-117.91151762008667,33.761149587518986]}},{"type":"Feature","geometry":{"type":"Point","coordinates":[-117.911827,33.776543]},"properties":{"listingKey":"20251023161345408979000000","listingId":"OC-25244452","listPrice":524900,"city":"Garden Grove","baths":1.75,"slug":"20251023161345408979000000","mlsSource":"CRMLS","propertyType":"A","propertySubType":"Condominium","livingArea":1041,"associationFee":658.54,"unparsedAddress":"12848 Timber Road, 33, Garden Grove, CA 92840"}},{"type":"Feature","geometry":{"type":"Point","coordinates":[-117.907637,33.794631]},"properties":{"listingKey":"20251024235933941461000000","listingId":"OC-25216758","listPrice":1100000,"city":"Anaheim","baths":2.5,"slug":"20251024235933941461000000","mlsSource":"CRMLS","propertyType":"A","propertySubType":"Single Family Residence","livingArea":2055,"associationFee":0,"unparsedAddress":"127 West Cliffwood Avenue, Anaheim, CA 92802"}},{"type":"Feature","id":107303,"properties":{"cluster":true,"cluster_id":107303,"point_count":5,"point_count_abbreviated":5},"geometry":{"type":"Point","coordinates":[-117.9410616159439,33.78102893851111]}},{"type":"Feature","id":139463,"properties":{"cluster":true,"cluster_id":139463,"point_count":2,"point_count_abbreviated":2},"geometry":{"type":"Point","coordinates":[-117.93463826179504,33.78002571705446]}},{"type":"Feature","id":447335,"properties":{"cluster":true,"cluster_id":447335,"point_count":2,"point_count_abbreviated":2},"geometry":{"type":"Point","coordinates":[-117.92801320552826,33.777805211777704]}},{"type":"Feature","geometry":{"type":"Point","coordinates":[-117.928839,33.784378]},"properties":{"listingKey":"20250912140838688393000000","listingId":"OC-25214920","listPrice":3000,"city":"Garden Grove","baths":2,"slug":"20250912140838688393000000","mlsSource":"CRMLS","propertyType":"B","propertySubType":"Single Family Residence","livingArea":900,"associationFee":0,"unparsedAddress":"12285 Zeta Street, Garden Grove, CA 92840"}},{"type":"Feature","geometry":{"type":"Point","coordinates":[-117.948187,33.77928]},"properties":{"listingKey":"20250830234004990780000000","listingId":"OC-25195737","listPrice":425000,"city":"Garden Grove","baths":1,"slug":"20250830234004990780000000","mlsSource":"CRMLS","propertyType":"A","propertySubType":"Condominium","livingArea":600,"associationFee":390,"unparsedAddress":"10580 Lakeside Drive North, E, Garden Grove, CA 92840"}},{"type":"Feature","geometry":{"type":"Point","coordinates":[-117.938996,33.765197]},"properties":{"listingKey":"20251104143332838691000000","listingId":"PW-25253347","listPrice":1559000,"city":"Garden Grove","baths":5,"slug":"20251104143332838691000000","mlsSource":"CRMLS","propertyType":"A","propertySubType":"Single Family Residence","livingArea":2500,"associationFee":0,"unparsedAddress":"13611 Glenhaven Drive, Garden Grove, CA 92843"}},{"type":"Feature","geometry":{"type":"Point","coordinates":[-117.933687,33.787694]},"properties":{"listingKey":"20251119032447787926000000","listingId":"PW-25262832","listPrice":1200000,"city":"Garden Grove","baths":3,"slug":"20251119032447787926000000","mlsSource":"CRMLS","propertyType":"A","propertySubType":"Single Family Residence","livingArea":1560,"associationFee":0,"unparsedAddress":"11821 Easy Way, Garden Grove, CA 92840"}},{"type":"Feature","id":138279,"properties":{"cluster":true,"cluster_id":138279,"point_count":2,"point_count_abbreviated":2},"geometry":{"type":"Point","coordinates":[-117.94090121984482,33.7937041866149]}},{"type":"Feature","geometry":{"type":"Point","coordinates":[-117.929749,33.771753]},"properties":{"listingKey":"20251103065804375621000000","listingId":"PW-25252457","listPrice":3400,"city":"Garden Grove","baths":1.75,"slug":"20251103065804375621000000","mlsSource":"CRMLS","propertyType":"B","propertySubType":"Single Family Residence","livingArea":1170,"associationFee":0,"unparsedAddress":"13162 Newell Street, Garden Grove, CA 92843"}},{"type":"Feature","geometry":{"type":"Point","coordinates":[-117.920927,33.785161]},"properties":{"listingKey":"20250918101447908631000000","listingId":"PW-25220069","listPrice":1198800,"city":"Garden Grove","baths":2.5,"slug":"20250918101447908631000000","mlsSource":"CRMLS","propertyType":"A","propertySubType":"Single Family Residence","livingArea":1794,"associationFee":0,"unparsedAddress":"12246 Nadine Circle, Garden Grove, CA 92840"}},{"type":"Feature","id":542727,"properties":{"cluster":true,"cluster_id":542727,"point_count":2,"point_count_abbreviated":2},"geometry":{"type":"Point","coordinates":[-117.92206674814224,33.774697299498456]}},{"type":"Feature","geometry":{"type":"Point","coordinates":[-117.933954,33.774543]},"properties":{"listingKey":"20251118203357709586000000","listingId":"PW-25261952","listPrice":859000,"city":"Garden Grove","baths":1,"slug":"20251118203357709586000000","mlsSource":"CRMLS","propertyType":"A","propertySubType":"Single Family Residence","livingArea":1100,"associationFee":0,"unparsedAddress":"11371 Garden Grove Boulevard, Garden Grove, CA 92843"}},{"type":"Feature","geometry":{"type":"Point","coordinates":[-117.919637,33.779965]},"properties":{"listingKey":"20251017160401930033000000","listingId":"LG-25241746","listPrice":1098000,"city":"Garden Grove","baths":2,"slug":"20251017160401930033000000","mlsSource":"CRMLS","propertyType":"A","propertySubType":"Single Family Residence","livingArea":1174,"associationFee":0,"unparsedAddress":"12222 Emrys, Garden Grove, CA 92840"}},{"type":"Feature","id":753672,"properties":{"cluster":true,"cluster_id":753672,"point_count":3,"point_count_abbreviated":3},"geometry":{"type":"Point","coordinates":[-117.94839262962341,33.7714450926631]}},{"type":"Feature","geometry":{"type":"Point","coordinates":[-117.942639,33.773061]},"properties":{"listingKey":"20251104210029922792000000","listingId":"OC-25251984","listPrice":836000,"city":"Garden Grove","baths":3.5,"slug":"20251104210029922792000000","mlsSource":"CRMLS","propertyType":"A","propertySubType":"Townhouse","livingArea":1746,"associationFee":270,"unparsedAddress":"10836 Sonoma Lane, Garden Grove, CA 92843"}},{"type":"Feature","geometry":{"type":"Point","coordinates":[-117.944761,33.787445]},"properties":{"listingKey":"20251001030919169077000000","listingId":"OC-25226642","listPrice":1499000,"city":"Garden Grove","baths":2,"slug":"20251001030919169077000000","mlsSource":"CRMLS","propertyType":"A","propertySubType":"Single Family Residence","livingArea":2346,"associationFee":0,"unparsedAddress":"12071 Diane Street, Garden Grove, CA 92840"}},{"type":"Feature","id":119463,"properties":{"cluster":true,"cluster_id":119463,"point_count":5,"point_count_abbreviated":5},"geometry":{"type":"Point","coordinates":[-117.9130722284317,33.79454319239812]}},{"type":"Feature","id":533191,"properties":{"cluster":true,"cluster_id":533191,"point_count":2,"point_count_abbreviated":2},"geometry":{"type":"Point","coordinates":[-117.9270288348198,33.79675345625904]}}]