[{"type":"Feature","geometry":{"type":"Point","coordinates":[-117.908493,33.683991]},"properties":{"listingKey":"20251022224249224450000000","listingId":"OC-25245345","listPrice":7250,"city":"Costa Mesa","baths":2,"slug":"20251022224249224450000000","mlsSource":"CRMLS","propertyType":"B","propertySubType":"Single Family Residence","livingArea":1348,"associationFee":0,"unparsedAddress":"1213 Belfast, Costa Mesa, CA 92626"}},{"type":"Feature","id":172039,"properties":{"cluster":true,"cluster_id":172039,"point_count":5,"point_count_abbreviated":5},"geometry":{"type":"Point","coordinates":[-117.90572834014893,33.66138899759808]}},{"type":"Feature","geometry":{"type":"Point","coordinates":[-117.927982,33.685031]},"properties":{"listingKey":"20251103054423276843000000","listingId":"PW-25240706","listPrice":1399000,"city":"Costa Mesa","baths":3,"slug":"20251103054423276843000000","mlsSource":"CRMLS","propertyType":"A","propertySubType":"Single Family Residence","livingArea":1653,"associationFee":0,"unparsedAddress":"3141 Barbados Place, Costa Mesa, CA 92626"}},{"type":"Feature","geometry":{"type":"Point","coordinates":[-117.922592,33.68285]},"properties":{"listingKey":"20251107182601414771000000","listingId":"NP-25256085","listPrice":2700,"city":"Costa Mesa","baths":2,"slug":"20251107182601414771000000","mlsSource":"CRMLS","propertyType":"B","propertySubType":"Quadruplex","livingArea":1000,"associationFee":0,"unparsedAddress":"3103 Ginger, C, Costa Mesa, CA 92626"}},{"type":"Feature","id":137703,"properties":{"cluster":true,"cluster_id":137703,"point_count":6,"point_count_abbreviated":6},"geometry":{"type":"Point","coordinates":[-117.92490005493163,33.65187067659289]}},{"type":"Feature","geometry":{"type":"Point","coordinates":[-117.923581,33.670712]},"properties":{"listingKey":"20250909212740770035000000","listingId":"OC-25199931","listPrice":2150000,"city":"Costa Mesa","baths":2.5,"slug":"20250909212740770035000000","mlsSource":"CRMLS","propertyType":"A","propertySubType":"Single Family Residence","livingArea":3162,"associationFee":170,"unparsedAddress":"1547 Amberleaf, Costa Mesa, CA 92626"}},{"type":"Feature","id":664167,"properties":{"cluster":true,"cluster_id":664167,"point_count":2,"point_count_abbreviated":2},"geometry":{"type":"Point","coordinates":[-117.9398900270462,33.67147473845857]}},{"type":"Feature","id":252360,"properties":{"cluster":true,"cluster_id":252360,"point_count":2,"point_count_abbreviated":2},"geometry":{"type":"Point","coordinates":[-117.93762624263763,33.65552184741378]}},{"type":"Feature","id":629959,"properties":{"cluster":true,"cluster_id":629959,"point_count":3,"point_count_abbreviated":3},"geometry":{"type":"Point","coordinates":[-117.9189348220825,33.667401592817626]}},{"type":"Feature","geometry":{"type":"Point","coordinates":[-117.91525,33.662642]},"properties":{"listingKey":"20250909170930566060000000","listingId":"PW-25197816","listPrice":5000,"city":"Costa Mesa","baths":2,"slug":"20250909170930566060000000","mlsSource":"CRMLS","propertyType":"B","propertySubType":"Single Family Residence","livingArea":1352,"associationFee":0,"unparsedAddress":"2437 Fordham Drive, Costa Mesa, CA 92626"}},{"type":"Feature","geometry":{"type":"Point","coordinates":[-117.943957,33.672706]},"properties":{"listingKey":"20251030200510863168000000","listingId":"OC-25249060","listPrice":2495000,"city":"Costa Mesa","baths":4,"slug":"20251030200510863168000000","mlsSource":"CRMLS","propertyType":"A","propertySubType":"Single Family Residence","livingArea":2442,"associationFee":0,"unparsedAddress":"2055 Calvert Avenue, Costa Mesa, CA 92626"}},{"type":"Feature","id":137191,"properties":{"cluster":true,"cluster_id":137191,"point_count":5,"point_count_abbreviated":5},"geometry":{"type":"Point","coordinates":[-117.94474160671233,33.653001618382106]}},{"type":"Feature","id":133991,"properties":{"cluster":true,"cluster_id":133991,"point_count":6,"point_count_abbreviated":6},"geometry":{"type":"Point","coordinates":[-117.91428565979004,33.65494285022717]}}]