[{"type":"Feature","geometry":{"type":"Point","coordinates":[-121.474989,39.293765]},"properties":{"listingKey":"20250628164840172698000000","listingId":"SN-25145142","listPrice":499900,"city":"Marysville","baths":3,"slug":"20250628164840172698000000","mlsSource":"CRMLS","propertyType":"A","propertySubType":"Single Family Residence","livingArea":2800,"associationFee":0,"unparsedAddress":"11541 Chimney Ranch Trail, Marysville, CA 95901"}},{"type":"Feature","geometry":{"type":"Point","coordinates":[-121.395249,39.290968]},"properties":{"listingKey":"20250813102005546610000000","listingId":"01-41107953","listPrice":499999,"city":"Marysville","baths":2,"slug":"20250813102005546610000000","mlsSource":"CRMLS","propertyType":"A","propertySubType":"Single Family Residence","livingArea":2544,"unparsedAddress":"5893 Fruitland Rd, Marysville, CA 95901"}},{"type":"Feature","id":92804,"properties":{"cluster":true,"cluster_id":92804,"point_count":4,"point_count_abbreviated":4},"geometry":{"type":"Point","coordinates":[-121.62850007414818,39.1228213553139]}},{"type":"Feature","id":136709,"properties":{"cluster":true,"cluster_id":136709,"point_count":2,"point_count_abbreviated":2},"geometry":{"type":"Point","coordinates":[-121.57760113477707,39.159237124168556]}},{"type":"Feature","geometry":{"type":"Point","coordinates":[-121.568417,39.116573]},"properties":{"listingKey":"20251106115258498090000000","listingId":"SN-25255090","listPrice":279900,"city":"Olivehurst","baths":1,"slug":"20251106115258498090000000","mlsSource":"CRMLS","propertyType":"A","propertySubType":"Single Family Residence","livingArea":784,"associationFee":0,"unparsedAddress":"5599 Arboga Road, Olivehurst, CA 95961"}},{"type":"Feature","id":155749,"properties":{"cluster":true,"cluster_id":155749,"point_count":5,"point_count_abbreviated":5},"geometry":{"type":"Point","coordinates":[-121.63952422142029,39.16113135194112]}},{"type":"Feature","id":82436,"properties":{"cluster":true,"cluster_id":82436,"point_count":4,"point_count_abbreviated":4},"geometry":{"type":"Point","coordinates":[-121.54239177703857,39.337008858349634]}}]