[{"type":"Feature","geometry":{"type":"Point","coordinates":[-121.347084,38.414594]},"properties":{"listingKey":"20250623191442770949000000","listingId":"01-41102447","listPrice":840000,"city":"Elk Grove","baths":3,"slug":"20250623191442770949000000","mlsSource":"CRMLS","propertyType":"A","propertySubType":"Single Family Residence","livingArea":3389,"unparsedAddress":"9416 Lyndley Plaza Way, Elk Grove, CA 95624"}},{"type":"Feature","geometry":{"type":"Point","coordinates":[-121.43686,38.449609]},"properties":{"listingKey":"20250812082125427793000000","listingId":"01-41107827","listPrice":779000,"city":"Sacramento","baths":2.5,"slug":"20250812082125427793000000","mlsSource":"CRMLS","propertyType":"A","propertySubType":"Single Family Residence","livingArea":1773,"unparsedAddress":"8450 Montpelier way, Sacramento, CA 95823"}},{"type":"Feature","geometry":{"type":"Point","coordinates":[-121.55028,38.500048]},"properties":{"listingKey":"20251010063504385296000000","listingId":"01-41114341","listPrice":628888,"city":"Sacramento","baths":3,"slug":"20251010063504385296000000","mlsSource":"CRMLS","propertyType":"A","propertySubType":"Single Family Residence","livingArea":2143,"unparsedAddress":"6980 Riverside Blvd, Sacramento, CA 95831"}},{"type":"Feature","geometry":{"type":"Point","coordinates":[-121.515304,38.546402]},"properties":{"listingKey":"20251113211249979338000000","listingId":"01-41117370","listPrice":884855,"city":"West Sacramento","baths":3.5,"slug":"20251113211249979338000000","mlsSource":"CRMLS","propertyType":"A","propertySubType":"Single Family Residence","livingArea":3123,"unparsedAddress":"2822 Moonflower Street, West Sacramento, CA 95691"}},{"type":"Feature","id":99684,"properties":{"cluster":true,"cluster_id":99684,"point_count":5,"point_count_abbreviated":5},"geometry":{"type":"Point","coordinates":[-121.4790004491806,38.47238463055399]}},{"type":"Feature","geometry":{"type":"Point","coordinates":[-121.394401,38.391276]},"properties":{"listingKey":"20251101065749814950000000","listingId":"01-41116438","listPrice":739888,"city":"Elk Grove","baths":2,"slug":"20251101065749814950000000","mlsSource":"CRMLS","propertyType":"A","propertySubType":"Single Family Residence","livingArea":2318,"unparsedAddress":"10092 Avocado Way, Elk Grove, CA 95757"}},{"type":"Feature","id":180453,"properties":{"cluster":true,"cluster_id":180453,"point_count":2,"point_count_abbreviated":2},"geometry":{"type":"Point","coordinates":[-121.3619515299797,38.48990090136934]}}]