[{"type":"Feature","geometry":{"type":"Point","coordinates":[-116.211422,33.727907]},"properties":{"listingKey":"20250901144227928883000000","listingId":"219134685","listPrice":495900,"city":"Indio","baths":2,"slug":"20250901144227928883000000","mlsSource":"GPS","propertyType":"A","propertySubType":"Single Family Residence","livingArea":1854,"associationFee":0,"unparsedAddress":"83307 Tourmaline Avenue, Indio, CA 92201"}},{"type":"Feature","geometry":{"type":"Point","coordinates":[-116.20276,33.733923]},"properties":{"listingKey":"20250910144012681811000000","listingId":"219135121","listPrice":2995,"city":"Indio","baths":2,"slug":"20250910144012681811000000","mlsSource":"GPS","propertyType":"B","propertySubType":"Single Family Residence","livingArea":2035,"associationFee":0,"unparsedAddress":"83793 Pacifica Sur, Indio, CA 92203"}},{"type":"Feature","id":55976,"properties":{"cluster":true,"cluster_id":55976,"point_count":7,"point_count_abbreviated":7},"geometry":{"type":"Point","coordinates":[-116.19558972971781,33.731274114676694]}},{"type":"Feature","geometry":{"type":"Point","coordinates":[-116.192735,33.725141]},"properties":{"listingKey":"20251009184856461081000000","listingId":"219136665","listPrice":84000,"city":"Indio","baths":1,"slug":"20251009184856461081000000","mlsSource":"GPS","propertyType":"E","livingArea":0,"associationFee":292,"unparsedAddress":"84250 Indio Springs Dr, #444, 444, Indio, CA 92203"}},{"type":"Feature","id":56360,"properties":{"cluster":true,"cluster_id":56360,"point_count":5,"point_count_abbreviated":5},"geometry":{"type":"Point","coordinates":[-116.19483518600464,33.73316442073309]}},{"type":"Feature","id":38184,"properties":{"cluster":true,"cluster_id":38184,"point_count":7,"point_count_abbreviated":7},"geometry":{"type":"Point","coordinates":[-116.19924366474152,33.73350474787857]}},{"type":"Feature","id":113449,"properties":{"cluster":true,"cluster_id":113449,"point_count":2,"point_count_abbreviated":2},"geometry":{"type":"Point","coordinates":[-116.19383364915848,33.738990584213056]}},{"type":"Feature","id":88040,"properties":{"cluster":true,"cluster_id":88040,"point_count":2,"point_count_abbreviated":2},"geometry":{"type":"Point","coordinates":[-116.21041774749756,33.74093106384224]}},{"type":"Feature","geometry":{"type":"Point","coordinates":[-116.197023,33.73928]},"properties":{"listingKey":"20251019131225401285000000","listingId":"219137298","listPrice":5900,"city":"Indio","baths":3,"slug":"20251019131225401285000000","mlsSource":"GPS","propertyType":"B","propertySubType":"Single Family Residence","livingArea":1920,"associationFee":1,"unparsedAddress":"84136 Olona Court, Indio, CA 92203"}},{"type":"Feature","id":39656,"properties":{"cluster":true,"cluster_id":39656,"point_count":4,"point_count_abbreviated":4},"geometry":{"type":"Point","coordinates":[-116.1973862349987,33.738274603057135]}},{"type":"Feature","geometry":{"type":"Point","coordinates":[-116.206575,33.736959]},"properties":{"listingKey":"20251002143438708712000000","listingId":"219136567","listPrice":629000,"city":"Indio","baths":3,"slug":"20251002143438708712000000","mlsSource":"GPS","propertyType":"A","propertySubType":"Single Family Residence","livingArea":2811,"associationFee":125,"unparsedAddress":"83587 Moroccan Drive, Indio, CA 92203"}},{"type":"Feature","id":82280,"properties":{"cluster":true,"cluster_id":82280,"point_count":2,"point_count_abbreviated":2},"geometry":{"type":"Point","coordinates":[-116.20063573122025,33.73798240965354]}},{"type":"Feature","id":41000,"properties":{"cluster":true,"cluster_id":41000,"point_count":3,"point_count_abbreviated":3},"geometry":{"type":"Point","coordinates":[-116.20397329330443,33.738562334520225]}},{"type":"Feature","geometry":{"type":"Point","coordinates":[-116.195223,33.735411]},"properties":{"listingKey":"20251105224731661347000000","listingId":"219138290","listPrice":134900,"city":"Indio","baths":1,"slug":"20251105224731661347000000","mlsSource":"GPS","propertyType":"E","livingArea":400,"associationFee":535,"unparsedAddress":"84136 Ave 44, #628, 628, Indio, CA 92203"}}]