[{"type":"Feature","geometry":{"type":"Point","coordinates":[-117.098032,33.618247]},"properties":{"listingKey":"20250709122109848609000000","listingId":"8P-2505116","listPrice":689000,"city":"Winchester","baths":2.75,"slug":"20250709122109848609000000","mlsSource":"CRMLS","propertyType":"A","propertySubType":"Single Family Residence","livingArea":2024,"associationFee":0,"unparsedAddress":"34592 Wintersweet Lane, Winchester, CA 92596"}},{"type":"Feature","geometry":{"type":"Point","coordinates":[-117.096829,33.621251]},"properties":{"listingKey":"20250722014301813589000000","listingId":"SW-25163602","listPrice":475000,"city":"Winchester","baths":2.5,"slug":"20250722014301813589000000","mlsSource":"CRMLS","propertyType":"A","propertySubType":"Townhouse","livingArea":1399,"associationFee":327,"unparsedAddress":"34495 Agave Drive, 34107, Winchester, CA 92596"}},{"type":"Feature","geometry":{"type":"Point","coordinates":[-117.094079,33.617529]},"properties":{"listingKey":"20251112211040112348000000","listingId":"SW-25259155","listPrice":675000,"city":"Winchester","baths":3,"slug":"20251112211040112348000000","mlsSource":"CRMLS","propertyType":"A","propertySubType":"Single Family Residence","livingArea":2701,"associationFee":0,"unparsedAddress":"34646 Shallot Drive, Winchester, CA 92596"}},{"type":"Feature","geometry":{"type":"Point","coordinates":[-117.09488,33.619362]},"properties":{"listingKey":"20251115205230937576000000","listingId":"IG-25192845","listPrice":699650,"city":"Winchester","baths":3,"slug":"20251115205230937576000000","mlsSource":"CRMLS","propertyType":"A","propertySubType":"Single Family Residence","livingArea":2913,"associationFee":0,"unparsedAddress":"32372 Safflower, Winchester, CA 92596"}},{"type":"Feature","id":206825,"properties":{"cluster":true,"cluster_id":206825,"point_count":3,"point_count_abbreviated":3},"geometry":{"type":"Point","coordinates":[-117.0959061384201,33.622100340193896]}}]