[{"type":"Feature","geometry":{"type":"Point","coordinates":[-116.964339,33.555233]},"properties":{"listingKey":"20251008015720747918000000","listingId":"OC-25234870","listPrice":569000,"city":"Temecula","baths":1,"slug":"20251008015720747918000000","mlsSource":"CRMLS","propertyType":"A","propertySubType":"Single Family Residence","livingArea":798,"associationFee":0,"unparsedAddress":"39145 Calle Cordova, Temecula, CA 92592"}},{"type":"Feature","id":86245,"properties":{"cluster":true,"cluster_id":86245,"point_count":14,"point_count_abbreviated":14},"geometry":{"type":"Point","coordinates":[-117.04863335405078,33.51448424667025]}},{"type":"Feature","geometry":{"type":"Point","coordinates":[-117.022975,33.487015]},"properties":{"listingKey":"20251007014024669919000000","listingId":"SW-25233915","listPrice":6800000,"city":"Temecula","baths":1.5,"slug":"20251007014024669919000000","mlsSource":"CRMLS","propertyType":"A","propertySubType":"Single Family Residence","livingArea":1647,"associationFee":0,"unparsedAddress":"36435 Mustang Cir, Temecula, CA 92592"}},{"type":"Feature","geometry":{"type":"Point","coordinates":[-117.028551,33.503634]},"properties":{"listingKey":"20251011051715291444000000","listingId":"8N-2509852","listPrice":3400000,"city":"Temecula","baths":6.5,"slug":"20251011051715291444000000","mlsSource":"CRMLS","propertyType":"A","propertySubType":"Single Family Residence","livingArea":10000,"associationFee":0,"unparsedAddress":"36500 De Portola Road, Temecula, CA 92592"}},{"type":"Feature","geometry":{"type":"Point","coordinates":[-116.954993,33.521225]},"properties":{"listingKey":"20250802104313410694000000","listingId":"SW-25173448","listPrice":775000,"city":"Temecula","baths":2,"slug":"20250802104313410694000000","mlsSource":"CRMLS","propertyType":"A","propertySubType":"Single Family Residence","livingArea":1512,"associationFee":0,"unparsedAddress":"40399 Denise Road, Temecula, CA 92544"}},{"type":"Feature","geometry":{"type":"Point","coordinates":[-116.944863,33.537185]},"properties":{"listingKey":"20251101160046337320000000","listingId":"SW-25251871","listPrice":770000,"city":"Hemet","baths":3,"slug":"20251101160046337320000000","mlsSource":"CRMLS","propertyType":"A","propertySubType":"Manufactured On Land","livingArea":2280,"associationFee":0,"unparsedAddress":"40410 Exa Ely Road, Hemet, CA 92544"}},{"type":"Feature","geometry":{"type":"Point","coordinates":[-116.928287,33.554735]},"properties":{"listingKey":"20251029185333001495000000","listingId":"219137829","listPrice":11999000,"city":"Hemet","baths":5.5,"slug":"20251029185333001495000000","mlsSource":"GPS","propertyType":"A","propertySubType":"Single Family Residence","livingArea":6995,"associationFee":0,"unparsedAddress":"39345 San Ignacio Road, Hemet, CA 92544"}},{"type":"Feature","geometry":{"type":"Point","coordinates":[-116.899513,33.487782]},"properties":{"listingKey":"20251021203128645308000000","listingId":"SW-25242720","listPrice":1500,"city":"Aguanga","baths":1,"slug":"20251021203128645308000000","mlsSource":"CRMLS","propertyType":"B","propertySubType":"Single Family Residence","livingArea":976,"associationFee":0,"unparsedAddress":"43590 Sage, Aguanga, CA 92536"}},{"type":"Feature","id":232167,"properties":{"cluster":true,"cluster_id":232167,"point_count":2,"point_count_abbreviated":2},"geometry":{"type":"Point","coordinates":[-117.05013155937195,33.47515572990433]}},{"type":"Feature","geometry":{"type":"Point","coordinates":[-116.906274,33.529215]},"properties":{"listingKey":"20250823191411405428000000","listingId":"8P-2506459","listPrice":350000,"city":"Hemet","baths":1,"slug":"20250823191411405428000000","mlsSource":"CRMLS","propertyType":"A","propertySubType":"Manufactured On Land","livingArea":840,"associationFee":0,"unparsedAddress":"40645 Sage Road, Hemet, CA 92544"}},{"type":"Feature","id":96677,"properties":{"cluster":true,"cluster_id":96677,"point_count":2,"point_count_abbreviated":2},"geometry":{"type":"Point","coordinates":[-117.03640401363373,33.550448317726264]}},{"type":"Feature","id":233221,"properties":{"cluster":true,"cluster_id":233221,"point_count":6,"point_count_abbreviated":6},"geometry":{"type":"Point","coordinates":[-116.98301196098328,33.54435304372818]}},{"type":"Feature","id":251237,"properties":{"cluster":true,"cluster_id":251237,"point_count":3,"point_count_abbreviated":3},"geometry":{"type":"Point","coordinates":[-117.01782882213594,33.52907124095479]}},{"type":"Feature","id":1025129,"properties":{"cluster":true,"cluster_id":1025129,"point_count":2,"point_count_abbreviated":2},"geometry":{"type":"Point","coordinates":[-117.0087879896164,33.438057870265595]}}]