[{"type":"Feature","id":367304,"properties":{"cluster":true,"cluster_id":367304,"point_count":2,"point_count_abbreviated":2},"geometry":{"type":"Point","coordinates":[-117.1084588766098,34.02119954062675]}},{"type":"Feature","geometry":{"type":"Point","coordinates":[-117.113164,34.032198]},"properties":{"listingKey":"20251118203540135314000000","listingId":"IV-25262433","listPrice":510000,"city":"Yucaipa","baths":2,"slug":"20251118203540135314000000","mlsSource":"CRMLS","propertyType":"A","propertySubType":"Single Family Residence","livingArea":1340,"associationFee":0,"unparsedAddress":"12190 Gladys, Yucaipa, CA 92399"}},{"type":"Feature","geometry":{"type":"Point","coordinates":[-117.112086,34.034428]},"properties":{"listingKey":"20250906043214455506000000","listingId":"IG-25199599","listPrice":749000,"city":"Yucaipa","baths":2.5,"slug":"20250906043214455506000000","mlsSource":"CRMLS","propertyType":"A","propertySubType":"Single Family Residence","livingArea":2351,"associationFee":150,"unparsedAddress":"12076 18th Street, Yucaipa, CA 92399"}},{"type":"Feature","geometry":{"type":"Point","coordinates":[-117.114038,34.022364]},"properties":{"listingKey":"20251028074339340348000000","listingId":"IG-25247452","listPrice":1399000,"city":"Redlands","baths":3.75,"slug":"20251028074339340348000000","mlsSource":"CRMLS","propertyType":"A","propertySubType":"Duplex","livingArea":5100,"associationFee":0,"unparsedAddress":"31607 Florida Street, Redlands, CA 92373"}},{"type":"Feature","geometry":{"type":"Point","coordinates":[-117.110505,34.022362]},"properties":{"listingKey":"20251106170427606132000000","listingId":"SW-25254431","listPrice":699000,"city":"Redlands","baths":2,"slug":"20251106170427606132000000","mlsSource":"CRMLS","propertyType":"A","propertySubType":"Single Family Residence","livingArea":1864,"associationFee":0,"unparsedAddress":"31750 Florida, Redlands, CA 92373"}}]