[{"type":"Feature","id":445416,"properties":{"cluster":true,"cluster_id":445416,"point_count":2,"point_count_abbreviated":2},"geometry":{"type":"Point","coordinates":[-117.11374551057816,33.69126328368438]}},{"type":"Feature","id":468776,"properties":{"cluster":true,"cluster_id":468776,"point_count":2,"point_count_abbreviated":2},"geometry":{"type":"Point","coordinates":[-117.11059391498566,33.69057145335751]}},{"type":"Feature","geometry":{"type":"Point","coordinates":[-117.110202,33.689047]},"properties":{"listingKey":"20251025042500725303000000","listingId":"SW-25241383","listPrice":949900,"city":"Winchester","baths":3.5,"slug":"20251025042500725303000000","mlsSource":"CRMLS","propertyType":"A","propertySubType":"Single Family Residence","livingArea":3291,"associationFee":30,"unparsedAddress":"31528 Settlers, Winchester, CA 92596"}},{"type":"Feature","id":81960,"properties":{"cluster":true,"cluster_id":81960,"point_count":3,"point_count_abbreviated":3},"geometry":{"type":"Point","coordinates":[-117.10071623325346,33.698196157444414]}},{"type":"Feature","geometry":{"type":"Point","coordinates":[-117.092667,33.692943]},"properties":{"listingKey":"20250814005649317668000000","listingId":"SW-25182545","listPrice":657999,"city":"Winchester","baths":3,"slug":"20250814005649317668000000","mlsSource":"CRMLS","propertyType":"A","propertySubType":"Single Family Residence","livingArea":2722,"associationFee":90,"unparsedAddress":"29550 Woodcreek Trail, Winchester, CA 92596"}},{"type":"Feature","id":459976,"properties":{"cluster":true,"cluster_id":459976,"point_count":2,"point_count_abbreviated":2},"geometry":{"type":"Point","coordinates":[-117.09585517644882,33.693472640015685]}},{"type":"Feature","id":488808,"properties":{"cluster":true,"cluster_id":488808,"point_count":2,"point_count_abbreviated":2},"geometry":{"type":"Point","coordinates":[-117.0998141169548,33.69015635248813]}},{"type":"Feature","geometry":{"type":"Point","coordinates":[-117.102718,33.691004]},"properties":{"listingKey":"20251114233046516439000000","listingId":"IV-25256552","listPrice":576188,"city":"Winchester","baths":2,"slug":"20251114233046516439000000","mlsSource":"CRMLS","propertyType":"A","propertySubType":"Single Family Residence","livingArea":1569,"associationFee":40,"unparsedAddress":"32073 Prairie Crossings Drive, Winchester, CA 92596"}},{"type":"Feature","geometry":{"type":"Point","coordinates":[-117.103069,33.694691]},"properties":{"listingKey":"20251112181522284288000000","listingId":"SW-25256024","listPrice":550000,"city":"Winchester","baths":2,"slug":"20251112181522284288000000","mlsSource":"CRMLS","propertyType":"A","propertySubType":"Single Family Residence","livingArea":1575,"associationFee":0,"unparsedAddress":"29318 Marblewood Court, Winchester, CA 92596"}}]