[{"type":"Feature","geometry":{"type":"Point","coordinates":[-117.107433,33.555596]},"properties":{"listingKey":"20251114145029560447000000","listingId":"SW-25260282","listPrice":650000,"city":"Murrieta","baths":2.5,"slug":"20251114145029560447000000","mlsSource":"CRMLS","propertyType":"A","propertySubType":"Single Family Residence","livingArea":2706,"associationFee":45,"unparsedAddress":"31698 Summerfield, Murrieta, CA 92563"}},{"type":"Feature","geometry":{"type":"Point","coordinates":[-117.103738,33.550815]},"properties":{"listingKey":"20250930013305882238000000","listingId":"IV-25227892","listPrice":950000,"city":"Temecula","baths":3.5,"slug":"20250930013305882238000000","mlsSource":"CRMLS","propertyType":"A","propertySubType":"Single Family Residence","livingArea":3167,"associationFee":292,"unparsedAddress":"31849 Country View, Temecula, CA 92591"}},{"type":"Feature","id":1026569,"properties":{"cluster":true,"cluster_id":1026569,"point_count":2,"point_count_abbreviated":2},"geometry":{"type":"Point","coordinates":[-117.10136711597443,33.54593726020455]}},{"type":"Feature","id":224680,"properties":{"cluster":true,"cluster_id":224680,"point_count":6,"point_count_abbreviated":6},"geometry":{"type":"Point","coordinates":[-117.09644168615343,33.546235322146785]}},{"type":"Feature","geometry":{"type":"Point","coordinates":[-117.092586,33.545203]},"properties":{"listingKey":"20250916080252644217000000","listingId":"SW-25217445","listPrice":575000,"city":"Temecula","baths":2,"slug":"20250916080252644217000000","mlsSource":"CRMLS","propertyType":"A","propertySubType":"Condominium","livingArea":1497,"associationFee":344,"unparsedAddress":"32711 Brunello Way, Temecula, CA 92591"}},{"type":"Feature","id":789961,"properties":{"cluster":true,"cluster_id":789961,"point_count":3,"point_count_abbreviated":3},"geometry":{"type":"Point","coordinates":[-117.10033178329468,33.54872409923098]}},{"type":"Feature","geometry":{"type":"Point","coordinates":[-117.099518,33.552563]},"properties":{"listingKey":"20251108181335296151000000","listingId":"IG-25256750","listPrice":1816580,"city":"Temecula","baths":6.5,"slug":"20251108181335296151000000","mlsSource":"CRMLS","propertyType":"A","propertySubType":"Single Family Residence","livingArea":4650,"associationFee":296,"unparsedAddress":"32135 Roripaugh Valley Road, Temecula, CA 92591"}},{"type":"Feature","id":449384,"properties":{"cluster":true,"cluster_id":449384,"point_count":4,"point_count_abbreviated":4},"geometry":{"type":"Point","coordinates":[-117.0956164598465,33.5439208441627]}},{"type":"Feature","geometry":{"type":"Point","coordinates":[-117.112464,33.552472]},"properties":{"listingKey":"20251016212713817316000000","listingId":"IV-25241232","listPrice":995000,"city":"Temecula","baths":3.5,"slug":"20251016212713817316000000","mlsSource":"CRMLS","propertyType":"A","propertySubType":"Single Family Residence","livingArea":3344,"associationFee":293,"unparsedAddress":"39120 Hidden Creek Lane, Temecula, CA 92591"}}]