[{"type":"Feature","geometry":{"type":"Point","coordinates":[-121.838516,37.721538]},"properties":{"listingKey":"20251104025105682748000000","listingId":"01-41116596","listPrice":6250,"city":"Dublin","baths":4.5,"slug":"20251104025105682748000000","mlsSource":"CRMLS","propertyType":"B","propertySubType":"Single Family Residence","livingArea":3974,"unparsedAddress":"5007 Volterra Ct, Dublin, CA 94568"}},{"type":"Feature","geometry":{"type":"Point","coordinates":[-121.896022,37.764912]},"properties":{"listingKey":"20251107235313332497000000","listingId":"01-41116988","listPrice":5950,"city":"San Ramon","baths":4,"slug":"20251107235313332497000000","mlsSource":"CRMLS","propertyType":"B","propertySubType":"Single Family Residence","livingArea":4013,"unparsedAddress":"852 Bandol Way, San Ramon, CA 94582"}},{"type":"Feature","id":469926,"properties":{"cluster":true,"cluster_id":469926,"point_count":4,"point_count_abbreviated":4},"geometry":{"type":"Point","coordinates":[-121.86013698577881,37.72467933878343]}},{"type":"Feature","geometry":{"type":"Point","coordinates":[-121.875084,37.721182]},"properties":{"listingKey":"20251121004854814230000000","listingId":"01-41117925","listPrice":1198000,"city":"Dublin","baths":3.5,"slug":"20251121004854814230000000","mlsSource":"CRMLS","propertyType":"A","propertySubType":"Single Family Residence","livingArea":1719,"associationFee":48,"unparsedAddress":"6020 Hillbrook Pl, Dublin, CA 94568"}},{"type":"Feature","geometry":{"type":"Point","coordinates":[-121.899036,37.783611]},"properties":{"listingKey":"20251118203355951498000000","listingId":"01-41117664","listPrice":4500000,"city":"Danville","baths":2.5,"slug":"20251118203355951498000000","mlsSource":"CRMLS","propertyType":"A","propertySubType":"Single Family Residence","livingArea":2936,"unparsedAddress":"1610 Lawrence Road, Danville, CA"}},{"type":"Feature","id":261480,"properties":{"cluster":true,"cluster_id":261480,"point_count":2,"point_count_abbreviated":2},"geometry":{"type":"Point","coordinates":[-121.8755355477333,37.73633829590692]}}]