[{"type":"Feature","id":44584,"properties":{"cluster":true,"cluster_id":44584,"point_count":2,"point_count_abbreviated":2},"geometry":{"type":"Point","coordinates":[-116.42152100801468,33.781510480636456]}},{"type":"Feature","id":51208,"properties":{"cluster":true,"cluster_id":51208,"point_count":3,"point_count_abbreviated":3},"geometry":{"type":"Point","coordinates":[-116.4151954650879,33.781234040117724]}},{"type":"Feature","geometry":{"type":"Point","coordinates":[-116.432412,33.780182]},"properties":{"listingKey":"20251112163458207129000000","listingId":"JT-25258849","listPrice":1150000,"city":"Rancho Mirage","baths":3,"slug":"20251112163458207129000000","mlsSource":"CRMLS","propertyType":"A","propertySubType":"Single Family Residence","livingArea":1901,"associationFee":755,"unparsedAddress":"36927 Palm View, Rancho Mirage, CA 92270"}},{"type":"Feature","geometry":{"type":"Point","coordinates":[-116.424122,33.779423]},"properties":{"listingKey":"20250930202959890983000000","listingId":"OC-25228283","listPrice":27000,"city":"Rancho Mirage","baths":4.5,"slug":"20250930202959890983000000","mlsSource":"CRMLS","propertyType":"B","propertySubType":"Single Family Residence","livingArea":6061,"associationFee":0,"unparsedAddress":"70955 Tamarisk Lane, Rancho Mirage, CA 92270"}},{"type":"Feature","geometry":{"type":"Point","coordinates":[-116.424005,33.78211]},"properties":{"listingKey":"20251107205219652463000000","listingId":"219138445","listPrice":1800000,"city":"Rancho Mirage","baths":5,"slug":"20251107205219652463000000","mlsSource":"GPS","propertyType":"A","propertySubType":"Single Family Residence","livingArea":3020,"associationFee":0,"unparsedAddress":"36736 Jasmine Lane Lane, Rancho Mirage, CA 92270"}},{"type":"Feature","id":47944,"properties":{"cluster":true,"cluster_id":47944,"point_count":2,"point_count_abbreviated":2},"geometry":{"type":"Point","coordinates":[-116.42819970846176,33.78929503595931]}},{"type":"Feature","geometry":{"type":"Point","coordinates":[-116.430373,33.790734]},"properties":{"listingKey":"20251015202445865088000000","listingId":"219137212","listPrice":699000,"city":"Rancho Mirage","baths":2,"slug":"20251015202445865088000000","mlsSource":"GPS","propertyType":"A","propertySubType":"Condominium","livingArea":1756,"associationFee":854,"unparsedAddress":"730 Inverness Drive, Rancho Mirage, CA 92270"}},{"type":"Feature","id":45929,"properties":{"cluster":true,"cluster_id":45929,"point_count":3,"point_count_abbreviated":3},"geometry":{"type":"Point","coordinates":[-116.4304679632187,33.792926991845604]}},{"type":"Feature","id":49992,"properties":{"cluster":true,"cluster_id":49992,"point_count":2,"point_count_abbreviated":2},"geometry":{"type":"Point","coordinates":[-116.42337441444397,33.78572831723454]}},{"type":"Feature","geometry":{"type":"Point","coordinates":[-116.426653,33.793879]},"properties":{"listingKey":"20251101043743681712000000","listingId":"219137991","listPrice":4400,"city":"Rancho Mirage","baths":2,"slug":"20251101043743681712000000","mlsSource":"GPS","propertyType":"B","propertySubType":"Condominium","livingArea":2010,"associationFee":853,"unparsedAddress":"10403 Sunningdale Drive, Rancho Mirage, CA 92270"}},{"type":"Feature","geometry":{"type":"Point","coordinates":[-116.42131,33.796195]},"properties":{"listingKey":"20250921221303410026000000","listingId":"219136150","listPrice":1499000,"city":"Rancho Mirage","baths":3,"slug":"20250921221303410026000000","mlsSource":"GPS","propertyType":"A","propertySubType":"Single Family Residence","livingArea":3169,"associationFee":474,"unparsedAddress":"1 Birkdale Circle, Rancho Mirage, CA 92270"}},{"type":"Feature","geometry":{"type":"Point","coordinates":[-116.428115,33.784447]},"properties":{"listingKey":"20250629195032010490000000","listingId":"219134464","listPrice":1795000,"city":"Rancho Mirage","baths":2.5,"slug":"20250629195032010490000000","mlsSource":"GPS","propertyType":"A","propertySubType":"Single Family Residence","livingArea":3607,"associationFee":325,"unparsedAddress":"12 Boulder Lane, Rancho Mirage, CA 92270"}},{"type":"Feature","geometry":{"type":"Point","coordinates":[-116.419774,33.787975]},"properties":{"listingKey":"20251113084654685043000000","listingId":"PW-25259656","listPrice":1718000,"city":"Rancho Mirage","baths":5,"slug":"20251113084654685043000000","mlsSource":"CRMLS","propertyType":"A","propertySubType":"Single Family Residence","livingArea":3915,"associationFee":300,"unparsedAddress":"17 Oakmont Drive, Rancho Mirage, CA 92270"}},{"type":"Feature","geometry":{"type":"Point","coordinates":[-116.425929,33.788941]},"properties":{"listingKey":"20251015035639072125000000","listingId":"219136975","listPrice":9999,"city":"Rancho Mirage","baths":3,"slug":"20251015035639072125000000","mlsSource":"GPS","propertyType":"B","propertySubType":"Condominium","livingArea":2527,"associationFee":0,"unparsedAddress":"829 Inverness Drive, Rancho Mirage, CA 92270"}},{"type":"Feature","id":134569,"properties":{"cluster":true,"cluster_id":134569,"point_count":2,"point_count_abbreviated":2},"geometry":{"type":"Point","coordinates":[-116.41965955495834,33.79086434513134]}},{"type":"Feature","id":40456,"properties":{"cluster":true,"cluster_id":40456,"point_count":4,"point_count_abbreviated":4},"geometry":{"type":"Point","coordinates":[-116.41608953475952,33.78624550065891]}},{"type":"Feature","geometry":{"type":"Point","coordinates":[-116.412245,33.787475]},"properties":{"listingKey":"20251014141557188313000000","listingId":"219137958","listPrice":1497000,"city":"Rancho Mirage","baths":3.75,"slug":"20251014141557188313000000","mlsSource":"GPS","propertyType":"A","propertySubType":"Single Family Residence","livingArea":5238,"associationFee":405,"unparsedAddress":"7 Jennifer Court, Rancho Mirage, CA 92270"}},{"type":"Feature","geometry":{"type":"Point","coordinates":[-116.415275,33.796427]},"properties":{"listingKey":"20250815222039329570000000","listingId":"219134028","listPrice":1199000,"city":"Rancho Mirage","baths":2.5,"slug":"20250815222039329570000000","mlsSource":"GPS","propertyType":"A","propertySubType":"Condominium","livingArea":2950,"associationFee":900,"unparsedAddress":"32 Colonial Drive, Rancho Mirage, CA 92270"}},{"type":"Feature","id":37736,"properties":{"cluster":true,"cluster_id":37736,"point_count":2,"point_count_abbreviated":2},"geometry":{"type":"Point","coordinates":[-116.4112240076065,33.794849904468336]}}]