[{"type":"Feature","id":45288,"properties":{"cluster":true,"cluster_id":45288,"point_count":3,"point_count_abbreviated":3},"geometry":{"type":"Point","coordinates":[-116.4157712459564,33.74953555835127]}},{"type":"Feature","id":34185,"properties":{"cluster":true,"cluster_id":34185,"point_count":2,"point_count_abbreviated":2},"geometry":{"type":"Point","coordinates":[-116.41342878341675,33.74332649194511]}},{"type":"Feature","geometry":{"type":"Point","coordinates":[-116.417699,33.746975]},"properties":{"listingKey":"20251106002353182412000000","listingId":"219138309","listPrice":899000,"city":"Rancho Mirage","baths":1.5,"slug":"20251106002353182412000000","mlsSource":"GPS","propertyType":"A","propertySubType":"Single Family Residence","livingArea":2112,"associationFee":0,"unparsedAddress":"41615 Morningside Court, Rancho Mirage, CA 92270"}},{"type":"Feature","id":78312,"properties":{"cluster":true,"cluster_id":78312,"point_count":5,"point_count_abbreviated":5},"geometry":{"type":"Point","coordinates":[-116.41117036342621,33.75178891006101]}},{"type":"Feature","id":44264,"properties":{"cluster":true,"cluster_id":44264,"point_count":5,"point_count_abbreviated":5},"geometry":{"type":"Point","coordinates":[-116.41542971134186,33.75688415685384]}},{"type":"Feature","id":46696,"properties":{"cluster":true,"cluster_id":46696,"point_count":5,"point_count_abbreviated":5},"geometry":{"type":"Point","coordinates":[-116.41500914096834,33.75382633149111]}},{"type":"Feature","geometry":{"type":"Point","coordinates":[-116.43182,33.75348]},"properties":{"listingKey":"20250903153148521434000000","listingId":"219137671","listPrice":3195000,"city":"Rancho Mirage","baths":4.5,"slug":"20250903153148521434000000","mlsSource":"GPS","propertyType":"A","propertySubType":"Single Family Residence","livingArea":3990,"associationFee":672,"unparsedAddress":"70630 Boothill Road, Rancho Mirage, CA 92270"}},{"type":"Feature","geometry":{"type":"Point","coordinates":[-116.426906,33.759972]},"properties":{"listingKey":"20251001195019430865000000","listingId":"219138790","listPrice":2900000,"city":"Rancho Mirage","baths":5.5,"slug":"20251001195019430865000000","mlsSource":"GPS","propertyType":"A","propertySubType":"Single Family Residence","livingArea":4929,"associationFee":1050,"unparsedAddress":"2 Deerfield Court, Rancho Mirage, CA 92270"}},{"type":"Feature","geometry":{"type":"Point","coordinates":[-116.428187,33.75388]},"properties":{"listingKey":"20250920040000763401000000","listingId":"OC-25217924","listPrice":2900000,"city":"Rancho Mirage","baths":3,"slug":"20250920040000763401000000","mlsSource":"CRMLS","propertyType":"A","propertySubType":"Single Family Residence","livingArea":3760,"associationFee":6022,"unparsedAddress":"70854 Fairway Drive, Rancho Mirage, CA 92270"}},{"type":"Feature","geometry":{"type":"Point","coordinates":[-116.421557,33.760018]},"properties":{"listingKey":"20250821203122329554000000","listingId":"219134249","listPrice":1549900,"city":"Rancho Mirage","baths":3,"slug":"20250821203122329554000000","mlsSource":"GPS","propertyType":"A","propertySubType":"Single Family Residence","livingArea":3153,"associationFee":1709,"unparsedAddress":"142 Yale Drive, Rancho Mirage, CA 92270"}},{"type":"Feature","geometry":{"type":"Point","coordinates":[-116.4219,33.751636]},"properties":{"listingKey":"20251027173125476446000000","listingId":"219137814","listPrice":2650000,"city":"Rancho Mirage","baths":3.5,"slug":"20251027173125476446000000","mlsSource":"GPS","propertyType":"A","propertySubType":"Single Family Residence","livingArea":5792,"associationFee":750,"unparsedAddress":"40735 Paxton Drive, Rancho Mirage, CA 92270"}},{"type":"Feature","id":46152,"properties":{"cluster":true,"cluster_id":46152,"point_count":2,"point_count_abbreviated":2},"geometry":{"type":"Point","coordinates":[-116.41894072294235,33.75172557438076]}}]