[{"type":"Feature","geometry":{"type":"Point","coordinates":[-121.609885,39.836228]},"properties":{"listingKey":"20251010213020349404000000","listingId":"SN-25225400","listPrice":189500,"city":"Magalia","baths":2,"slug":"20251010213020349404000000","mlsSource":"CRMLS","propertyType":"A","propertySubType":"Single Family Residence","livingArea":1440,"associationFee":310,"unparsedAddress":"14471 Essex Court, Magalia, CA 95954"}},{"type":"Feature","geometry":{"type":"Point","coordinates":[-121.613394,39.839357]},"properties":{"listingKey":"20251119084752493557000000","listingId":"SN-25262322","listPrice":145000,"city":"Magalia","baths":2,"slug":"20251119084752493557000000","mlsSource":"CRMLS","propertyType":"A","propertySubType":"Manufactured On Land","livingArea":1440,"associationFee":310,"unparsedAddress":"6137 Guilford, Magalia, CA 95954"}},{"type":"Feature","id":382313,"properties":{"cluster":true,"cluster_id":382313,"point_count":2,"point_count_abbreviated":2},"geometry":{"type":"Point","coordinates":[-121.61150425672531,39.83796108301496]}},{"type":"Feature","geometry":{"type":"Point","coordinates":[-121.615039,39.838406]},"properties":{"listingKey":"20250706203329905330000000","listingId":"SN-25142342","listPrice":159900,"city":"Magalia","baths":2,"slug":"20250706203329905330000000","mlsSource":"CRMLS","propertyType":"A","propertySubType":"Manufactured On Land","livingArea":1248,"associationFee":310,"unparsedAddress":"14617 Carnegie Road, Magalia, CA 95954"}},{"type":"Feature","geometry":{"type":"Point","coordinates":[-121.613475,39.841919]},"properties":{"listingKey":"20250930013341215396000000","listingId":"SN-25227889","listPrice":320000,"city":"Magalia","baths":2,"slug":"20250930013341215396000000","mlsSource":"CRMLS","propertyType":"A","propertySubType":"Single Family Residence","livingArea":1578,"associationFee":310,"unparsedAddress":"14689 Carnegie, Magalia, CA 95954"}}]