[{"type":"Feature","geometry":{"type":"Point","coordinates":[-122.115565,37.991178]},"properties":{"listingKey":"20250930045400764488000000","listingId":"01-41113071","listPrice":499000,"city":"Martinez","baths":2.5,"slug":"20250930045400764488000000","mlsSource":"CRMLS","propertyType":"A","propertySubType":"Townhouse","livingArea":1390,"associationFee":400,"unparsedAddress":"824 Center Ave, Martinez, CA 94553"}},{"type":"Feature","geometry":{"type":"Point","coordinates":[-122.121208,37.991184]},"properties":{"listingKey":"20251024185309448272000000","listingId":"01-41115742","listPrice":725000,"city":"Martinez","baths":3,"slug":"20251024185309448272000000","mlsSource":"CRMLS","propertyType":"A","propertySubType":"Townhouse","livingArea":1373,"associationFee":303,"unparsedAddress":"512 Laurel Knoll Ct, Martinez, CA 94553"}},{"type":"Feature","geometry":{"type":"Point","coordinates":[-122.093575,37.992794]},"properties":{"listingKey":"20250917021018739875000000","listingId":"01-41111767","listPrice":555000,"city":"Martinez","baths":2.5,"slug":"20250917021018739875000000","mlsSource":"CRMLS","propertyType":"A","propertySubType":"Condominium","livingArea":1262,"associationFee":465,"unparsedAddress":"235 Pebblecreek Ct, Martinez, CA 94553"}},{"type":"Feature","geometry":{"type":"Point","coordinates":[-122.096153,37.988378]},"properties":{"listingKey":"20251106233542101074000000","listingId":"01-41116877","listPrice":749000,"city":"Martinez","baths":2,"slug":"20251106233542101074000000","mlsSource":"CRMLS","propertyType":"A","propertySubType":"Single Family Residence","livingArea":1268,"unparsedAddress":"1422 Flintwood Ct, Martinez, CA 94553"}},{"type":"Feature","geometry":{"type":"Point","coordinates":[-122.092613,37.970242]},"properties":{"listingKey":"20251017224810161369000000","listingId":"01-41115128","listPrice":456000,"city":"Pleasant Hill","baths":2,"slug":"20251017224810161369000000","mlsSource":"CRMLS","propertyType":"A","propertySubType":"Townhouse","livingArea":1073,"associationFee":630,"unparsedAddress":"407 Ridgeview dr, Pleasant Hill, CA 94523"}},{"type":"Feature","geometry":{"type":"Point","coordinates":[-122.096376,37.963727]},"properties":{"listingKey":"20250910233736209554000000","listingId":"01-41111078","listPrice":1198888,"city":"Pleasant Hill","baths":2,"slug":"20250910233736209554000000","mlsSource":"CRMLS","propertyType":"A","propertySubType":"Single Family Residence","livingArea":1862,"associationFee":455,"unparsedAddress":"11 Paddock Ct, Pleasant Hill, CA 94523"}},{"type":"Feature","geometry":{"type":"Point","coordinates":[-122.080734,37.977323]},"properties":{"listingKey":"20250920042114005994000000","listingId":"01-41112240","listPrice":1150000,"city":"Martinez","baths":2.5,"slug":"20250920042114005994000000","mlsSource":"CRMLS","propertyType":"A","propertySubType":"Single Family Residence","livingArea":2255,"unparsedAddress":"319 Oak Glen Ct, Martinez, CA 94553"}},{"type":"Feature","geometry":{"type":"Point","coordinates":[-122.082413,37.963463]},"properties":{"listingKey":"20251002231537406373000000","listingId":"01-41113533","listPrice":1190000,"city":"Pleasant Hill","baths":0,"slug":"20251002231537406373000000","mlsSource":"CRMLS","propertyType":"C","propertySubType":"Duplex","associationFee":0,"unparsedAddress":"616 Aleta Pl, Pleasant Hill, CA 94523"}},{"type":"Feature","id":403559,"properties":{"cluster":true,"cluster_id":403559,"point_count":2,"point_count_abbreviated":2},"geometry":{"type":"Point","coordinates":[-122.10296273231506,37.974083664612664]}},{"type":"Feature","geometry":{"type":"Point","coordinates":[-122.085003,37.968755]},"properties":{"listingKey":"20251114063940826881000000","listingId":"01-41117448","listPrice":1198000,"city":"Pleasant Hill","baths":3,"slug":"20251114063940826881000000","mlsSource":"CRMLS","propertyType":"A","propertySubType":"Single Family Residence","livingArea":2377,"unparsedAddress":"1890 Morello Ave, Pleasant Hill, CA 94523"}},{"type":"Feature","geometry":{"type":"Point","coordinates":[-122.114536,37.986217]},"properties":{"listingKey":"20251109015136733337000000","listingId":"01-41117054","listPrice":1300000,"city":"Martinez","baths":3,"slug":"20251109015136733337000000","mlsSource":"CRMLS","propertyType":"A","propertySubType":"Single Family Residence","livingArea":2597,"unparsedAddress":"4900 John Muir Rd, Martinez, CA 94553"}},{"type":"Feature","id":302471,"properties":{"cluster":true,"cluster_id":302471,"point_count":3,"point_count_abbreviated":3},"geometry":{"type":"Point","coordinates":[-122.09780037403105,37.99492825677956]}},{"type":"Feature","id":324423,"properties":{"cluster":true,"cluster_id":324423,"point_count":3,"point_count_abbreviated":3},"geometry":{"type":"Point","coordinates":[-122.10547506809236,37.99495644018366]}},{"type":"Feature","id":206663,"properties":{"cluster":true,"cluster_id":206663,"point_count":3,"point_count_abbreviated":3},"geometry":{"type":"Point","coordinates":[-122.08647072315215,37.995765299265585]}}]