[{"type":"Feature","geometry":{"type":"Point","coordinates":[-122.107742,37.933026]},"properties":{"listingKey":"20251103220118057924000000","listingId":"01-41116556","listPrice":4295000,"city":"Lafayette","baths":2.5,"slug":"20251103220118057924000000","mlsSource":"CRMLS","propertyType":"A","propertySubType":"Single Family Residence","livingArea":3776,"unparsedAddress":"1751 Reliez Valley Road, Lafayette, CA"}},{"type":"Feature","geometry":{"type":"Point","coordinates":[-122.101547,37.936232]},"properties":{"listingKey":"20251017172338118200000000","listingId":"01-41115055","listPrice":2449000,"city":"Lafayette","baths":4,"slug":"20251017172338118200000000","mlsSource":"CRMLS","propertyType":"A","propertySubType":"Single Family Residence","livingArea":4021,"unparsedAddress":"1834 Ivanhoe Ave, Lafayette, CA 94549"}},{"type":"Feature","id":351879,"properties":{"cluster":true,"cluster_id":351879,"point_count":2,"point_count_abbreviated":2},"geometry":{"type":"Point","coordinates":[-122.08396464586258,37.94829667664571]}},{"type":"Feature","id":307753,"properties":{"cluster":true,"cluster_id":307753,"point_count":2,"point_count_abbreviated":2},"geometry":{"type":"Point","coordinates":[-122.09947049617767,37.9556441625744]}},{"type":"Feature","geometry":{"type":"Point","coordinates":[-122.112909,37.957051]},"properties":{"listingKey":"20251027193135305351000000","listingId":"01-41115920","listPrice":1549000,"city":"Martinez","baths":3,"slug":"20251027193135305351000000","mlsSource":"CRMLS","propertyType":"A","propertySubType":"Single Family Residence","livingArea":2182,"associationFee":425,"unparsedAddress":"916 Calle Verde, Martinez, CA"}},{"type":"Feature","id":638823,"properties":{"cluster":true,"cluster_id":638823,"point_count":3,"point_count_abbreviated":3},"geometry":{"type":"Point","coordinates":[-122.11246311664581,37.951648326818514]}}]