[{"type":"Feature","geometry":{"type":"Point","coordinates":[-122.089401,37.701119]},"properties":{"listingKey":"20251028153501399999000000","listingId":"01-41115987","listPrice":1050000,"city":"Castro Valley","baths":2,"slug":"20251028153501399999000000","mlsSource":"CRMLS","propertyType":"A","propertySubType":"Single Family Residence","livingArea":1442,"unparsedAddress":"19695 Bernal St, Castro Valley, CA"}},{"type":"Feature","id":142567,"properties":{"cluster":true,"cluster_id":142567,"point_count":4,"point_count_abbreviated":4},"geometry":{"type":"Point","coordinates":[-122.10880860686302,37.698338105186664]}},{"type":"Feature","id":321223,"properties":{"cluster":true,"cluster_id":321223,"point_count":5,"point_count_abbreviated":5},"geometry":{"type":"Point","coordinates":[-122.11463463306427,37.69220702520896]}},{"type":"Feature","geometry":{"type":"Point","coordinates":[-122.106045,37.690263]},"properties":{"listingKey":"20251030161904044033000000","listingId":"01-41116186","listPrice":689950,"baths":1,"slug":"20251030161904044033000000","mlsSource":"CRMLS","propertyType":"A","propertySubType":"Single Family Residence","livingArea":1211,"unparsedAddress":"1470 171St Ave, CA 94541"}},{"type":"Feature","geometry":{"type":"Point","coordinates":[-122.098156,37.712681]},"properties":{"listingKey":"20251007204958370676000000","listingId":"01-41114009","listPrice":1198000,"city":"Castro Valley","baths":2,"slug":"20251007204958370676000000","mlsSource":"CRMLS","propertyType":"A","propertySubType":"Single Family Residence","livingArea":1901,"unparsedAddress":"18201 Lake Chabot Rd, Castro Valley, CA 94546"}},{"type":"Feature","id":547528,"properties":{"cluster":true,"cluster_id":547528,"point_count":3,"point_count_abbreviated":3},"geometry":{"type":"Point","coordinates":[-122.0957100391388,37.69528762659557]}},{"type":"Feature","id":515655,"properties":{"cluster":true,"cluster_id":515655,"point_count":2,"point_count_abbreviated":2},"geometry":{"type":"Point","coordinates":[-122.10102885961533,37.70857100634031]}},{"type":"Feature","id":434888,"properties":{"cluster":true,"cluster_id":434888,"point_count":3,"point_count_abbreviated":3},"geometry":{"type":"Point","coordinates":[-122.11938321590424,37.701130965778205]}},{"type":"Feature","geometry":{"type":"Point","coordinates":[-122.086252,37.689396]},"properties":{"listingKey":"20250805113156737165000000","listingId":"01-41107075","listPrice":799000,"city":"Castro Valley","baths":2,"slug":"20250805113156737165000000","mlsSource":"CRMLS","propertyType":"A","propertySubType":"Single Family Residence","livingArea":1293,"unparsedAddress":"21259 Hobert St, Castro Valley, CA 94546"}},{"type":"Feature","id":363879,"properties":{"cluster":true,"cluster_id":363879,"point_count":3,"point_count_abbreviated":3},"geometry":{"type":"Point","coordinates":[-122.10223138332366,37.70403972998942]}},{"type":"Feature","id":1008393,"properties":{"cluster":true,"cluster_id":1008393,"point_count":2,"point_count_abbreviated":2},"geometry":{"type":"Point","coordinates":[-122.08997011184692,37.695214051350334]}},{"type":"Feature","geometry":{"type":"Point","coordinates":[-122.096261,37.68575]},"properties":{"listingKey":"20251105073834351084000000","listingId":"01-41116704","listPrice":400000,"city":"Hayward","baths":1.5,"slug":"20251105073834351084000000","mlsSource":"CRMLS","propertyType":"A","propertySubType":"Condominium","livingArea":1101,"associationFee":750,"unparsedAddress":"20917 Locust UNIT E, Hayward, CA 94541"}},{"type":"Feature","id":373416,"properties":{"cluster":true,"cluster_id":373416,"point_count":6,"point_count_abbreviated":6},"geometry":{"type":"Point","coordinates":[-122.09169924259187,37.68822548517798]}}]