[{"type":"Feature","geometry":{"type":"Point","coordinates":[-116.311768,33.65533]},"properties":{"listingKey":"20250813180713283327000000","listingId":"219133933","listPrice":579000,"city":"La Quinta","baths":2,"slug":"20250813180713283327000000","mlsSource":"GPS","propertyType":"A","propertySubType":"Single Family Residence","livingArea":1248,"associationFee":0,"unparsedAddress":"54125 Avenida Ramirez, La Quinta, CA 92253"}},{"type":"Feature","geometry":{"type":"Point","coordinates":[-116.312096,33.651284]},"properties":{"listingKey":"20251012224125228384000000","listingId":"219138750","listPrice":645000,"city":"La Quinta","baths":2,"slug":"20251012224125228384000000","mlsSource":"GPS","propertyType":"A","propertySubType":"Single Family Residence","livingArea":1898,"associationFee":0,"unparsedAddress":"54680 Avenida Carranza, La Quinta, CA 92253"}},{"type":"Feature","geometry":{"type":"Point","coordinates":[-116.310403,33.654063]},"properties":{"listingKey":"20250618025543300953000000","listingId":"219131611","listPrice":2100,"city":"La Quinta","baths":2,"slug":"20250618025543300953000000","mlsSource":"GPS","propertyType":"B","propertySubType":"Single Family Residence","livingArea":1272,"associationFee":0,"unparsedAddress":"54280 Avenida Vallejo, La Quinta, CA 92253"}},{"type":"Feature","id":103785,"properties":{"cluster":true,"cluster_id":103785,"point_count":2,"point_count_abbreviated":2},"geometry":{"type":"Point","coordinates":[-116.31150215864182,33.65946904576104]}},{"type":"Feature","geometry":{"type":"Point","coordinates":[-116.310392,33.658526]},"properties":{"listingKey":"20251003221132522991000000","listingId":"219137073","listPrice":2445,"city":"La Quinta","baths":2,"slug":"20251003221132522991000000","mlsSource":"GPS","propertyType":"B","propertySubType":"Single Family Residence","livingArea":1360,"associationFee":0,"unparsedAddress":"53666 Avenida Vallejo, La Quinta, CA 92253"}},{"type":"Feature","geometry":{"type":"Point","coordinates":[-116.310069,33.652312]},"properties":{"listingKey":"20251004161728039091000000","listingId":"219136637","listPrice":595000,"city":"La Quinta","baths":1,"slug":"20251004161728039091000000","mlsSource":"GPS","propertyType":"A","propertySubType":"Single Family Residence","livingArea":758,"associationFee":0,"unparsedAddress":"77643 Temecula, La Quinta, CA 92253"}},{"type":"Feature","geometry":{"type":"Point","coordinates":[-116.310062,33.655645]},"properties":{"listingKey":"20250718120054924902000000","listingId":"PW-25161534","listPrice":950000,"city":"La Quinta","baths":2.5,"slug":"20250718120054924902000000","mlsSource":"CRMLS","propertyType":"A","propertySubType":"Single Family Residence","livingArea":2100,"associationFee":0,"unparsedAddress":"54065 Avenida Herrera, La Quinta, CA 92253"}},{"type":"Feature","id":34441,"properties":{"cluster":true,"cluster_id":34441,"point_count":2,"point_count_abbreviated":2},"geometry":{"type":"Point","coordinates":[-116.3098070025444,33.65695964877179]}},{"type":"Feature","geometry":{"type":"Point","coordinates":[-116.308449,33.6513]},"properties":{"listingKey":"20250927042633304908000000","listingId":"219135994","listPrice":189900,"city":"La Quinta","baths":0,"slug":"20250927042633304908000000","mlsSource":"GPS","propertyType":"D","associationFee":0,"unparsedAddress":"0 Eisenhower Drive, La Quinta, CA 92253"}},{"type":"Feature","geometry":{"type":"Point","coordinates":[-116.308365,33.653787]},"properties":{"listingKey":"20250921195038401878000000","listingId":"219135683","listPrice":3200,"city":"La Quinta","baths":2,"slug":"20250921195038401878000000","mlsSource":"GPS","propertyType":"B","propertySubType":"Single Family Residence","livingArea":1806,"associationFee":0,"unparsedAddress":"54305 Eisenhower Drive, La Quinta, CA 92253"}},{"type":"Feature","geometry":{"type":"Point","coordinates":[-116.305659,33.658192]},"properties":{"listingKey":"20251007005313605581000000","listingId":"SB-25232940","listPrice":980000,"city":"La Quinta","baths":2.5,"slug":"20251007005313605581000000","mlsSource":"CRMLS","propertyType":"A","propertySubType":"Single Family Residence","livingArea":1792,"associationFee":0,"unparsedAddress":"53725 Avenida Villa, La Quinta, CA 92253"}},{"type":"Feature","id":37449,"properties":{"cluster":true,"cluster_id":37449,"point_count":2,"point_count_abbreviated":2},"geometry":{"type":"Point","coordinates":[-116.30819767713547,33.65867426246244]}},{"type":"Feature","geometry":{"type":"Point","coordinates":[-116.303026,33.659829]},"properties":{"listingKey":"20251105050214662492000000","listingId":"219138371","listPrice":4650000,"city":"La Quinta","baths":4.5,"slug":"20251105050214662492000000","mlsSource":"GPS","propertyType":"A","propertySubType":"Single Family Residence","livingArea":4717,"associationFee":750,"unparsedAddress":"53330 Del Gato Drive, La Quinta, CA 92253"}},{"type":"Feature","id":48777,"properties":{"cluster":true,"cluster_id":48777,"point_count":2,"point_count_abbreviated":2},"geometry":{"type":"Point","coordinates":[-116.30538940429688,33.656370242424885]}}]