[{"type":"Feature","id":165831,"properties":{"cluster":true,"cluster_id":165831,"point_count":4,"point_count_abbreviated":4},"geometry":{"type":"Point","coordinates":[-117.25273624062538,34.13101161116997]}},{"type":"Feature","geometry":{"type":"Point","coordinates":[-117.247724,34.1588]},"properties":{"listingKey":"20251006233742501462000000","listingId":"CV-25233396","listPrice":2950,"city":"San Bernardino","baths":2,"slug":"20251006233742501462000000","mlsSource":"CRMLS","propertyType":"B","propertySubType":"Single Family Residence","livingArea":1504,"associationFee":0,"unparsedAddress":"3756 Osbun, San Bernardino, CA 92404"}},{"type":"Feature","id":283399,"properties":{"cluster":true,"cluster_id":283399,"point_count":5,"point_count_abbreviated":5},"geometry":{"type":"Point","coordinates":[-117.24656689167023,34.149892888412424]}},{"type":"Feature","geometry":{"type":"Point","coordinates":[-117.247909,34.143587]},"properties":{"listingKey":"20251021203927134337000000","listingId":"IV-25243401","listPrice":2750,"city":"San Bernardino","baths":2,"slug":"20251021203927134337000000","mlsSource":"CRMLS","propertyType":"B","propertySubType":"Single Family Residence","livingArea":1396,"associationFee":0,"unparsedAddress":"6083 Merito, San Bernardino, CA 92404"}},{"type":"Feature","geometry":{"type":"Point","coordinates":[-117.250473,34.147743]},"properties":{"listingKey":"20251022182201880562000000","listingId":"IG-25245004","listPrice":515000,"city":"San Bernardino","baths":1,"slug":"20251022182201880562000000","mlsSource":"CRMLS","propertyType":"A","propertySubType":"Single Family Residence","livingArea":1288,"associationFee":0,"unparsedAddress":"5845 Dogwood, San Bernardino, CA 92404"}},{"type":"Feature","id":396648,"properties":{"cluster":true,"cluster_id":396648,"point_count":3,"point_count_abbreviated":3},"geometry":{"type":"Point","coordinates":[-117.25286900997162,34.15365034785364]}},{"type":"Feature","id":523945,"properties":{"cluster":true,"cluster_id":523945,"point_count":2,"point_count_abbreviated":2},"geometry":{"type":"Point","coordinates":[-117.26293534040451,34.15131971275852]}},{"type":"Feature","id":127335,"properties":{"cluster":true,"cluster_id":127335,"point_count":3,"point_count_abbreviated":3},"geometry":{"type":"Point","coordinates":[-117.28185832500458,34.148796635288306]}},{"type":"Feature","id":145001,"properties":{"cluster":true,"cluster_id":145001,"point_count":3,"point_count_abbreviated":3},"geometry":{"type":"Point","coordinates":[-117.25608766078949,34.14859833744234]}},{"type":"Feature","geometry":{"type":"Point","coordinates":[-117.274164,34.146523]},"properties":{"listingKey":"20250915152614798695000000","listingId":"IG-25190917","listPrice":693900,"city":"San Bernardino","baths":2.25,"slug":"20250915152614798695000000","mlsSource":"CRMLS","propertyType":"A","propertySubType":"Single Family Residence","livingArea":2303,"associationFee":0,"unparsedAddress":"3095 Pepper Tree Lane, San Bernardino, CA 92404"}},{"type":"Feature","geometry":{"type":"Point","coordinates":[-117.261931,34.145605]},"properties":{"listingKey":"20251023203253002803000000","listingId":"CV-25245621","listPrice":629000,"city":"San Bernardino","baths":2,"slug":"20251023203253002803000000","mlsSource":"CRMLS","propertyType":"A","propertySubType":"Single Family Residence","livingArea":1883,"associationFee":0,"unparsedAddress":"3025 North Alameda Avenue, San Bernardino, CA 92404"}},{"type":"Feature","geometry":{"type":"Point","coordinates":[-117.289273,34.141979]},"properties":{"listingKey":"20251022002429949026000000","listingId":"DW-25244594","listPrice":529900,"city":"San Bernardino","baths":1,"slug":"20251022002429949026000000","mlsSource":"CRMLS","propertyType":"A","propertySubType":"Single Family Residence","livingArea":1191,"associationFee":0,"unparsedAddress":"2779 North Arrowhead, San Bernardino, CA 92405"}},{"type":"Feature","geometry":{"type":"Point","coordinates":[-117.253539,34.141571]},"properties":{"listingKey":"20251118203241060066000000","listingId":"OC-25261754","listPrice":1650000,"city":"San Bernardino","baths":8,"slug":"20251118203241060066000000","mlsSource":"CRMLS","propertyType":"A","propertySubType":"Condominium","livingArea":7138,"associationFee":0,"unparsedAddress":"1560 East Date, San Bernardino, CA 92404"}},{"type":"Feature","geometry":{"type":"Point","coordinates":[-117.272545,34.13377]},"properties":{"listingKey":"20251115071222653506000000","listingId":"OC-25260907","listPrice":549000,"city":"San Bernardino","baths":3,"slug":"20251115071222653506000000","mlsSource":"CRMLS","propertyType":"A","propertySubType":"Single Family Residence","livingArea":1204,"associationFee":0,"unparsedAddress":"697 East 21st, San Bernardino, CA 92404"}},{"type":"Feature","id":91143,"properties":{"cluster":true,"cluster_id":91143,"point_count":4,"point_count_abbreviated":4},"geometry":{"type":"Point","coordinates":[-117.28669971227646,34.13790288272658]}},{"type":"Feature","id":90855,"properties":{"cluster":true,"cluster_id":90855,"point_count":4,"point_count_abbreviated":4},"geometry":{"type":"Point","coordinates":[-117.26101756095886,34.14124841019613]}},{"type":"Feature","geometry":{"type":"Point","coordinates":[-117.281595,34.138647]},"properties":{"listingKey":"20250801065450560278000000","listingId":"DW-25172405","listPrice":485000,"city":"San Bernardino","baths":1.5,"slug":"20250801065450560278000000","mlsSource":"CRMLS","propertyType":"A","propertySubType":"Single Family Residence","livingArea":1116,"associationFee":0,"unparsedAddress":"229 East 25th Street, San Bernardino, CA 92404"}},{"type":"Feature","id":290663,"properties":{"cluster":true,"cluster_id":290663,"point_count":5,"point_count_abbreviated":5},"geometry":{"type":"Point","coordinates":[-117.27070462703705,34.138637267322565]}},{"type":"Feature","id":135912,"properties":{"cluster":true,"cluster_id":135912,"point_count":2,"point_count_abbreviated":2},"geometry":{"type":"Point","coordinates":[-117.25968986749649,34.12711282081088]}},{"type":"Feature","id":310535,"properties":{"cluster":true,"cluster_id":310535,"point_count":3,"point_count_abbreviated":3},"geometry":{"type":"Point","coordinates":[-117.27516710758208,34.12816228510523]}},{"type":"Feature","id":312423,"properties":{"cluster":true,"cluster_id":312423,"point_count":4,"point_count_abbreviated":4},"geometry":{"type":"Point","coordinates":[-117.285715341568,34.13086951718448]}},{"type":"Feature","geometry":{"type":"Point","coordinates":[-117.265394,34.127919]},"properties":{"listingKey":"20250822063600217684000000","listingId":"CV-25189216","listPrice":550000,"city":"San Bernardino","baths":1.5,"slug":"20250822063600217684000000","mlsSource":"CRMLS","propertyType":"A","propertySubType":"Single Family Residence","livingArea":2112,"associationFee":0,"unparsedAddress":"6937 Perris Hill Park Road, San Bernardino, CA 92404"}},{"type":"Feature","id":336231,"properties":{"cluster":true,"cluster_id":336231,"point_count":3,"point_count_abbreviated":3},"geometry":{"type":"Point","coordinates":[-117.28323340415956,34.155008745498606]}},{"type":"Feature","id":110631,"properties":{"cluster":true,"cluster_id":110631,"point_count":5,"point_count_abbreviated":5},"geometry":{"type":"Point","coordinates":[-117.2569180727005,34.157817807002004]}},{"type":"Feature","geometry":{"type":"Point","coordinates":[-117.264196,34.155512]},"properties":{"listingKey":"20251027235040401610000000","listingId":"IG-25248274","listPrice":530000,"city":"San Bernardino","baths":2,"slug":"20251027235040401610000000","mlsSource":"CRMLS","propertyType":"A","propertySubType":"Single Family Residence","livingArea":1067,"associationFee":0,"unparsedAddress":"3552 Del Rey, San Bernardino, CA 92404"}},{"type":"Feature","geometry":{"type":"Point","coordinates":[-117.276104,34.159012]},"properties":{"listingKey":"20251114192406605451000000","listingId":"CV-25255461","listPrice":675000,"city":"San Bernardino","baths":3,"slug":"20251114192406605451000000","mlsSource":"CRMLS","propertyType":"A","propertySubType":"Single Family Residence","livingArea":2327,"associationFee":0,"unparsedAddress":"528 East Parkdale, San Bernardino, CA 92404"}},{"type":"Feature","geometry":{"type":"Point","coordinates":[-117.290003,34.153697]},"properties":{"listingKey":"20251114184851074352000000","listingId":"P1-24934","listPrice":519900,"city":"San Bernardino","baths":1.5,"slug":"20251114184851074352000000","mlsSource":"CRMLS","propertyType":"A","propertySubType":"Single Family Residence","livingArea":1442,"unparsedAddress":"3432 North Arrowhead Avenue, San Bernardino, CA 92405"}}]