[{"type":"Feature","geometry":{"type":"Point","coordinates":[-117.791585,33.841668]},"properties":{"listingKey":"20250929033457725838000000","listingId":"PW-25227344","listPrice":1389000,"city":"Anaheim Hills","baths":1.75,"slug":"20250929033457725838000000","mlsSource":"CRMLS","propertyType":"A","propertySubType":"Single Family Residence","livingArea":1981,"associationFee":175,"unparsedAddress":"581 South Paseo Carmel, Anaheim Hills, CA 92807"}},{"type":"Feature","geometry":{"type":"Point","coordinates":[-117.78288,33.841954]},"properties":{"listingKey":"20250924023915071964000000","listingId":"PW-25223076","listPrice":5295,"city":"Anaheim Hills","baths":2,"slug":"20250924023915071964000000","mlsSource":"CRMLS","propertyType":"B","propertySubType":"Single Family Residence","livingArea":2242,"associationFee":0,"unparsedAddress":"614 South Pathfinder, Anaheim Hills, CA 92807"}},{"type":"Feature","id":607208,"properties":{"cluster":true,"cluster_id":607208,"point_count":4,"point_count_abbreviated":4},"geometry":{"type":"Point","coordinates":[-117.7924208343029,33.84489878465264]}},{"type":"Feature","id":533768,"properties":{"cluster":true,"cluster_id":533768,"point_count":2,"point_count_abbreviated":2},"geometry":{"type":"Point","coordinates":[-117.79163360595703,33.848030879197125]}},{"type":"Feature","geometry":{"type":"Point","coordinates":[-117.784239,33.848785]},"properties":{"listingKey":"20251029201621287780000000","listingId":"PW-25247728","listPrice":1560000,"city":"Anaheim Hills","baths":3.5,"slug":"20251029201621287780000000","mlsSource":"CRMLS","propertyType":"A","propertySubType":"Single Family Residence","livingArea":3042,"associationFee":0,"unparsedAddress":"5901 East Firenze, Anaheim Hills, CA 92807"}},{"type":"Feature","geometry":{"type":"Point","coordinates":[-117.781463,33.851521]},"properties":{"listingKey":"20251021210122386030000000","listingId":"CV-25243454","listPrice":1580000,"city":"Anaheim Hills","baths":3,"slug":"20251021210122386030000000","mlsSource":"CRMLS","propertyType":"A","propertySubType":"Single Family Residence","livingArea":2336,"associationFee":0,"unparsedAddress":"131 South Francisco, Anaheim Hills, CA 92807"}},{"type":"Feature","geometry":{"type":"Point","coordinates":[-117.779945,33.837358]},"properties":{"listingKey":"20251031183553966870000000","listingId":"PW-25250721","listPrice":4200,"city":"Anaheim Hills","baths":2.5,"slug":"20251031183553966870000000","mlsSource":"CRMLS","propertyType":"B","propertySubType":"Single Family Residence","livingArea":1582,"unparsedAddress":"6039 East Hackamore, Anaheim Hills, CA 92807"}},{"type":"Feature","geometry":{"type":"Point","coordinates":[-117.773652,33.843966]},"properties":{"listingKey":"20250926094837747982000000","listingId":"PW-25225847","listPrice":2900,"city":"Anaheim Hills","baths":2,"slug":"20250926094837747982000000","mlsSource":"CRMLS","propertyType":"B","propertySubType":"Condominium","livingArea":1200,"unparsedAddress":"545 South Ranch View, 97, Anaheim Hills, CA 92807"}},{"type":"Feature","id":194793,"properties":{"cluster":true,"cluster_id":194793,"point_count":2,"point_count_abbreviated":2},"geometry":{"type":"Point","coordinates":[-117.77803212404251,33.84548244113148]}},{"type":"Feature","geometry":{"type":"Point","coordinates":[-117.77589,33.84995]},"properties":{"listingKey":"20251106035942444635000000","listingId":"PW-25254972","listPrice":2499999,"city":"Anaheim Hills","baths":2.5,"slug":"20251106035942444635000000","mlsSource":"CRMLS","propertyType":"A","propertySubType":"Single Family Residence","livingArea":2794,"associationFee":200,"unparsedAddress":"266 South Via Montanera, Anaheim Hills, CA 92807"}},{"type":"Feature","id":225128,"properties":{"cluster":true,"cluster_id":225128,"point_count":3,"point_count_abbreviated":3},"geometry":{"type":"Point","coordinates":[-117.77876436710358,33.84195816464977]}},{"type":"Feature","id":235112,"properties":{"cluster":true,"cluster_id":235112,"point_count":2,"point_count_abbreviated":2},"geometry":{"type":"Point","coordinates":[-117.77785241603851,33.84870361852157]}},{"type":"Feature","geometry":{"type":"Point","coordinates":[-117.773633,33.836501]},"properties":{"listingKey":"20251109174426735225000000","listingId":"PW-25257052","listPrice":4200,"city":"Anaheim Hills","baths":2.5,"slug":"20251109174426735225000000","mlsSource":"CRMLS","propertyType":"B","propertySubType":"Single Family Residence","livingArea":1799,"unparsedAddress":"779 South Ruby, Anaheim Hills, CA 92807"}},{"type":"Feature","geometry":{"type":"Point","coordinates":[-117.795036,33.850069]},"properties":{"listingKey":"20251007213957704583000000","listingId":"OC-25234151","listPrice":1449999,"city":"Anaheim Hills","baths":2.5,"slug":"20251007213957704583000000","mlsSource":"CRMLS","propertyType":"A","propertySubType":"Single Family Residence","livingArea":2077,"associationFee":150,"unparsedAddress":"155 South Avenida Felipe, Anaheim Hills, CA 92807"}}]