[{"type":"Feature","geometry":{"type":"Point","coordinates":[-117.785666,33.761525]},"properties":{"listingKey":"20251118182052725604000000","listingId":"NP-25223717","listPrice":9500,"city":"North Tustin","baths":4.5,"slug":"20251118182052725604000000","mlsSource":"CRMLS","propertyType":"B","propertySubType":"Single Family Residence","livingArea":6000,"associationFee":0,"unparsedAddress":"11393 La Vereda Drive, North Tustin, CA 92705"}},{"type":"Feature","geometry":{"type":"Point","coordinates":[-117.790403,33.766242]},"properties":{"listingKey":"20251003011000429374000000","listingId":"NP-25230670","listPrice":1895000,"city":"North Tustin","baths":2.5,"slug":"20251003011000429374000000","mlsSource":"CRMLS","propertyType":"A","propertySubType":"Single Family Residence","livingArea":2784,"associationFee":450,"unparsedAddress":"11391 Arroyo, North Tustin, CA 92705"}},{"type":"Feature","geometry":{"type":"Point","coordinates":[-117.774866,33.765148]},"properties":{"listingKey":"20250831021706712275000000","listingId":"OC-25194651","listPrice":2999000,"city":"North Tustin","baths":4,"slug":"20250831021706712275000000","mlsSource":"CRMLS","propertyType":"A","propertySubType":"Single Family Residence","livingArea":4973,"associationFee":175,"unparsedAddress":"10821 Bronco Circle, North Tustin, CA 92705"}},{"type":"Feature","id":851688,"properties":{"cluster":true,"cluster_id":851688,"point_count":2,"point_count_abbreviated":2},"geometry":{"type":"Point","coordinates":[-117.7801564335823,33.762777388307]}},{"type":"Feature","geometry":{"type":"Point","coordinates":[-117.789188,33.778223]},"properties":{"listingKey":"20251022235526386394000000","listingId":"PW-25245045","listPrice":2400000,"city":"North Tustin","baths":3,"slug":"20251022235526386394000000","mlsSource":"CRMLS","propertyType":"A","propertySubType":"Single Family Residence","livingArea":2447,"associationFee":0,"unparsedAddress":"10662 Crawford Canyon, North Tustin, CA 92705"}},{"type":"Feature","geometry":{"type":"Point","coordinates":[-117.787922,33.776333]},"properties":{"listingKey":"20250922024319658039000000","listingId":"WS-25222273","listPrice":1588000,"city":"North Tustin","baths":3,"slug":"20250922024319658039000000","mlsSource":"CRMLS","propertyType":"A","propertySubType":"Single Family Residence","livingArea":3047,"associationFee":0,"unparsedAddress":"10436 Crawford Canyon Road, North Tustin, CA 92705"}},{"type":"Feature","geometry":{"type":"Point","coordinates":[-117.774145,33.776251]},"properties":{"listingKey":"20251023175535419261000000","listingId":"OC-25245690","listPrice":2250000,"city":"Santa Ana","baths":2.5,"slug":"20251023175535419261000000","mlsSource":"CRMLS","propertyType":"A","propertySubType":"Single Family Residence","livingArea":2902,"associationFee":0,"unparsedAddress":"10222 Deerhill, Santa Ana, CA 92705"}},{"type":"Feature","id":832968,"properties":{"cluster":true,"cluster_id":832968,"point_count":2,"point_count_abbreviated":2},"geometry":{"type":"Point","coordinates":[-117.77651935815811,33.77322133610237]}},{"type":"Feature","geometry":{"type":"Point","coordinates":[-117.779193,33.778382]},"properties":{"listingKey":"20250912041744110473000000","listingId":"PW-25213878","listPrice":3350000,"city":"North Tustin","baths":4.5,"slug":"20250912041744110473000000","mlsSource":"CRMLS","propertyType":"A","propertySubType":"Single Family Residence","livingArea":5038,"associationFee":0,"unparsedAddress":"10302 Broadview Place, North Tustin, CA 92705"}},{"type":"Feature","id":814184,"properties":{"cluster":true,"cluster_id":814184,"point_count":2,"point_count_abbreviated":2},"geometry":{"type":"Point","coordinates":[-117.7944928407669,33.769863536133386]}}]