[{"type":"Feature","geometry":{"type":"Point","coordinates":[-117.794437,33.736444]},"properties":{"listingKey":"20251103170438052493000000","listingId":"PW-25252410","listPrice":1300000,"city":"Tustin","baths":2.5,"slug":"20251103170438052493000000","mlsSource":"CRMLS","propertyType":"A","propertySubType":"Single Family Residence","livingArea":1829,"associationFee":235,"unparsedAddress":"13069 Arborwalk, Tustin, CA 92782"}},{"type":"Feature","geometry":{"type":"Point","coordinates":[-117.789357,33.741273]},"properties":{"listingKey":"20251024183612964672000000","listingId":"PW-25244038","listPrice":1049000,"city":"Tustin","baths":2.5,"slug":"20251024183612964672000000","mlsSource":"CRMLS","propertyType":"A","propertySubType":"Townhouse","livingArea":1402,"associationFee":345,"unparsedAddress":"2346 Tryall, Tustin, CA 92782"}},{"type":"Feature","id":291497,"properties":{"cluster":true,"cluster_id":291497,"point_count":2,"point_count_abbreviated":2},"geometry":{"type":"Point","coordinates":[-117.7933207154274,33.733601619778085]}},{"type":"Feature","id":188553,"properties":{"cluster":true,"cluster_id":188553,"point_count":5,"point_count_abbreviated":5},"geometry":{"type":"Point","coordinates":[-117.78828084468842,33.732634425434355]}},{"type":"Feature","id":217832,"properties":{"cluster":true,"cluster_id":217832,"point_count":3,"point_count_abbreviated":3},"geometry":{"type":"Point","coordinates":[-117.79173195362092,33.73963592867024]}},{"type":"Feature","id":203784,"properties":{"cluster":true,"cluster_id":203784,"point_count":3,"point_count_abbreviated":3},"geometry":{"type":"Point","coordinates":[-117.78240144252777,33.73582624435598]}},{"type":"Feature","id":229289,"properties":{"cluster":true,"cluster_id":229289,"point_count":2,"point_count_abbreviated":2},"geometry":{"type":"Point","coordinates":[-117.79271185398102,33.72829262352532]}},{"type":"Feature","id":272488,"properties":{"cluster":true,"cluster_id":272488,"point_count":2,"point_count_abbreviated":2},"geometry":{"type":"Point","coordinates":[-117.79158532619476,33.742184545737274]}},{"type":"Feature","geometry":{"type":"Point","coordinates":[-117.776686,33.740193]},"properties":{"listingKey":"20250912182527586759000000","listingId":"PW-25215698","listPrice":600000,"city":"Tustin","baths":1,"slug":"20250912182527586759000000","mlsSource":"CRMLS","propertyType":"A","propertySubType":"Condominium","livingArea":787,"associationFee":435,"unparsedAddress":"2960 Champion Way, 1814, Tustin, CA 92782"}},{"type":"Feature","geometry":{"type":"Point","coordinates":[-117.775612,33.733275]},"properties":{"listingKey":"20251027184647879327000000","listingId":"IG-25247997","listPrice":1388000,"city":"Irvine","baths":3,"slug":"20251027184647879327000000","mlsSource":"CRMLS","propertyType":"A","propertySubType":"Single Family Residence","livingArea":1714,"associationFee":135,"unparsedAddress":"45 Avondale, Irvine, CA 92602"}},{"type":"Feature","id":213512,"properties":{"cluster":true,"cluster_id":213512,"point_count":5,"point_count_abbreviated":5},"geometry":{"type":"Point","coordinates":[-117.77751874923706,33.73057151694192]}},{"type":"Feature","geometry":{"type":"Point","coordinates":[-117.778603,33.735524]},"properties":{"listingKey":"20250912032055665397000000","listingId":"PW-25202881","listPrice":2348000,"city":"Irvine","baths":3.75,"slug":"20250912032055665397000000","mlsSource":"CRMLS","propertyType":"A","propertySubType":"Single Family Residence","livingArea":3107,"associationFee":86,"unparsedAddress":"10 Calais, Irvine, CA 92602"}}]