[{"type":"Feature","geometry":{"type":"Point","coordinates":[-117.793095,33.692958]},"properties":{"listingKey":"20251027212020562853000000","listingId":"PW-25248134","listPrice":5800,"city":"Irvine","baths":3,"slug":"20251027212020562853000000","mlsSource":"CRMLS","propertyType":"B","propertySubType":"Single Family Residence","livingArea":2591,"unparsedAddress":"23 Blazing Star, Irvine, CA 92604"}},{"type":"Feature","geometry":{"type":"Point","coordinates":[-117.790214,33.695889]},"properties":{"listingKey":"20250729060631671252000000","listingId":"OC-25161539","listPrice":1139000,"city":"Irvine","baths":2.25,"slug":"20250729060631671252000000","mlsSource":"CRMLS","propertyType":"A","propertySubType":"Condominium","livingArea":1550,"associationFee":597,"unparsedAddress":"32 Goldenbush, Irvine, CA 92604"}},{"type":"Feature","geometry":{"type":"Point","coordinates":[-117.787475,33.696829]},"properties":{"listingKey":"20250717160441862552000000","listingId":"OC-25160607","listPrice":5100,"city":"Irvine","baths":3,"slug":"20250717160441862552000000","mlsSource":"CRMLS","propertyType":"B","propertySubType":"Single Family Residence","livingArea":2089,"unparsedAddress":"4351 Pioneer Street, Irvine, CA 92604"}},{"type":"Feature","id":145768,"properties":{"cluster":true,"cluster_id":145768,"point_count":2,"point_count_abbreviated":2},"geometry":{"type":"Point","coordinates":[-117.77779340744019,33.697614472152566]}},{"type":"Feature","geometry":{"type":"Point","coordinates":[-117.7743,33.697689]},"properties":{"listingKey":"20250918043055851030000000","listingId":"OC-25219849","listPrice":1078800,"city":"Irvine","baths":2.5,"slug":"20250918043055851030000000","mlsSource":"CRMLS","propertyType":"A","propertySubType":"Condominium","livingArea":1633,"associationFee":410,"unparsedAddress":"26 Helena, 69, Irvine, CA 92604"}},{"type":"Feature","geometry":{"type":"Point","coordinates":[-117.783129,33.705695]},"properties":{"listingKey":"20251009171845266464000000","listingId":"PW-25236067","listPrice":5300,"city":"Irvine","baths":3,"slug":"20251009171845266464000000","mlsSource":"CRMLS","propertyType":"B","propertySubType":"Single Family Residence","livingArea":1890,"unparsedAddress":"6 Leda, Irvine, CA 92604"}},{"type":"Feature","id":786184,"properties":{"cluster":true,"cluster_id":786184,"point_count":2,"point_count_abbreviated":2},"geometry":{"type":"Point","coordinates":[-117.77955025434494,33.68955824663463]}},{"type":"Feature","id":182953,"properties":{"cluster":true,"cluster_id":182953,"point_count":2,"point_count_abbreviated":2},"geometry":{"type":"Point","coordinates":[-117.78157532215118,33.69162035522241]}},{"type":"Feature","geometry":{"type":"Point","coordinates":[-117.787128,33.693756]},"properties":{"listingKey":"20251015235804486779000000","listingId":"OC-25239662","listPrice":3800,"city":"Irvine","baths":2.5,"slug":"20251015235804486779000000","mlsSource":"CRMLS","propertyType":"B","propertySubType":"Townhouse","livingArea":1068,"unparsedAddress":"26 Silverwood, 12, Irvine, CA 92604"}}]