[{"type":"Feature","geometry":{"type":"Point","coordinates":[-117.688929,33.533552]},"properties":{"listingKey":"20251118182059986029000000","listingId":"OC-25261577","listPrice":4500,"city":"Laguna Niguel","baths":2,"slug":"20251118182059986029000000","mlsSource":"CRMLS","propertyType":"B","propertySubType":"Single Family Residence","livingArea":1421,"associationFee":0,"unparsedAddress":"25262 Via Piedra Roja, Laguna Niguel, CA 92677"}},{"type":"Feature","geometry":{"type":"Point","coordinates":[-117.693298,33.536896]},"properties":{"listingKey":"20250930202641263642000000","listingId":"OC-25228007","listPrice":5995,"city":"Laguna Niguel","baths":3,"slug":"20250930202641263642000000","mlsSource":"CRMLS","propertyType":"B","propertySubType":"Single Family Residence","livingArea":1920,"associationFee":0,"unparsedAddress":"29341 LAS CRUCES, Laguna Niguel, CA 92677"}},{"type":"Feature","geometry":{"type":"Point","coordinates":[-117.690715,33.540568]},"properties":{"listingKey":"20251101204458175867000000","listingId":"OC-25251954","listPrice":1590000,"city":"Laguna Niguel","baths":2,"slug":"20251101204458175867000000","mlsSource":"CRMLS","propertyType":"A","propertySubType":"Single Family Residence","livingArea":1815,"associationFee":0,"unparsedAddress":"29095 Madrid Road, Laguna Niguel, CA 92677"}},{"type":"Feature","geometry":{"type":"Point","coordinates":[-117.695323,33.538916]},"properties":{"listingKey":"20251023232209259819000000","listingId":"OC-25244479","listPrice":1479000,"city":"Laguna Niguel","baths":2,"slug":"20251023232209259819000000","mlsSource":"CRMLS","propertyType":"A","propertySubType":"Single Family Residence","livingArea":1626,"associationFee":0,"unparsedAddress":"29181 Via San Sebastian, Laguna Niguel, CA 92677"}},{"type":"Feature","geometry":{"type":"Point","coordinates":[-117.695753,33.541023]},"properties":{"listingKey":"20251006233427265110000000","listingId":"OC-25231954","listPrice":3600,"city":"Laguna Niguel","baths":2.5,"slug":"20251006233427265110000000","mlsSource":"CRMLS","propertyType":"B","propertySubType":"Townhouse","livingArea":1300,"unparsedAddress":"24873 Nueva Vista Drive, Laguna Niguel, CA 92677"}},{"type":"Feature","geometry":{"type":"Point","coordinates":[-117.693304,33.533656]},"properties":{"listingKey":"20251114185415561140000000","listingId":"OC-25259849","listPrice":2000000,"city":"Laguna Niguel","baths":2,"slug":"20251114185415561140000000","mlsSource":"CRMLS","propertyType":"A","propertySubType":"Single Family Residence","livingArea":2657,"associationFee":0,"unparsedAddress":"25004 La Plata Dr, Laguna Niguel, CA 92677"}}]