[{"type":"Feature","geometry":{"type":"Point","coordinates":[-116.467577,33.799131]},"properties":{"listingKey":"20250926023453054632000000","listingId":"219135952","listPrice":320000,"city":"Cathedral City","baths":1.75,"slug":"20250926023453054632000000","mlsSource":"GPS","propertyType":"A","propertySubType":"Condominium","livingArea":1197,"associationFee":497,"unparsedAddress":"34191 Calle Mora, Cathedral City, CA 92234"}},{"type":"Feature","id":57320,"properties":{"cluster":true,"cluster_id":57320,"point_count":2,"point_count_abbreviated":2},"geometry":{"type":"Point","coordinates":[-116.46274924278259,33.79760937207365]}},{"type":"Feature","geometry":{"type":"Point","coordinates":[-116.465918,33.814716]},"properties":{"listingKey":"20250807214334537308000000","listingId":"219133743","listPrice":1450,"city":"Cathedral City","baths":1,"slug":"20250807214334537308000000","mlsSource":"GPS","propertyType":"B","propertySubType":"Condominium","livingArea":745,"associationFee":0,"unparsedAddress":"32200 Cathedral Canyon Drive Drive, 44, Cathedral City, CA 92234"}},{"type":"Feature","geometry":{"type":"Point","coordinates":[-116.474057,33.811872]},"properties":{"listingKey":"20251115172421957856000000","listingId":"TR-25260476","listPrice":259000,"city":"Cathedral City","baths":1.75,"slug":"20251115172421957856000000","mlsSource":"CRMLS","propertyType":"A","propertySubType":"Condominium","livingArea":848,"associationFee":427,"unparsedAddress":"32505 Candlewood, Cathedral City, CA 92234"}},{"type":"Feature","geometry":{"type":"Point","coordinates":[-116.460567,33.804746]},"properties":{"listingKey":"20250910213837330605000000","listingId":"219135154","listPrice":850000,"city":"Cathedral City","baths":4,"slug":"20250910213837330605000000","mlsSource":"GPS","propertyType":"A","propertySubType":"Single Family Residence","livingArea":3222,"associationFee":0,"unparsedAddress":"68855 Ortega Road, Cathedral City, CA 92234"}},{"type":"Feature","geometry":{"type":"Point","coordinates":[-116.461648,33.807403]},"properties":{"listingKey":"20250827215532376618000000","listingId":"IV-25193055","listPrice":849000,"city":"Cathedral City","baths":0,"slug":"20250827215532376618000000","mlsSource":"CRMLS","propertyType":"C","propertySubType":"Single Family Residence","livingArea":2863,"associationFee":0,"unparsedAddress":"33215 Via de Anza, Cathedral City, CA 92234"}},{"type":"Feature","geometry":{"type":"Point","coordinates":[-116.462269,33.814967]},"properties":{"listingKey":"20251029202537883926000000","listingId":"GD-25249776","listPrice":2195,"city":"Cathedral City","baths":1,"slug":"20251029202537883926000000","mlsSource":"CRMLS","propertyType":"B","propertySubType":"Triplex","livingArea":1100,"associationFee":0,"unparsedAddress":"32150 Aurora Vista Road, B, Cathedral City, CA 92234"}},{"type":"Feature","id":88008,"properties":{"cluster":true,"cluster_id":88008,"point_count":2,"point_count_abbreviated":2},"geometry":{"type":"Point","coordinates":[-116.47651433944702,33.80025730742632]}},{"type":"Feature","id":68393,"properties":{"cluster":true,"cluster_id":68393,"point_count":2,"point_count_abbreviated":2},"geometry":{"type":"Point","coordinates":[-116.46920263767242,33.80092596501443]}},{"type":"Feature","id":55880,"properties":{"cluster":true,"cluster_id":55880,"point_count":3,"point_count_abbreviated":3},"geometry":{"type":"Point","coordinates":[-116.46337509155272,33.80052328518153]}},{"type":"Feature","geometry":{"type":"Point","coordinates":[-116.472448,33.799833]},"properties":{"listingKey":"20251105232501768591000000","listingId":"219138564","listPrice":585000,"city":"Cathedral City","baths":2,"slug":"20251105232501768591000000","mlsSource":"GPS","propertyType":"A","propertySubType":"Condominium","livingArea":1911,"associationFee":575,"unparsedAddress":"67985 Seven Oaks Drive, Cathedral City, CA 92234"}},{"type":"Feature","geometry":{"type":"Point","coordinates":[-116.468665,33.809321]},"properties":{"listingKey":"20251001212119263488000000","listingId":"IV-25229853","listPrice":415000,"city":"Cathedral City","baths":2,"slug":"20251001212119263488000000","mlsSource":"CRMLS","propertyType":"A","propertySubType":"Single Family Residence","livingArea":1320,"associationFee":0,"unparsedAddress":"32904 Navajo, Cathedral City, CA 92234"}},{"type":"Feature","geometry":{"type":"Point","coordinates":[-116.458376,33.807219]},"properties":{"listingKey":"20250822002511988550000000","listingId":"SB-25188849","listPrice":2995,"city":"Cathedral City","baths":2.25,"slug":"20250822002511988550000000","mlsSource":"CRMLS","propertyType":"B","propertySubType":"Single Family Residence","livingArea":1600,"associationFee":0,"unparsedAddress":"68980 Via Eytel Road, 1, Cathedral City, CA 92234"}}]