[{"type":"Feature","id":605927,"properties":{"cluster":true,"cluster_id":605927,"point_count":2,"point_count_abbreviated":2},"geometry":{"type":"Point","coordinates":[-122.45395392179489,37.68964475934163]}},{"type":"Feature","geometry":{"type":"Point","coordinates":[-122.457325,37.701263]},"properties":{"listingKey":"20250813095512125596000000","listingId":"01-41107942","listPrice":739000,"city":"Daly City","baths":2.5,"slug":"20250813095512125596000000","mlsSource":"CRMLS","propertyType":"A","propertySubType":"Townhouse","livingArea":1630,"associationFee":1015,"unparsedAddress":"440 Pointe Pacific, 3, Daly City, CA 94014"}},{"type":"Feature","geometry":{"type":"Point","coordinates":[-122.45995,37.70779]},"properties":{"listingKey":"20251107011337326823000000","listingId":"IV-25255733","listPrice":1093920,"city":"Daly City","baths":1.5,"slug":"20251107011337326823000000","mlsSource":"CRMLS","propertyType":"A","propertySubType":"Single Family Residence","livingArea":1800,"associationFee":0,"unparsedAddress":"3268 San Jose Avenue, Daly City, CA 94014"}},{"type":"Feature","geometry":{"type":"Point","coordinates":[-122.457747,37.694849]},"properties":{"listingKey":"20251022040321097441000000","listingId":"01-41115432","listPrice":1288000,"city":"Daly City","baths":3,"slug":"20251022040321097441000000","mlsSource":"CRMLS","propertyType":"A","propertySubType":"Single Family Residence","livingArea":1770,"unparsedAddress":"353 East Moltke Street, Daly City, CA 94014"}},{"type":"Feature","geometry":{"type":"Point","coordinates":[-122.467754,37.699938]},"properties":{"listingKey":"20250624054447323464000000","listingId":"01-41102500","listPrice":1248800,"city":"Daly City","baths":2,"slug":"20250624054447323464000000","mlsSource":"CRMLS","propertyType":"A","propertySubType":"Single Family Residence","livingArea":1603,"unparsedAddress":"269 Willits St, Daly City, CA 94014"}},{"type":"Feature","geometry":{"type":"Point","coordinates":[-122.440031,37.718256]},"properties":{"listingKey":"20250816063238969985000000","listingId":"01-41108386","listPrice":399990,"city":"San Francisco","baths":0.5,"slug":"20250816063238969985000000","mlsSource":"CRMLS","propertyType":"A","propertySubType":"Condominium","livingArea":831,"associationFee":335,"unparsedAddress":"5020 Mission Street, 1, San Francisco, CA 94112"}},{"type":"Feature","geometry":{"type":"Point","coordinates":[-122.463866,37.68738]},"properties":{"listingKey":"20251107202227597014000000","listingId":"01-41116962","listPrice":1198000,"city":"Daly City","baths":3,"slug":"20251107202227597014000000","mlsSource":"CRMLS","propertyType":"A","propertySubType":"Single Family Residence","livingArea":2050,"unparsedAddress":"325 1st Ave, Daly City, CA 94014"}}]