[{"type":"Feature","geometry":{"type":"Point","coordinates":[-118.523581,34.168635]},"properties":{"listingKey":"20251017234549825039000000","listingId":"GD-25242293","listPrice":2100,"city":"Encino","baths":1,"slug":"20251017234549825039000000","mlsSource":"CRMLS","propertyType":"B","propertySubType":"Condominium","livingArea":723,"unparsedAddress":"5400 Newcastle, 70, Encino, CA 91316"}},{"type":"Feature","geometry":{"type":"Point","coordinates":[-118.521535,34.167241]},"properties":{"listingKey":"20250925041529873734000000","listingId":"GD-25224894","listPrice":698000,"city":"Encino","baths":2,"slug":"20250925041529873734000000","mlsSource":"CRMLS","propertyType":"A","propertySubType":"Condominium","livingArea":1600,"associationFee":495,"unparsedAddress":"5310 Zelzah, 312, Encino, CA 91316"}},{"type":"Feature","geometry":{"type":"Point","coordinates":[-118.525135,34.167473]},"properties":{"listingKey":"20250920034527527713000000","listingId":"GD-25203625","listPrice":295000,"city":"Encino","baths":1,"slug":"20250920034527527713000000","mlsSource":"CRMLS","propertyType":"A","propertySubType":"Condominium","livingArea":475,"associationFee":452,"unparsedAddress":"5325 Newcastle Avenue, 328, Encino, CA 91316"}},{"type":"Feature","geometry":{"type":"Point","coordinates":[-118.520761,34.164905]},"properties":{"listingKey":"20251028190856773426000000","listingId":"SB-25248859","listPrice":2195,"city":"Encino","baths":2,"slug":"20251028190856773426000000","mlsSource":"CRMLS","propertyType":"B","propertySubType":"Apartment","livingArea":1000,"associationFee":0,"unparsedAddress":"5167 Yarmouth Avenue, 5, Encino, CA 91316"}},{"type":"Feature","id":436553,"properties":{"cluster":true,"cluster_id":436553,"point_count":2,"point_count_abbreviated":2},"geometry":{"type":"Point","coordinates":[-118.5251373052597,34.169044241673035]}}]