[{"type":"Feature","id":120361,"properties":{"cluster":true,"cluster_id":120361,"point_count":2,"point_count_abbreviated":2},"geometry":{"type":"Point","coordinates":[-116.53820782899857,33.860255196330854]}},{"type":"Feature","id":42377,"properties":{"cluster":true,"cluster_id":42377,"point_count":2,"point_count_abbreviated":2},"geometry":{"type":"Point","coordinates":[-116.53347373008728,33.857404200091366]}},{"type":"Feature","geometry":{"type":"Point","coordinates":[-116.538049,33.853447]},"properties":{"listingKey":"20250627213931829400000000","listingId":"219132073","listPrice":1649000,"city":"Palm Springs","baths":3,"slug":"20250627213931829400000000","mlsSource":"GPS","propertyType":"A","propertySubType":"Single Family Residence","livingArea":1449,"associationFee":0,"unparsedAddress":"811 E Grace Circle, Palm Springs, CA 92262"}},{"type":"Feature","id":102857,"properties":{"cluster":true,"cluster_id":102857,"point_count":2,"point_count_abbreviated":2},"geometry":{"type":"Point","coordinates":[-116.53357565402985,33.85400960857115]}},{"type":"Feature","geometry":{"type":"Point","coordinates":[-116.535127,33.857437]},"properties":{"listingKey":"20251013145000893705000000","listingId":"NP-25238311","listPrice":1379000,"city":"Palm Springs","baths":3,"slug":"20251013145000893705000000","mlsSource":"CRMLS","propertyType":"A","propertySubType":"Single Family Residence","livingArea":2231,"associationFee":0,"unparsedAddress":"1126 Lucent Court, Palm Springs, CA 92262"}},{"type":"Feature","geometry":{"type":"Point","coordinates":[-116.53914,33.856107]},"properties":{"listingKey":"20251103190649910609000000","listingId":"219138331","listPrice":779500,"city":"Palm Springs","baths":2,"slug":"20251103190649910609000000","mlsSource":"GPS","propertyType":"A","propertySubType":"Single Family Residence","livingArea":1481,"associationFee":405,"unparsedAddress":"2900 S Redwood Drive, Palm Springs, CA 92262"}},{"type":"Feature","id":111593,"properties":{"cluster":true,"cluster_id":111593,"point_count":2,"point_count_abbreviated":2},"geometry":{"type":"Point","coordinates":[-116.53993785381317,33.85710127614726]}},{"type":"Feature","geometry":{"type":"Point","coordinates":[-116.53557,33.860659]},"properties":{"listingKey":"20251111200226824186000000","listingId":"219138590","listPrice":915000,"city":"Palm Springs","baths":2,"slug":"20251111200226824186000000","mlsSource":"GPS","propertyType":"A","propertySubType":"Single Family Residence","livingArea":2343,"associationFee":0,"unparsedAddress":"1123 E Circulo San Sorrento Road, Palm Springs, CA 92262"}},{"type":"Feature","id":119241,"properties":{"cluster":true,"cluster_id":119241,"point_count":2,"point_count_abbreviated":2},"geometry":{"type":"Point","coordinates":[-116.54003441333771,33.860317560809776]}},{"type":"Feature","geometry":{"type":"Point","coordinates":[-116.541944,33.859875]},"properties":{"listingKey":"20250825222158819613000000","listingId":"219134494","listPrice":975000,"city":"Palm Springs","baths":2.75,"slug":"20250825222158819613000000","mlsSource":"GPS","propertyType":"A","propertySubType":"Single Family Residence","livingArea":1894,"associationFee":510,"unparsedAddress":"423 Fountain Drive, Palm Springs, CA 92262"}}]