[{"type":"Feature","geometry":{"type":"Point","coordinates":[-117.927734,33.779695]},"properties":{"listingKey":"20251121061254017306000000","listingId":"PW-25264271","listPrice":899000,"city":"Garden Grove","baths":2,"slug":"20251121061254017306000000","mlsSource":"CRMLS","propertyType":"A","propertySubType":"Single Family Residence","livingArea":1450,"associationFee":0,"unparsedAddress":"12621 Strathmore, Garden Grove, CA 92840"}},{"type":"Feature","geometry":{"type":"Point","coordinates":[-117.928839,33.784378]},"properties":{"listingKey":"20250912140838688393000000","listingId":"OC-25214920","listPrice":3000,"city":"Garden Grove","baths":2,"slug":"20250912140838688393000000","mlsSource":"CRMLS","propertyType":"B","propertySubType":"Single Family Residence","livingArea":900,"associationFee":0,"unparsedAddress":"12285 Zeta Street, Garden Grove, CA 92840"}},{"type":"Feature","geometry":{"type":"Point","coordinates":[-117.935541,33.780863]},"properties":{"listingKey":"20251023171808001709000000","listingId":"CV-25245773","listPrice":2900,"city":"Garden Grove","baths":1,"slug":"20251023171808001709000000","mlsSource":"CRMLS","propertyType":"B","propertySubType":"Single Family Residence","livingArea":1488,"associationFee":0,"unparsedAddress":"11296 Lampson Avenue, Garden Grove, CA 92840"}},{"type":"Feature","geometry":{"type":"Point","coordinates":[-117.933735,33.779188]},"properties":{"listingKey":"20251029192946572256000000","listingId":"OC-25246955","listPrice":499000,"city":"Garden Grove","baths":1,"slug":"20251029192946572256000000","mlsSource":"CRMLS","propertyType":"A","propertySubType":"Condominium","livingArea":805,"associationFee":256,"unparsedAddress":"12677 8th Street, Garden Grove, CA 92840"}},{"type":"Feature","geometry":{"type":"Point","coordinates":[-117.933687,33.787694]},"properties":{"listingKey":"20251119032447787926000000","listingId":"PW-25262832","listPrice":1200000,"city":"Garden Grove","baths":3,"slug":"20251119032447787926000000","mlsSource":"CRMLS","propertyType":"A","propertySubType":"Single Family Residence","livingArea":1560,"associationFee":0,"unparsedAddress":"11821 Easy Way, Garden Grove, CA 92840"}}]