[{"type":"Feature","geometry":{"type":"Point","coordinates":[-117.123333,32.920008]},"properties":{"listingKey":"20251120223930264735000000","listingId":"8N-2510982","listPrice":1329000,"city":"Mira Mesa","baths":2.5,"slug":"20251120223930264735000000","mlsSource":"CRMLS","propertyType":"A","propertySubType":"Single Family Residence","livingArea":1938,"associationFee":0,"unparsedAddress":"9378 Twin Mountain Circle, Mira Mesa, CA 92126"}},{"type":"Feature","id":114374,"properties":{"cluster":true,"cluster_id":114374,"point_count":11,"point_count_abbreviated":11},"geometry":{"type":"Point","coordinates":[-117.13821335272355,32.91787315108469]}},{"type":"Feature","id":140295,"properties":{"cluster":true,"cluster_id":140295,"point_count":2,"point_count_abbreviated":2},"geometry":{"type":"Point","coordinates":[-117.08905577659607,32.93195260216474]}},{"type":"Feature","id":165574,"properties":{"cluster":true,"cluster_id":165574,"point_count":2,"point_count_abbreviated":2},"geometry":{"type":"Point","coordinates":[-117.08858102560043,32.98580796287544]}},{"type":"Feature","geometry":{"type":"Point","coordinates":[-117.070498,32.98176]},"properties":{"listingKey":"20251104031805459122000000","listingId":"8P-2508315","listPrice":4850,"city":"San Diego","baths":3,"slug":"20251104031805459122000000","mlsSource":"CRMLS","propertyType":"B","propertySubType":"Townhouse","livingArea":1716,"unparsedAddress":"12235 Halle Way, San Diego, CA 92128"}},{"type":"Feature","geometry":{"type":"Point","coordinates":[-117.124804,32.953428]},"properties":{"listingKey":"20251104063209968532000000","listingId":"8P-2508318","listPrice":1400000,"city":"San Diego","baths":2.5,"slug":"20251104063209968532000000","mlsSource":"CRMLS","propertyType":"A","propertySubType":"Single Family Residence","livingArea":1876,"associationFee":0,"unparsedAddress":"9462 Pipilo Street, San Diego, CA 92129"}},{"type":"Feature","id":384070,"properties":{"cluster":true,"cluster_id":384070,"point_count":3,"point_count_abbreviated":3},"geometry":{"type":"Point","coordinates":[-117.14127123355864,32.92967283416101]}},{"type":"Feature","id":706215,"properties":{"cluster":true,"cluster_id":706215,"point_count":2,"point_count_abbreviated":2},"geometry":{"type":"Point","coordinates":[-117.13949203491211,32.98690138394936]}},{"type":"Feature","geometry":{"type":"Point","coordinates":[-117.146929,32.963403]},"properties":{"listingKey":"20251114042650247553000000","listingId":"8N-2510835","listPrice":2599999,"city":"San Diego","baths":4.5,"slug":"20251114042650247553000000","mlsSource":"CRMLS","propertyType":"A","propertySubType":"Single Family Residence","livingArea":3985,"associationFee":75,"unparsedAddress":"8316 Entreken Way, San Diego, CA 92129"}},{"type":"Feature","geometry":{"type":"Point","coordinates":[-117.130606,32.973177]},"properties":{"listingKey":"20251107231626941307000000","listingId":"8N-2510679","listPrice":5490,"city":"San Diego","baths":3,"slug":"20251107231626941307000000","mlsSource":"CRMLS","propertyType":"B","propertySubType":"Single Family Residence","livingArea":2291,"associationFee":0,"unparsedAddress":"9346 Laurentian Drive, San Diego, CA 92129"}},{"type":"Feature","geometry":{"type":"Point","coordinates":[-117.121337,32.940692]},"properties":{"listingKey":"20251028060900095147000000","listingId":"8P-2508128","listPrice":1625000,"city":"San Diego","baths":3,"slug":"20251028060900095147000000","mlsSource":"CRMLS","propertyType":"A","propertySubType":"Single Family Residence","livingArea":2725,"associationFee":165,"unparsedAddress":"9432 Hito Court, San Diego, CA 92129"}},{"type":"Feature","geometry":{"type":"Point","coordinates":[-117.136689,32.952812]},"properties":{"listingKey":"20250828073839669748000000","listingId":"8N-2508407","listPrice":1269000,"city":"San Diego","baths":2.5,"slug":"20250828073839669748000000","mlsSource":"CRMLS","propertyType":"A","propertySubType":"Single Family Residence","livingArea":1915,"associationFee":142,"unparsedAddress":"8754 Park Run Road, San Diego, CA 92129"}},{"type":"Feature","id":170630,"properties":{"cluster":true,"cluster_id":170630,"point_count":4,"point_count_abbreviated":4},"geometry":{"type":"Point","coordinates":[-117.11606025695801,32.925405803050396]}},{"type":"Feature","id":425574,"properties":{"cluster":true,"cluster_id":425574,"point_count":3,"point_count_abbreviated":3},"geometry":{"type":"Point","coordinates":[-117.11399316787718,32.964155737031106]}},{"type":"Feature","geometry":{"type":"Point","coordinates":[-117.112216,32.952984]},"properties":{"listingKey":"20250816063236262439000000","listingId":"8N-2508063","listPrice":1548000,"city":"San Diego","baths":2,"slug":"20250816063236262439000000","mlsSource":"CRMLS","propertyType":"A","propertySubType":"Single Family Residence","livingArea":1920,"associationFee":0,"unparsedAddress":"12940 Calle De Las Rosas, San Diego, CA 92129"}},{"type":"Feature","geometry":{"type":"Point","coordinates":[-117.091519,32.973185]},"properties":{"listingKey":"20250821223449696979000000","listingId":"8P-2506384","listPrice":869900,"city":"San Diego","baths":2.5,"slug":"20250821223449696979000000","mlsSource":"CRMLS","propertyType":"A","propertySubType":"Condominium","livingArea":1612,"associationFee":316,"unparsedAddress":"11011 Peyton Way, San Diego, CA 92129"}},{"type":"Feature","geometry":{"type":"Point","coordinates":[-117.099789,32.965226]},"properties":{"listingKey":"20250927042148256855000000","listingId":"ND-25225676","listPrice":449000,"city":"San Diego","baths":1,"slug":"20250927042148256855000000","mlsSource":"CRMLS","propertyType":"A","propertySubType":"Condominium","livingArea":882,"associationFee":605,"unparsedAddress":"10472 Caminito Rimini, San Diego, CA 92129"}},{"type":"Feature","id":154087,"properties":{"cluster":true,"cluster_id":154087,"point_count":2,"point_count_abbreviated":2},"geometry":{"type":"Point","coordinates":[-117.09935277700424,32.95345367152031]}},{"type":"Feature","id":442087,"properties":{"cluster":true,"cluster_id":442087,"point_count":2,"point_count_abbreviated":2},"geometry":{"type":"Point","coordinates":[-117.0909333229065,32.94613867256963]}},{"type":"Feature","id":738824,"properties":{"cluster":true,"cluster_id":738824,"point_count":2,"point_count_abbreviated":2},"geometry":{"type":"Point","coordinates":[-117.15724557638168,32.92588309638663]}}]