[{"type":"Feature","geometry":{"type":"Point","coordinates":[-121.936419,38.027832]},"properties":{"listingKey":"20251002042811534658000000","listingId":"01-41113347","listPrice":605000,"city":"Bay Point","baths":3,"slug":"20251002042811534658000000","mlsSource":"CRMLS","propertyType":"A","propertySubType":"Single Family Residence","livingArea":2004,"unparsedAddress":"112 Gibson AVE, Bay Point, CA 94565"}},{"type":"Feature","geometry":{"type":"Point","coordinates":[-121.931923,38.016993]},"properties":{"listingKey":"20251024041417002582000000","listingId":"SW-25243809","listPrice":753000,"city":"Brentwood","baths":3,"slug":"20251024041417002582000000","mlsSource":"CRMLS","propertyType":"A","propertySubType":"Single Family Residence","livingArea":2842,"associationFee":112,"unparsedAddress":"377 Baja Court, Brentwood, CA 94513"}},{"type":"Feature","geometry":{"type":"Point","coordinates":[-121.932132,38.028251]},"properties":{"listingKey":"20251112232032670855000000","listingId":"01-41117288","listPrice":679000,"city":"Pittsburg","baths":3,"slug":"20251112232032670855000000","mlsSource":"CRMLS","propertyType":"A","propertySubType":"Single Family Residence","livingArea":2025,"unparsedAddress":"2132 Rain Drop Cir, Pittsburg, CA 94565"}},{"type":"Feature","geometry":{"type":"Point","coordinates":[-121.945966,38.020869]},"properties":{"listingKey":"20250829231220763779000000","listingId":"01-41109760","listPrice":289000,"city":"Bay Point","baths":1,"slug":"20250829231220763779000000","mlsSource":"CRMLS","propertyType":"A","propertySubType":"Condominium","livingArea":806,"associationFee":640,"unparsedAddress":"8 Lancaster Cir, 118, Bay Point, CA 94565"}},{"type":"Feature","id":561417,"properties":{"cluster":true,"cluster_id":561417,"point_count":2,"point_count_abbreviated":2},"geometry":{"type":"Point","coordinates":[-121.93906098604202,38.02421060802956]}},{"type":"Feature","geometry":{"type":"Point","coordinates":[-121.93932,38.029865]},"properties":{"listingKey":"20251120230354869395000000","listingId":"01-41117916","listPrice":549000,"city":"Bay Point","baths":1,"slug":"20251120230354869395000000","mlsSource":"CRMLS","propertyType":"A","propertySubType":"Single Family Residence","livingArea":775,"unparsedAddress":"492 Pullman Ave, Bay Point, CA 94565"}}]