[{"type":"Feature","geometry":{"type":"Point","coordinates":[-121.941798,37.70415]},"properties":{"listingKey":"20251011001217848042000000","listingId":"01-41114474","listPrice":1290000,"city":"Dublin","baths":2,"slug":"20251011001217848042000000","mlsSource":"CRMLS","propertyType":"A","propertySubType":"Single Family Residence","livingArea":1405,"associationFee":23,"unparsedAddress":"7345 Castle Dr, Dublin, CA 94568"}},{"type":"Feature","id":629448,"properties":{"cluster":true,"cluster_id":629448,"point_count":2,"point_count_abbreviated":2},"geometry":{"type":"Point","coordinates":[-121.93916290998459,37.70946223321194]}},{"type":"Feature","geometry":{"type":"Point","coordinates":[-121.943557,37.706302]},"properties":{"listingKey":"20251030163836183307000000","listingId":"01-41116191","listPrice":1499000,"city":"Dublin","baths":2,"slug":"20251030163836183307000000","mlsSource":"CRMLS","propertyType":"A","propertySubType":"Single Family Residence","livingArea":1948,"unparsedAddress":"7506 Amarillo Rd, Dublin, CA 94568"}},{"type":"Feature","geometry":{"type":"Point","coordinates":[-121.94818,37.708852]},"properties":{"listingKey":"20251031021640166411000000","listingId":"01-41116300","listPrice":1800000,"city":"Dublin","baths":3.5,"slug":"20251031021640166411000000","mlsSource":"CRMLS","propertyType":"A","propertySubType":"Single Family Residence","livingArea":2776,"associationFee":460,"unparsedAddress":"7840 Creekside Dr, Dublin, CA 94568"}},{"type":"Feature","geometry":{"type":"Point","coordinates":[-121.936676,37.716138]},"properties":{"listingKey":"20250827154631993714000000","listingId":"01-41109462","listPrice":1350000,"city":"Dublin","baths":2,"slug":"20250827154631993714000000","mlsSource":"CRMLS","propertyType":"A","propertySubType":"Single Family Residence","livingArea":1321,"unparsedAddress":"7718 Millbrook Ave, Dublin, CA 94568"}},{"type":"Feature","geometry":{"type":"Point","coordinates":[-121.932441,37.708715]},"properties":{"listingKey":"20251105063401411774000000","listingId":"01-41116698","listPrice":3499950,"city":"Dublin","baths":0,"slug":"20251105063401411774000000","mlsSource":"CRMLS","propertyType":"C","associationFee":0,"unparsedAddress":"7595 Amador Valley Blvd, Dublin, CA 94568"}},{"type":"Feature","geometry":{"type":"Point","coordinates":[-121.931136,37.710541]},"properties":{"listingKey":"20251113090511200151000000","listingId":"01-41117326","listPrice":1100000,"city":"Dublin","baths":2,"slug":"20251113090511200151000000","mlsSource":"CRMLS","propertyType":"A","propertySubType":"Single Family Residence","livingArea":1116,"unparsedAddress":"7533 Honey Court, Dublin, CA"}}]