[{"type":"Feature","id":405577,"properties":{"cluster":true,"cluster_id":405577,"point_count":3,"point_count_abbreviated":3},"geometry":{"type":"Point","coordinates":[-117.12717533111572,33.15363090869053]}},{"type":"Feature","geometry":{"type":"Point","coordinates":[-117.123741,33.143838]},"properties":{"listingKey":"20251119231051092791000000","listingId":"SW-25263280","listPrice":815999,"city":"San Marcos","baths":3,"slug":"20251119231051092791000000","mlsSource":"CRMLS","propertyType":"A","propertySubType":"Single Family Residence","livingArea":1690,"associationFee":0,"unparsedAddress":"586 Tam O Shanter, San Marcos, CA 92069"}},{"type":"Feature","geometry":{"type":"Point","coordinates":[-117.117003,33.150515]},"properties":{"listingKey":"20251022010841330334000000","listingId":"8N-2510151","listPrice":889000,"city":"Escondido","baths":2.5,"slug":"20251022010841330334000000","mlsSource":"CRMLS","propertyType":"A","propertySubType":"Single Family Residence","livingArea":1612,"associationFee":0,"unparsedAddress":"1715 Las Palmas Lane, Escondido, CA 92026"}},{"type":"Feature","geometry":{"type":"Point","coordinates":[-117.114947,33.1537]},"properties":{"listingKey":"20251114171450833379000000","listingId":"8N-2510845","listPrice":799000,"city":"Escondido","baths":2,"slug":"20251114171450833379000000","mlsSource":"CRMLS","propertyType":"A","propertySubType":"Single Family Residence","livingArea":1614,"associationFee":0,"unparsedAddress":"1446 SAN CARLOS PLACE, Escondido, CA 92026"}},{"type":"Feature","geometry":{"type":"Point","coordinates":[-117.120064,33.153321]},"properties":{"listingKey":"20250903225446503676000000","listingId":"8P-2506730","listPrice":1124999,"city":"Escondido","baths":3,"slug":"20250903225446503676000000","mlsSource":"CRMLS","propertyType":"A","propertySubType":"Single Family Residence","livingArea":2029,"associationFee":0,"unparsedAddress":"1708 Harold Road, Escondido, CA 92026"}}]