[{"type":"Feature","geometry":{"type":"Point","coordinates":[-118.215322,33.981756]},"properties":{"listingKey":"20250817205101901347000000","listingId":"PW-25185373","listPrice":690000,"city":"Huntington Park","baths":0,"slug":"20250817205101901347000000","mlsSource":"CRMLS","propertyType":"C","propertySubType":"Duplex","livingArea":1372,"unparsedAddress":"6356 Marconi Street, Huntington Park, CA 90255"}},{"type":"Feature","id":211144,"properties":{"cluster":true,"cluster_id":211144,"point_count":2,"point_count_abbreviated":2},"geometry":{"type":"Point","coordinates":[-118.24563503265381,34.00282143221766]}},{"type":"Feature","id":94215,"properties":{"cluster":true,"cluster_id":94215,"point_count":10,"point_count_abbreviated":10},"geometry":{"type":"Point","coordinates":[-118.24864125251769,34.00602688204586]}},{"type":"Feature","id":96775,"properties":{"cluster":true,"cluster_id":96775,"point_count":6,"point_count_abbreviated":6},"geometry":{"type":"Point","coordinates":[-118.24973523616792,33.995345433367405]}},{"type":"Feature","id":852425,"properties":{"cluster":true,"cluster_id":852425,"point_count":2,"point_count_abbreviated":2},"geometry":{"type":"Point","coordinates":[-118.22096943855286,33.98990590831686]}},{"type":"Feature","id":178983,"properties":{"cluster":true,"cluster_id":178983,"point_count":3,"point_count_abbreviated":3},"geometry":{"type":"Point","coordinates":[-118.24503779411314,34.011371401149944]}},{"type":"Feature","id":208967,"properties":{"cluster":true,"cluster_id":208967,"point_count":5,"point_count_abbreviated":5},"geometry":{"type":"Point","coordinates":[-118.252907037735,34.000014340726665]}},{"type":"Feature","geometry":{"type":"Point","coordinates":[-118.252287,34.010493]},"properties":{"listingKey":"20251107182624346680000000","listingId":"RS-25255624","listPrice":1150000,"city":"Los Angeles","baths":0,"slug":"20251107182624346680000000","mlsSource":"CRMLS","propertyType":"C","propertySubType":"Quadruplex","livingArea":2445,"associationFee":0,"unparsedAddress":"1291 East 40th, Los Angeles, CA 90011"}},{"type":"Feature","geometry":{"type":"Point","coordinates":[-118.223717,33.995019]},"properties":{"listingKey":"20250928072041645753000000","listingId":"OC-25221561","listPrice":699000,"city":"Huntington Park","baths":0,"slug":"20250928072041645753000000","mlsSource":"CRMLS","propertyType":"C","propertySubType":"Triplex","livingArea":2132,"associationFee":0,"unparsedAddress":"2641 53rd street, Huntington Park, CA 90255"}},{"type":"Feature","id":94983,"properties":{"cluster":true,"cluster_id":94983,"point_count":3,"point_count_abbreviated":3},"geometry":{"type":"Point","coordinates":[-118.2422572374344,33.98237391150016]}},{"type":"Feature","id":314055,"properties":{"cluster":true,"cluster_id":314055,"point_count":4,"point_count_abbreviated":4},"geometry":{"type":"Point","coordinates":[-118.22658464312553,33.98432591924154]}},{"type":"Feature","geometry":{"type":"Point","coordinates":[-118.246968,33.980208]},"properties":{"listingKey":"20250803002217879481000000","listingId":"DW-25173733","listPrice":1899000,"city":"Los Angeles","baths":0,"slug":"20250803002217879481000000","mlsSource":"CRMLS","propertyType":"C","propertySubType":"Quadruplex","livingArea":4000,"associationFee":0,"unparsedAddress":"1521 East 66th Street, Los Angeles, CA 90001"}},{"type":"Feature","geometry":{"type":"Point","coordinates":[-118.256813,33.998936]},"properties":{"listingKey":"20251011180536780051000000","listingId":"P1-24521","listPrice":8000,"city":"Los Angeles","baths":1.75,"slug":"20251011180536780051000000","mlsSource":"CRMLS","propertyType":"B","propertySubType":"Commercial/Residential","livingArea":2551,"unparsedAddress":"4909 1/2 South Central Avenue, Los Angeles, CA 90011"}}]