[{"type":"Feature","id":265415,"properties":{"cluster":true,"cluster_id":265415,"point_count":3,"point_count_abbreviated":3},"geometry":{"type":"Point","coordinates":[-118.25027525424957,33.83053037054546]}},{"type":"Feature","geometry":{"type":"Point","coordinates":[-118.224841,33.829654]},"properties":{"listingKey":"20251104181854124330000000","listingId":"IG-25253426","listPrice":659000,"city":"Carson","baths":1,"slug":"20251104181854124330000000","mlsSource":"CRMLS","propertyType":"A","propertySubType":"Single Family Residence","livingArea":768,"associationFee":0,"unparsedAddress":"2539 East 219th Place, Carson, CA 90810"}},{"type":"Feature","id":307335,"properties":{"cluster":true,"cluster_id":307335,"point_count":3,"point_count_abbreviated":3},"geometry":{"type":"Point","coordinates":[-118.21858406066896,33.81809678772038]}},{"type":"Feature","id":112392,"properties":{"cluster":true,"cluster_id":112392,"point_count":4,"point_count_abbreviated":4},"geometry":{"type":"Point","coordinates":[-118.21792379021645,33.82263220964414]}},{"type":"Feature","geometry":{"type":"Point","coordinates":[-118.220085,33.810208]},"properties":{"listingKey":"20251006233518141499000000","listingId":"SB-25232925","listPrice":2600,"city":"Long Beach","baths":1,"slug":"20251006233518141499000000","mlsSource":"CRMLS","propertyType":"B","propertySubType":"Triplex","livingArea":576,"associationFee":0,"unparsedAddress":"2115 29th St, A, Long Beach, CA 90810"}},{"type":"Feature","geometry":{"type":"Point","coordinates":[-118.219454,33.80094]},"properties":{"listingKey":"20250704103158967943000000","listingId":"PW-25149898","listPrice":884888,"city":"Long Beach","baths":2.5,"slug":"20250704103158967943000000","mlsSource":"CRMLS","propertyType":"A","propertySubType":"Single Family Residence","livingArea":1200,"associationFee":0,"unparsedAddress":"2033 West Burnett Street, Long Beach, CA 90810"}},{"type":"Feature","geometry":{"type":"Point","coordinates":[-118.255918,33.830013]},"properties":{"listingKey":"20250620230333243074000000","listingId":"PW-25117800","listPrice":755000,"city":"Carson","baths":3,"slug":"20250620230333243074000000","mlsSource":"CRMLS","propertyType":"A","propertySubType":"Single Family Residence","livingArea":1811,"associationFee":0,"unparsedAddress":"21801 Foley Avenue, Carson, CA 90745"}},{"type":"Feature","geometry":{"type":"Point","coordinates":[-118.254238,33.824673]},"properties":{"listingKey":"20251102184900765242000000","listingId":"PW-25252185","listPrice":749000,"city":"Carson","baths":1,"slug":"20251102184900765242000000","mlsSource":"CRMLS","propertyType":"A","propertySubType":"Single Family Residence","livingArea":1038,"associationFee":0,"unparsedAddress":"1118 East Joel, Carson, CA 90745"}}]