[{"type":"Feature","id":347241,"properties":{"cluster":true,"cluster_id":347241,"point_count":2,"point_count_abbreviated":2},"geometry":{"type":"Point","coordinates":[-118.02634567022324,34.16209336726962]}},{"type":"Feature","id":327273,"properties":{"cluster":true,"cluster_id":327273,"point_count":2,"point_count_abbreviated":2},"geometry":{"type":"Point","coordinates":[-118.03421795368195,34.164872010249056]}},{"type":"Feature","geometry":{"type":"Point","coordinates":[-118.028557,34.170878]},"properties":{"listingKey":"20251021210646268776000000","listingId":"OC-25241561","listPrice":2988000,"city":"Arcadia","baths":3.5,"slug":"20251021210646268776000000","mlsSource":"CRMLS","propertyType":"A","propertySubType":"Single Family Residence","livingArea":3852,"associationFee":0,"unparsedAddress":"2047 Carolwood, Arcadia, CA 91006"}},{"type":"Feature","geometry":{"type":"Point","coordinates":[-118.026767,34.163972]},"properties":{"listingKey":"20251031174726246538000000","listingId":"AR-25249835","listPrice":6250,"city":"Arcadia","baths":3.75,"slug":"20251031174726246538000000","mlsSource":"CRMLS","propertyType":"B","propertySubType":"Single Family Residence","livingArea":3015,"associationFee":0,"unparsedAddress":"1227 Highland Oaks Drive, Arcadia, CA 91006"}},{"type":"Feature","geometry":{"type":"Point","coordinates":[-118.029523,34.164699]},"properties":{"listingKey":"20251021203834608352000000","listingId":"AR-25243651","listPrice":5800,"city":"Arcadia","baths":3,"slug":"20251021203834608352000000","mlsSource":"CRMLS","propertyType":"B","propertySubType":"Single Family Residence","livingArea":2179,"associationFee":0,"unparsedAddress":"1801 Wilson, Arcadia, CA 91006"}},{"type":"Feature","geometry":{"type":"Point","coordinates":[-118.029715,34.166638]},"properties":{"listingKey":"20250808082125804280000000","listingId":"AR-25170302","listPrice":1980000,"city":"Arcadia","baths":3.5,"slug":"20250808082125804280000000","mlsSource":"CRMLS","propertyType":"A","propertySubType":"Single Family Residence","livingArea":3248,"associationFee":0,"unparsedAddress":"1861 Wilson Avenue, Arcadia, CA 91006"}}]