[{"type":"Feature","geometry":{"type":"Point","coordinates":[-118.030196,33.714725]},"properties":{"listingKey":"20250918043233774744000000","listingId":"OC-25219325","listPrice":1500000,"city":"Huntington Beach","baths":3,"slug":"20250918043233774744000000","mlsSource":"CRMLS","propertyType":"A","propertySubType":"Single Family Residence","livingArea":1809,"associationFee":0,"unparsedAddress":"17042 Twain Lane, Huntington Beach, CA 92649"}},{"type":"Feature","geometry":{"type":"Point","coordinates":[-118.033667,33.708795]},"properties":{"listingKey":"20251028053521952223000000","listingId":"NP-25248099","listPrice":5700,"city":"Huntington Beach","baths":2,"slug":"20251028053521952223000000","mlsSource":"CRMLS","propertyType":"B","propertySubType":"Single Family Residence","livingArea":1341,"associationFee":0,"unparsedAddress":"17472 Bellport Circle, Huntington Beach, CA 92649"}},{"type":"Feature","geometry":{"type":"Point","coordinates":[-118.035639,33.711056]},"properties":{"listingKey":"20251103030858321368000000","listingId":"PW-25244167","listPrice":2999999,"city":"Huntington Beach","baths":5.5,"slug":"20251103030858321368000000","mlsSource":"CRMLS","propertyType":"A","propertySubType":"Single Family Residence","livingArea":3809,"associationFee":252,"unparsedAddress":"17301 Juniper Lane, Huntington Beach, CA 92649"}},{"type":"Feature","geometry":{"type":"Point","coordinates":[-118.031813,33.712742]},"properties":{"listingKey":"20251119175242336075000000","listingId":"OC-25262393","listPrice":1349999,"city":"Huntington Beach","baths":2,"slug":"20251119175242336075000000","mlsSource":"CRMLS","propertyType":"A","propertySubType":"Single Family Residence","livingArea":1400,"associationFee":0,"unparsedAddress":"17172 Berlin Lane, Huntington Beach, CA 92649"}},{"type":"Feature","geometry":{"type":"Point","coordinates":[-118.036346,33.71259]},"properties":{"listingKey":"20251022174107512596000000","listingId":"NP-25242699","listPrice":2095000,"city":"Huntington Beach","baths":3.5,"slug":"20251022174107512596000000","mlsSource":"CRMLS","propertyType":"A","propertySubType":"Single Family Residence","livingArea":2441,"associationFee":0,"unparsedAddress":"5262 Glenroy Dr, Huntington Beach, CA 92649"}}]