[{"type":"Feature","geometry":{"type":"Point","coordinates":[-119.095247,35.348276]},"properties":{"listingKey":"20251112181529496466000000","listingId":"OC-25258912","listPrice":499995,"city":"Bakersfield","baths":2.5,"slug":"20251112181529496466000000","mlsSource":"CRMLS","propertyType":"A","propertySubType":"Single Family Residence","livingArea":2444,"associationFee":140,"unparsedAddress":"8216 Birmingham Street, Bakersfield, CA 93311"}},{"type":"Feature","geometry":{"type":"Point","coordinates":[-119.133641,35.347819]},"properties":{"listingKey":"20250827041251546291000000","listingId":"PW-25176402","listPrice":525000,"city":"Bakersfield","baths":3.5,"slug":"20250827041251546291000000","mlsSource":"CRMLS","propertyType":"A","propertySubType":"Single Family Residence","livingArea":2543,"associationFee":0,"unparsedAddress":"803 Mountain Park Drive, Bakersfield, CA 93311"}},{"type":"Feature","id":301895,"properties":{"cluster":true,"cluster_id":301895,"point_count":2,"point_count_abbreviated":2},"geometry":{"type":"Point","coordinates":[-119.10927951335907,35.319379799350614]}},{"type":"Feature","geometry":{"type":"Point","coordinates":[-119.113924,35.332845]},"properties":{"listingKey":"20251119030409483413000000","listingId":"PI-25262785","listPrice":475000,"city":"Bakersfield","baths":2,"slug":"20251119030409483413000000","mlsSource":"CRMLS","propertyType":"A","propertySubType":"Single Family Residence","livingArea":2040,"associationFee":175,"unparsedAddress":"10014 Brigadoon Rose, Bakersfield, CA 93311"}},{"type":"Feature","geometry":{"type":"Point","coordinates":[-119.134763,35.335678]},"properties":{"listingKey":"20251102201203085173000000","listingId":"V1-33441","listPrice":2600000,"city":"Bakersfield","baths":6,"slug":"20251102201203085173000000","mlsSource":"CRMLS","propertyType":"A","propertySubType":"Single Family Residence","livingArea":6385,"associationFee":245,"unparsedAddress":"2006 Brighton Park Drive, Bakersfield, CA 93311"}},{"type":"Feature","geometry":{"type":"Point","coordinates":[-119.135663,35.32563]},"properties":{"listingKey":"20250829225753645803000000","listingId":"NS-25195166","listPrice":599900,"city":"Bakersfield","baths":2.5,"slug":"20250829225753645803000000","mlsSource":"CRMLS","propertyType":"A","propertySubType":"Single Family Residence","livingArea":2516,"associationFee":40,"unparsedAddress":"12011 Manorwood Street, Bakersfield, CA 93311"}},{"type":"Feature","id":400775,"properties":{"cluster":true,"cluster_id":400775,"point_count":2,"point_count_abbreviated":2},"geometry":{"type":"Point","coordinates":[-119.12585824728012,35.34467959170283]}},{"type":"Feature","geometry":{"type":"Point","coordinates":[-119.126083,35.337352]},"properties":{"listingKey":"20250912234052756615000000","listingId":"PI-25215880","listPrice":649000,"city":"Bakersfield","baths":3.5,"slug":"20250912234052756615000000","mlsSource":"CRMLS","propertyType":"A","propertySubType":"Single Family Residence","livingArea":3135,"associationFee":130,"unparsedAddress":"1904 Wedgemont Place, Bakersfield, CA 93311"}}]