[{"type":"Feature","geometry":{"type":"Point","coordinates":[-117.821622,34.137151]},"properties":{"listingKey":"20251104203832291415000000","listingId":"CV-25253606","listPrice":1699000,"city":"Glendora","baths":5.5,"slug":"20251104203832291415000000","mlsSource":"CRMLS","propertyType":"A","propertySubType":"Single Family Residence","livingArea":4556,"associationFee":82,"unparsedAddress":"2200 Shenandoah, Glendora, CA 91741"}},{"type":"Feature","id":636009,"properties":{"cluster":true,"cluster_id":636009,"point_count":2,"point_count_abbreviated":2},"geometry":{"type":"Point","coordinates":[-117.81859517097473,34.12733929305152]}},{"type":"Feature","geometry":{"type":"Point","coordinates":[-117.828812,34.135206]},"properties":{"listingKey":"20250907014226469690000000","listingId":"CV-25198154","listPrice":4800,"city":"Glendora","baths":2,"slug":"20250907014226469690000000","mlsSource":"CRMLS","propertyType":"B","propertySubType":"Single Family Residence","livingArea":1456,"associationFee":0,"unparsedAddress":"133 South Lone Hill Avenue, Glendora, CA 91741"}},{"type":"Feature","geometry":{"type":"Point","coordinates":[-117.822173,34.129613]},"properties":{"listingKey":"20250730171136851538000000","listingId":"PF-25170935","listPrice":1760000,"city":"Glendora","baths":4.5,"slug":"20250730171136851538000000","mlsSource":"CRMLS","propertyType":"A","propertySubType":"Single Family Residence","livingArea":3412,"associationFee":150,"unparsedAddress":"2225 Saratoga Lane, Glendora, CA 91741"}},{"type":"Feature","geometry":{"type":"Point","coordinates":[-117.832415,34.127065]},"properties":{"listingKey":"20251108015352615797000000","listingId":"CV-25256031","listPrice":3495,"city":"Glendora","baths":1.5,"slug":"20251108015352615797000000","mlsSource":"CRMLS","propertyType":"B","propertySubType":"Single Family Residence","livingArea":1121,"associationFee":0,"unparsedAddress":"656 Remuda Drive, Glendora, CA 91740"}},{"type":"Feature","geometry":{"type":"Point","coordinates":[-117.835653,34.12997]},"properties":{"listingKey":"20251106233625932757000000","listingId":"AR-25255587","listPrice":3800,"city":"Glendora","baths":2,"slug":"20251106233625932757000000","mlsSource":"CRMLS","propertyType":"B","propertySubType":"Single Family Residence","livingArea":1757,"associationFee":0,"unparsedAddress":"1580 Manor, Glendora, CA 91741"}},{"type":"Feature","geometry":{"type":"Point","coordinates":[-117.832763,34.129822]},"properties":{"listingKey":"20251103221320024048000000","listingId":"PW-25252525","listPrice":3595,"city":"Glendora","baths":3,"slug":"20251103221320024048000000","mlsSource":"CRMLS","propertyType":"B","propertySubType":"Condominium","livingArea":1426,"associationFee":0,"unparsedAddress":"1749 Compromise Line, Glendora, CA 91741"}},{"type":"Feature","geometry":{"type":"Point","coordinates":[-117.834597,34.138653]},"properties":{"listingKey":"20251021204906068102000000","listingId":"PW-25240850","listPrice":1699000,"city":"Glendora","baths":2.5,"slug":"20251021204906068102000000","mlsSource":"CRMLS","propertyType":"A","propertySubType":"Single Family Residence","livingArea":2544,"associationFee":0,"unparsedAddress":"1627 Oak Tree Lane, Glendora, CA 91741"}}]