[{"type":"Feature","id":259369,"properties":{"cluster":true,"cluster_id":259369,"point_count":2,"point_count_abbreviated":2},"geometry":{"type":"Point","coordinates":[-117.830890417099,33.72624924163635]}},{"type":"Feature","geometry":{"type":"Point","coordinates":[-117.822183,33.724372]},"properties":{"listingKey":"20251010232027216034000000","listingId":"OC-25236391","listPrice":5000,"city":"Tustin","baths":2,"slug":"20251010232027216034000000","mlsSource":"CRMLS","propertyType":"B","propertySubType":"Single Family Residence","livingArea":1684,"associationFee":0,"unparsedAddress":"14712 EMERYWOOD Road, Tustin, CA 92780"}},{"type":"Feature","geometry":{"type":"Point","coordinates":[-117.83121,33.741139]},"properties":{"listingKey":"20250923145422614286000000","listingId":"PW-25219852","listPrice":559900,"city":"Tustin","baths":2,"slug":"20250923145422614286000000","mlsSource":"CRMLS","propertyType":"A","propertySubType":"Townhouse","livingArea":952,"associationFee":450,"unparsedAddress":"654 West Main Street, B, Tustin, CA 92780"}},{"type":"Feature","geometry":{"type":"Point","coordinates":[-117.831353,33.736283]},"properties":{"listingKey":"20251009181301818769000000","listingId":"SB-25236106","listPrice":3600,"city":"Tustin","baths":3.25,"slug":"20251009181301818769000000","mlsSource":"CRMLS","propertyType":"B","propertySubType":"Townhouse","livingArea":1300,"associationFee":0,"unparsedAddress":"15642 Pasadena, Tustin, CA 92780"}},{"type":"Feature","geometry":{"type":"Point","coordinates":[-117.818368,33.734333]},"properties":{"listingKey":"20251028033949663248000000","listingId":"PW-25248539","listPrice":1320000,"city":"Tustin","baths":3,"slug":"20251028033949663248000000","mlsSource":"CRMLS","propertyType":"A","propertySubType":"Single Family Residence","livingArea":1973,"associationFee":0,"unparsedAddress":"14032 Woodlawn, Tustin, CA 92780"}},{"type":"Feature","id":147144,"properties":{"cluster":true,"cluster_id":147144,"point_count":4,"point_count_abbreviated":4},"geometry":{"type":"Point","coordinates":[-117.82006233930588,33.73811400833253]}},{"type":"Feature","id":305097,"properties":{"cluster":true,"cluster_id":305097,"point_count":3,"point_count_abbreviated":3},"geometry":{"type":"Point","coordinates":[-117.822425365448,33.72984223004465]}},{"type":"Feature","id":172872,"properties":{"cluster":true,"cluster_id":172872,"point_count":5,"point_count_abbreviated":5},"geometry":{"type":"Point","coordinates":[-117.82325577735901,33.733325024722774]}},{"type":"Feature","geometry":{"type":"Point","coordinates":[-117.826567,33.734321]},"properties":{"listingKey":"20250909213622829981000000","listingId":"OC-25207068","listPrice":2300,"city":"Tustin","baths":1,"slug":"20250909213622829981000000","mlsSource":"CRMLS","propertyType":"B","propertySubType":"Apartment","livingArea":800,"associationFee":0,"unparsedAddress":"14225 Newport Avenue, B, Tustin, CA 92780"}},{"type":"Feature","geometry":{"type":"Point","coordinates":[-117.82299,33.7358]},"properties":{"listingKey":"20251112013904462405000000","listingId":"OC-25249946","listPrice":1650000,"city":"Tustin","baths":4,"slug":"20251112013904462405000000","mlsSource":"CRMLS","propertyType":"A","propertySubType":"Single Family Residence","livingArea":2300,"associationFee":0,"unparsedAddress":"1056 Walter Avenue, Tustin, CA 92780"}},{"type":"Feature","id":256009,"properties":{"cluster":true,"cluster_id":256009,"point_count":2,"point_count_abbreviated":2},"geometry":{"type":"Point","coordinates":[-117.83803582191467,33.73845081081187]}}]