[{"type":"Feature","id":192104,"properties":{"cluster":true,"cluster_id":192104,"point_count":4,"point_count_abbreviated":4},"geometry":{"type":"Point","coordinates":[-117.83747255802155,33.653753586718466]}},{"type":"Feature","id":242856,"properties":{"cluster":true,"cluster_id":242856,"point_count":2,"point_count_abbreviated":2},"geometry":{"type":"Point","coordinates":[-117.834492623806,33.659616392419835]}},{"type":"Feature","id":250952,"properties":{"cluster":true,"cluster_id":250952,"point_count":4,"point_count_abbreviated":4},"geometry":{"type":"Point","coordinates":[-117.8300093114376,33.658640774240936]}},{"type":"Feature","geometry":{"type":"Point","coordinates":[-117.829186,33.664677]},"properties":{"listingKey":"20250831190509706539000000","listingId":"OC-25195910","listPrice":1250000,"city":"Irvine","baths":2,"slug":"20250831190509706539000000","mlsSource":"CRMLS","propertyType":"A","propertySubType":"Townhouse","livingArea":1282,"associationFee":533,"unparsedAddress":"18 Navarre, 133, Irvine, CA 92612"}},{"type":"Feature","geometry":{"type":"Point","coordinates":[-117.818453,33.669335]},"properties":{"listingKey":"20250909035218676814000000","listingId":"PW-25200941","listPrice":3200,"city":"Irvine","baths":2,"slug":"20250909035218676814000000","mlsSource":"CRMLS","propertyType":"B","propertySubType":"Condominium","livingArea":917,"unparsedAddress":"119 Rockwood, 56, Irvine, CA 92614"}},{"type":"Feature","id":214120,"properties":{"cluster":true,"cluster_id":214120,"point_count":3,"point_count_abbreviated":3},"geometry":{"type":"Point","coordinates":[-117.82405614852905,33.6592963968297]}},{"type":"Feature","geometry":{"type":"Point","coordinates":[-117.818327,33.653329]},"properties":{"listingKey":"20251103002132810474000000","listingId":"PW-25252313","listPrice":1850000,"city":"Irvine","baths":3,"slug":"20251103002132810474000000","mlsSource":"CRMLS","propertyType":"A","propertySubType":"Condominium","livingArea":2091,"associationFee":585,"unparsedAddress":"1 Misty Meadow #30, Irvine, CA 92612"}},{"type":"Feature","id":223240,"properties":{"cluster":true,"cluster_id":223240,"point_count":2,"point_count_abbreviated":2},"geometry":{"type":"Point","coordinates":[-117.82009989023209,33.667121808105435]}},{"type":"Feature","id":906985,"properties":{"cluster":true,"cluster_id":906985,"point_count":2,"point_count_abbreviated":2},"geometry":{"type":"Point","coordinates":[-117.81883388757706,33.66535825054284]}},{"type":"Feature","geometry":{"type":"Point","coordinates":[-117.821914,33.665056]},"properties":{"listingKey":"20251010043000945194000000","listingId":"OC-25226875","listPrice":6200,"city":"Irvine","baths":3.5,"slug":"20251010043000945194000000","mlsSource":"CRMLS","propertyType":"B","propertySubType":"Single Family Residence","livingArea":2294,"unparsedAddress":"54 Gillman St, Irvine, CA 92612"}},{"type":"Feature","geometry":{"type":"Point","coordinates":[-117.824117,33.663507]},"properties":{"listingKey":"20250806231624287662000000","listingId":"OC-25177223","listPrice":6300,"city":"Irvine","baths":3.75,"slug":"20250806231624287662000000","mlsSource":"CRMLS","propertyType":"B","propertySubType":"Single Family Residence","livingArea":2594,"unparsedAddress":"15 Butler Street, Irvine, CA 92612"}},{"type":"Feature","geometry":{"type":"Point","coordinates":[-117.825984,33.665831]},"properties":{"listingKey":"20251102163750968622000000","listingId":"OC-25251843","listPrice":5900,"city":"Irvine","baths":3,"slug":"20251102163750968622000000","mlsSource":"CRMLS","propertyType":"B","propertySubType":"Single Family Residence","livingArea":2294,"unparsedAddress":"1 Hopkins Street, Irvine, CA 92612"}}]