[{"type":"Feature","geometry":{"type":"Point","coordinates":[-116.978239,33.734168]},"properties":{"listingKey":"20250828222443172549000000","listingId":"IV-25194342","listPrice":140000,"city":"Hemet","baths":2,"slug":"20250828222443172549000000","mlsSource":"CRMLS","propertyType":"A","propertySubType":"Manufactured On Land","livingArea":1040,"associationFee":175,"unparsedAddress":"838 San Francisco Drive, Hemet, CA 92543"}},{"type":"Feature","id":460873,"properties":{"cluster":true,"cluster_id":460873,"point_count":2,"point_count_abbreviated":2},"geometry":{"type":"Point","coordinates":[-116.97398900985718,33.736206922995876]}},{"type":"Feature","geometry":{"type":"Point","coordinates":[-116.97303,33.742505]},"properties":{"listingKey":"20251106024755855023000000","listingId":"PW-25254757","listPrice":455000,"city":"Hemet","baths":2,"slug":"20251106024755855023000000","mlsSource":"CRMLS","propertyType":"A","propertySubType":"Single Family Residence","livingArea":1527,"associationFee":0,"unparsedAddress":"355 South Inez, Hemet, CA 92543"}},{"type":"Feature","geometry":{"type":"Point","coordinates":[-116.973247,33.733688]},"properties":{"listingKey":"20251111000751603549000000","listingId":"SW-25257206","listPrice":310000,"city":"Hemet","baths":1.75,"slug":"20251111000751603549000000","mlsSource":"CRMLS","propertyType":"A","propertySubType":"Single Family Residence","livingArea":996,"associationFee":86,"unparsedAddress":"860 South Alessandro, Hemet, CA 92543"}},{"type":"Feature","geometry":{"type":"Point","coordinates":[-116.980815,33.734863]},"properties":{"listingKey":"20251112014838924419000000","listingId":"OC-25258597","listPrice":240000,"city":"Hemet","baths":2,"slug":"20251112014838924419000000","mlsSource":"CRMLS","propertyType":"A","propertySubType":"Manufactured On Land","livingArea":1360,"associationFee":168,"unparsedAddress":"890 Santa Clara Circle, Hemet, CA 92543"}}]