[{"type":"Feature","geometry":{"type":"Point","coordinates":[-122.239859,37.796237]},"properties":{"listingKey":"20250930210708235181000000","listingId":"01-41113160","listPrice":1400000,"city":"Oakland","baths":0,"slug":"20250930210708235181000000","mlsSource":"CRMLS","propertyType":"C","associationFee":0,"unparsedAddress":"2244 12th Ave, Oakland, CA 94606"}},{"type":"Feature","geometry":{"type":"Point","coordinates":[-122.244655,37.78835]},"properties":{"listingKey":"20250830234123223130000000","listingId":"01-41109856","listPrice":859000,"city":"Oakland","baths":3,"slug":"20250830234123223130000000","mlsSource":"CRMLS","propertyType":"A","propertySubType":"Single Family Residence","livingArea":1931,"unparsedAddress":"1539 International Blvd, Oakland, CA 94606"}},{"type":"Feature","geometry":{"type":"Point","coordinates":[-122.242083,37.791555]},"properties":{"listingKey":"20251017204007373358000000","listingId":"01-41115108","listPrice":450000,"city":"Oakland","baths":1,"slug":"20251017204007373358000000","mlsSource":"CRMLS","propertyType":"A","propertySubType":"Single Family Residence","livingArea":560,"unparsedAddress":"1519 Commerce Way, Oakland, CA 94606"}},{"type":"Feature","geometry":{"type":"Point","coordinates":[-122.236954,37.792909]},"properties":{"listingKey":"20250905072150726901000000","listingId":"01-41110500","listPrice":799000,"city":"Oakland","baths":2,"slug":"20250905072150726901000000","mlsSource":"CRMLS","propertyType":"A","propertySubType":"Single Family Residence","livingArea":2128,"unparsedAddress":"1739 East 22Nd St, Oakland, CA 94606"}},{"type":"Feature","geometry":{"type":"Point","coordinates":[-122.235776,37.789468]},"properties":{"listingKey":"20250928064659014745000000","listingId":"01-41112886","listPrice":2500,"city":"Oakland","baths":1,"slug":"20250928064659014745000000","mlsSource":"CRMLS","propertyType":"B","livingArea":725,"unparsedAddress":"2025 East 20th St, Oakland, CA 94606"}},{"type":"Feature","geometry":{"type":"Point","coordinates":[-122.235292,37.791992]},"properties":{"listingKey":"20251004073215240703000000","listingId":"01-41113788","listPrice":1240000,"city":"Oakland","baths":0,"slug":"20251004073215240703000000","mlsSource":"CRMLS","propertyType":"C","associationFee":0,"unparsedAddress":"2138 19Th Ave, Oakland, CA 94606"}}]