[{"type":"Feature","geometry":{"type":"Point","coordinates":[-117.759679,34.068901]},"properties":{"listingKey":"20251120143235011247000000","listingId":"IV-25261503","listPrice":574900,"city":"Pomona","baths":1,"slug":"20251120143235011247000000","mlsSource":"CRMLS","propertyType":"A","propertySubType":"Single Family Residence","livingArea":929,"associationFee":0,"unparsedAddress":"1163 North White Avenue, Pomona, CA 91768"}},{"type":"Feature","geometry":{"type":"Point","coordinates":[-117.758595,34.060988]},"properties":{"listingKey":"20250629112310421781000000","listingId":"IG-25140148","listPrice":950000,"city":"Pomona","baths":3,"slug":"20250629112310421781000000","mlsSource":"CRMLS","propertyType":"A","propertySubType":"Triplex","livingArea":1688,"associationFee":0,"unparsedAddress":"586 West Center Street, Pomona, CA 91768"}},{"type":"Feature","geometry":{"type":"Point","coordinates":[-117.757948,34.066314]},"properties":{"listingKey":"20251029171011557515000000","listingId":"TR-25249508","listPrice":725000,"city":"Pomona","baths":2,"slug":"20251029171011557515000000","mlsSource":"CRMLS","propertyType":"A","propertySubType":"Single Family Residence","livingArea":1512,"associationFee":0,"unparsedAddress":"457 Chester Place, Pomona, CA 91768"}},{"type":"Feature","id":410696,"properties":{"cluster":true,"cluster_id":410696,"point_count":2,"point_count_abbreviated":2},"geometry":{"type":"Point","coordinates":[-117.7574971318245,34.06920040455351]}},{"type":"Feature","geometry":{"type":"Point","coordinates":[-117.75405,34.068431]},"properties":{"listingKey":"20251015040616171040000000","listingId":"CV-25239090","listPrice":575000,"city":"Pomona","baths":1,"slug":"20251015040616171040000000","mlsSource":"CRMLS","propertyType":"A","propertySubType":"Single Family Residence","livingArea":1164,"associationFee":0,"unparsedAddress":"1063 North Gordon, Pomona, CA 91768"}},{"type":"Feature","geometry":{"type":"Point","coordinates":[-117.768137,34.068072]},"properties":{"listingKey":"20251030091345910711000000","listingId":"PW-25250322","listPrice":645000,"city":"Pomona","baths":1,"slug":"20251030091345910711000000","mlsSource":"CRMLS","propertyType":"A","propertySubType":"Single Family Residence","livingArea":1128,"associationFee":0,"unparsedAddress":"989 Ashport Street, Pomona, CA 91768"}},{"type":"Feature","geometry":{"type":"Point","coordinates":[-117.772716,34.067535]},"properties":{"listingKey":"20250814081221431749000000","listingId":"CV-25183012","listPrice":885000,"city":"Pomona","baths":3,"slug":"20250814081221431749000000","mlsSource":"CRMLS","propertyType":"A","propertySubType":"Single Family Residence","livingArea":2134,"associationFee":292.84,"unparsedAddress":"1240 Prabhu Way, Pomona, CA 91768"}},{"type":"Feature","id":218056,"properties":{"cluster":true,"cluster_id":218056,"point_count":3,"point_count_abbreviated":3},"geometry":{"type":"Point","coordinates":[-117.76907444000243,34.06416408665453]}},{"type":"Feature","id":532328,"properties":{"cluster":true,"cluster_id":532328,"point_count":2,"point_count_abbreviated":2},"geometry":{"type":"Point","coordinates":[-117.76733547449112,34.054637220926395]}}]