[{"type":"Feature","id":306921,"properties":{"cluster":true,"cluster_id":306921,"point_count":2,"point_count_abbreviated":2},"geometry":{"type":"Point","coordinates":[-117.76628941297531,33.83699898078858]}},{"type":"Feature","geometry":{"type":"Point","coordinates":[-117.762097,33.834374]},"properties":{"listingKey":"20251015010558545964000000","listingId":"OC-25239776","listPrice":4300,"city":"Anaheim Hills","baths":3.5,"slug":"20251015010558545964000000","mlsSource":"CRMLS","propertyType":"B","propertySubType":"Townhouse","livingArea":2312,"unparsedAddress":"6519 East Paseo Diego, Anaheim Hills, CA 92807"}},{"type":"Feature","geometry":{"type":"Point","coordinates":[-117.761805,33.839812]},"properties":{"listingKey":"20251029050503988395000000","listingId":"PW-25249401","listPrice":950000,"city":"Anaheim","baths":2.5,"slug":"20251029050503988395000000","mlsSource":"CRMLS","propertyType":"A","propertySubType":"Townhouse","livingArea":1769,"associationFee":550,"unparsedAddress":"6525 East Camino Vista, Anaheim, CA 92807"}},{"type":"Feature","geometry":{"type":"Point","coordinates":[-117.761445,33.8484]},"properties":{"listingKey":"20251030175358415714000000","listingId":"PW-25248739","listPrice":1400000,"city":"Anaheim Hills","baths":2.5,"slug":"20251030175358415714000000","mlsSource":"CRMLS","propertyType":"A","propertySubType":"Single Family Residence","livingArea":2536,"associationFee":200,"unparsedAddress":"6633 East Paseo Del Norte, Anaheim Hills, CA 92807"}},{"type":"Feature","geometry":{"type":"Point","coordinates":[-117.759728,33.837983]},"properties":{"listingKey":"20250924202832317783000000","listingId":"OC-25224463","listPrice":998000,"city":"Anaheim Hills","baths":2.5,"slug":"20250924202832317783000000","mlsSource":"CRMLS","propertyType":"A","propertySubType":"Single Family Residence","livingArea":2136,"associationFee":459,"unparsedAddress":"6511 E Circulo Dali, Anaheim Hills, CA 92807"}},{"type":"Feature","geometry":{"type":"Point","coordinates":[-117.755755,33.842059]},"properties":{"listingKey":"20251108230806623070000000","listingId":"PW-25252738","listPrice":5900,"city":"Anaheim Hills","baths":2.5,"slug":"20251108230806623070000000","mlsSource":"CRMLS","propertyType":"B","propertySubType":"Single Family Residence","livingArea":2847,"unparsedAddress":"795 South Quail, Anaheim Hills, CA 92807"}},{"type":"Feature","geometry":{"type":"Point","coordinates":[-117.768007,33.850769]},"properties":{"listingKey":"20251114065924001529000000","listingId":"PW-25245953","listPrice":2299999,"city":"Anaheim Hills","baths":4,"slug":"20251114065924001529000000","mlsSource":"CRMLS","propertyType":"A","propertySubType":"Single Family Residence","livingArea":4232,"associationFee":211,"unparsedAddress":"6641 East Canyon Hills, Anaheim Hills, CA 92807"}}]