[{"type":"Feature","geometry":{"type":"Point","coordinates":[-117.043765,33.995194]},"properties":{"listingKey":"20251106000615083874000000","listingId":"IG-25254183","listPrice":392000,"city":"Calimesa","baths":2,"slug":"20251106000615083874000000","mlsSource":"CRMLS","propertyType":"A","propertySubType":"Townhouse","livingArea":1250,"associationFee":0,"unparsedAddress":"217 Summit View, Calimesa, CA 92320"}},{"type":"Feature","geometry":{"type":"Point","coordinates":[-117.040774,33.996855]},"properties":{"listingKey":"20251001211615089872000000","listingId":"IG-25229715","listPrice":599555,"city":"Calimesa","baths":2,"slug":"20251001211615089872000000","mlsSource":"CRMLS","propertyType":"A","propertySubType":"Single Family Residence","livingArea":1700,"associationFee":0,"unparsedAddress":"147 Myrtlewood, Calimesa, CA 92320"}},{"type":"Feature","geometry":{"type":"Point","coordinates":[-117.042089,33.99681]},"properties":{"listingKey":"20251119222036512957000000","listingId":"CV-25263235","listPrice":499999,"city":"Calimesa","baths":3,"slug":"20251119222036512957000000","mlsSource":"CRMLS","propertyType":"A","propertySubType":"Single Family Residence","livingArea":2500,"associationFee":0,"unparsedAddress":"177 Myrtlewood Dr, Calimesa, CA 92320"}},{"type":"Feature","id":389481,"properties":{"cluster":true,"cluster_id":389481,"point_count":2,"point_count_abbreviated":2},"geometry":{"type":"Point","coordinates":[-117.04216808080673,33.9946160324007]}},{"type":"Feature","geometry":{"type":"Point","coordinates":[-117.045995,33.994307]},"properties":{"listingKey":"20251111005052330168000000","listingId":"IG-25255399","listPrice":3295,"city":"Calimesa","baths":2,"slug":"20251111005052330168000000","mlsSource":"CRMLS","propertyType":"B","propertySubType":"Single Family Residence","livingArea":2362,"associationFee":0,"unparsedAddress":"1235 Ruby Court, Calimesa, CA 92320"}},{"type":"Feature","geometry":{"type":"Point","coordinates":[-117.045336,33.995891]},"properties":{"listingKey":"20251107221136279246000000","listingId":"IG-25253053","listPrice":499000,"city":"Calimesa","baths":2,"slug":"20251107221136279246000000","mlsSource":"CRMLS","propertyType":"A","propertySubType":"Single Family Residence","livingArea":1406,"associationFee":0,"unparsedAddress":"249 Harruby, Calimesa, CA 92320"}}]