[{"type":"Feature","id":889705,"properties":{"cluster":true,"cluster_id":889705,"point_count":2,"point_count_abbreviated":2},"geometry":{"type":"Point","coordinates":[-117.603240609169,33.40869594917501]}},{"type":"Feature","geometry":{"type":"Point","coordinates":[-117.599026,33.409447]},"properties":{"listingKey":"20251004184130595065000000","listingId":"OC-25231725","listPrice":879000,"city":"San Clemente","baths":1.5,"slug":"20251004184130595065000000","mlsSource":"CRMLS","propertyType":"A","propertySubType":"Condominium","livingArea":1326,"associationFee":600,"unparsedAddress":"2501 South El Camino Real, 309, San Clemente, CA 92672"}},{"type":"Feature","id":178793,"properties":{"cluster":true,"cluster_id":178793,"point_count":3,"point_count_abbreviated":3},"geometry":{"type":"Point","coordinates":[-117.59844839572905,33.408295911381444]}},{"type":"Feature","geometry":{"type":"Point","coordinates":[-117.608048,33.410926]},"properties":{"listingKey":"20250812070934892474000000","listingId":"SW-25161822","listPrice":5999000,"city":"San Clemente","baths":5.5,"slug":"20250812070934892474000000","mlsSource":"CRMLS","propertyType":"A","propertySubType":"Single Family Residence","livingArea":8254,"associationFee":0,"unparsedAddress":"237 West Avenida Alessandro, San Clemente, CA 92672"}},{"type":"Feature","geometry":{"type":"Point","coordinates":[-117.607999,33.407604]},"properties":{"listingKey":"20251118203418143066000000","listingId":"8N-2510920","listPrice":1950000,"city":"San Clemente","baths":2.25,"slug":"20251118203418143066000000","mlsSource":"CRMLS","propertyType":"A","propertySubType":"Condominium","livingArea":1648,"associationFee":1000,"unparsedAddress":"268 Avenida Montalvo, 2, San Clemente, CA 92672"}},{"type":"Feature","id":186345,"properties":{"cluster":true,"cluster_id":186345,"point_count":4,"point_count_abbreviated":4},"geometry":{"type":"Point","coordinates":[-117.60488212108612,33.40669872720308]}},{"type":"Feature","geometry":{"type":"Point","coordinates":[-117.604178,33.411938]},"properties":{"listingKey":"20251107221140398762000000","listingId":"OC-25255877","listPrice":3500000,"city":"San Clemente","baths":3,"slug":"20251107221140398762000000","mlsSource":"CRMLS","propertyType":"A","propertySubType":"Single Family Residence","livingArea":3700,"associationFee":0,"unparsedAddress":"173 West Avenida Junipero, San Clemente, CA 92672"}}]