[{"type":"Feature","geometry":{"type":"Point","coordinates":[-117.043972,33.09962]},"properties":{"listingKey":"20251024235904822380000000","listingId":"8N-2510267","listPrice":2149000,"city":"Escondido","baths":3.5,"slug":"20251024235904822380000000","mlsSource":"CRMLS","propertyType":"A","propertySubType":"Single Family Residence","livingArea":4467,"associationFee":0,"unparsedAddress":"2270 Summit Drive, Escondido, CA 92025"}},{"type":"Feature","id":972585,"properties":{"cluster":true,"cluster_id":972585,"point_count":2,"point_count_abbreviated":2},"geometry":{"type":"Point","coordinates":[-117.05602169036865,33.09966687806093]}},{"type":"Feature","id":201351,"properties":{"cluster":true,"cluster_id":201351,"point_count":3,"point_count_abbreviated":3},"geometry":{"type":"Point","coordinates":[-117.03683495521547,33.08331059136869]}},{"type":"Feature","id":717385,"properties":{"cluster":true,"cluster_id":717385,"point_count":3,"point_count_abbreviated":3},"geometry":{"type":"Point","coordinates":[-117.06537187099457,33.08822468839995]}},{"type":"Feature","geometry":{"type":"Point","coordinates":[-117.064351,33.099508]},"properties":{"listingKey":"20251009205239454814000000","listingId":"8N-2509794","listPrice":1450000,"city":"Escondido","baths":4,"slug":"20251009205239454814000000","mlsSource":"CRMLS","propertyType":"A","propertySubType":"Single Family Residence","livingArea":4084,"associationFee":0,"unparsedAddress":"303 Amparo Drive, Escondido, CA 92025"}},{"type":"Feature","geometry":{"type":"Point","coordinates":[-117.049986,33.090285]},"properties":{"listingKey":"20251105015522296053000000","listingId":"SW-25253902","listPrice":871790,"city":"Escondido","baths":3.5,"slug":"20251105015522296053000000","mlsSource":"CRMLS","propertyType":"A","propertySubType":"Condominium","livingArea":1521,"associationFee":380,"unparsedAddress":"2343 Red Coral Glen, Escondido, CA 92025"}},{"type":"Feature","geometry":{"type":"Point","coordinates":[-117.054642,33.065016]},"properties":{"listingKey":"20251024235835100045000000","listingId":"WS-25241279","listPrice":1399000,"city":"Escondido","baths":3.5,"slug":"20251024235835100045000000","mlsSource":"CRMLS","propertyType":"A","propertySubType":"Single Family Residence","livingArea":2667,"associationFee":174,"unparsedAddress":"728 Inspiration, Escondido, CA 92025"}},{"type":"Feature","geometry":{"type":"Point","coordinates":[-117.047031,33.075221]},"properties":{"listingKey":"20250927042306653801000000","listingId":"ND-25226136","listPrice":1497000,"city":"Escondido","baths":3,"slug":"20250927042306653801000000","mlsSource":"CRMLS","propertyType":"A","propertySubType":"Single Family Residence","livingArea":3503,"associationFee":0,"unparsedAddress":"3523 Ryan Drive, Escondido, CA 92025"}}]