[{"type":"Feature","geometry":{"type":"Point","coordinates":[-117.035574,32.717419]},"properties":{"listingKey":"20251112060738837782000000","listingId":"8N-2510753","listPrice":799999,"city":"San Diego","baths":2,"slug":"20251112060738837782000000","mlsSource":"CRMLS","propertyType":"A","propertySubType":"Single Family Residence","livingArea":1730,"associationFee":0,"unparsedAddress":"1015 Harlan Circle, San Diego, CA 92114"}},{"type":"Feature","geometry":{"type":"Point","coordinates":[-117.029741,32.704331]},"properties":{"listingKey":"20251107205103910376000000","listingId":"8P-2508419","listPrice":749999,"city":"San Diego","baths":2,"slug":"20251107205103910376000000","mlsSource":"CRMLS","propertyType":"A","propertySubType":"Single Family Residence","livingArea":1156,"associationFee":0,"unparsedAddress":"8017 Gribble Street, San Diego, CA 92114"}},{"type":"Feature","geometry":{"type":"Point","coordinates":[-117.027263,32.731268]},"properties":{"listingKey":"20250914042617566739000000","listingId":"8P-2507026","listPrice":865000,"city":"Lemon Grove","baths":2.5,"slug":"20250914042617566739000000","mlsSource":"CRMLS","propertyType":"A","propertySubType":"Single Family Residence","livingArea":1461,"associationFee":42,"unparsedAddress":"2369 Ravenwood Dr, Lemon Grove, CA 91945"}},{"type":"Feature","geometry":{"type":"Point","coordinates":[-117.033473,32.699224]},"properties":{"listingKey":"20250915004546763843000000","listingId":"8P-2507038","listPrice":800000,"city":"San Diego","baths":2.75,"slug":"20250915004546763843000000","mlsSource":"CRMLS","propertyType":"A","propertySubType":"Single Family Residence","livingArea":1782,"associationFee":0,"unparsedAddress":"177 Coralwood Drive, San Diego, CA 92114"}},{"type":"Feature","id":589832,"properties":{"cluster":true,"cluster_id":589832,"point_count":2,"point_count_abbreviated":2},"geometry":{"type":"Point","coordinates":[-117.06545233726501,32.69826079872544]}},{"type":"Feature","geometry":{"type":"Point","coordinates":[-117.040651,32.728316]},"properties":{"listingKey":"20251107230904574155000000","listingId":"8P-2508430","listPrice":3995,"city":"Lemon Grove","baths":2,"slug":"20251107230904574155000000","mlsSource":"CRMLS","propertyType":"B","propertySubType":"Single Family Residence","livingArea":1140,"associationFee":0,"unparsedAddress":"2125 Berryland Court, Lemon Grove, CA 91945"}},{"type":"Feature","geometry":{"type":"Point","coordinates":[-117.05864,32.711177]},"properties":{"listingKey":"20251021205117151313000000","listingId":"8N-2510109","listPrice":2500000,"city":"San Diego","baths":0,"slug":"20251021205117151313000000","mlsSource":"CRMLS","propertyType":"C","propertySubType":"Condominium","livingArea":5180,"associationFee":330,"unparsedAddress":"540 65th, San Diego, CA 92114"}},{"type":"Feature","id":502183,"properties":{"cluster":true,"cluster_id":502183,"point_count":2,"point_count_abbreviated":2},"geometry":{"type":"Point","coordinates":[-117.05560058355331,32.70185411203737]}},{"type":"Feature","id":463239,"properties":{"cluster":true,"cluster_id":463239,"point_count":2,"point_count_abbreviated":2},"geometry":{"type":"Point","coordinates":[-117.04608410596848,32.70644936973599]}}]