[{"type":"Feature","geometry":{"type":"Point","coordinates":[-117.683107,33.520203]},"properties":{"listingKey":"20251031215813007637000000","listingId":"OC-25250814","listPrice":1895000,"city":"Laguna Niguel","baths":2.5,"slug":"20251031215813007637000000","mlsSource":"CRMLS","propertyType":"A","propertySubType":"Single Family Residence","livingArea":2147,"associationFee":117,"unparsedAddress":"10 Serenity, Laguna Niguel, CA 92677"}},{"type":"Feature","id":161224,"properties":{"cluster":true,"cluster_id":161224,"point_count":7,"point_count_abbreviated":7},"geometry":{"type":"Point","coordinates":[-117.68383639199392,33.52729144254687]}},{"type":"Feature","id":679623,"properties":{"cluster":true,"cluster_id":679623,"point_count":2,"point_count_abbreviated":2},"geometry":{"type":"Point","coordinates":[-117.65463173389435,33.520198716217706]}},{"type":"Feature","geometry":{"type":"Point","coordinates":[-117.661317,33.525275]},"properties":{"listingKey":"20251007012440776675000000","listingId":"OC-25233628","listPrice":420000,"city":"San Juan Capistrano","baths":1.25,"slug":"20251007012440776675000000","mlsSource":"CRMLS","propertyType":"A","propertySubType":"Cabin","livingArea":1100,"associationFee":0,"unparsedAddress":"0 Hot Springs Canyon Road, 26, San Juan Capistrano, CA 92675"}},{"type":"Feature","geometry":{"type":"Point","coordinates":[-117.646417,33.522007]},"properties":{"listingKey":"20250928064927168990000000","listingId":"OC-25226593","listPrice":20000,"city":"San Juan Capistrano","baths":4,"slug":"20250928064927168990000000","mlsSource":"CRMLS","propertyType":"B","propertySubType":"Single Family Residence","livingArea":5339,"unparsedAddress":"27748 Somerset Lane, San Juan Capistrano, CA 92675"}},{"type":"Feature","id":154343,"properties":{"cluster":true,"cluster_id":154343,"point_count":5,"point_count_abbreviated":5},"geometry":{"type":"Point","coordinates":[-117.68317580223083,33.51474237709327]}},{"type":"Feature","id":687911,"properties":{"cluster":true,"cluster_id":687911,"point_count":2,"point_count_abbreviated":2},"geometry":{"type":"Point","coordinates":[-117.65626788139343,33.50819431588374]}},{"type":"Feature","id":102919,"properties":{"cluster":true,"cluster_id":102919,"point_count":2,"point_count_abbreviated":2},"geometry":{"type":"Point","coordinates":[-117.64923244714737,33.50655722315582]}},{"type":"Feature","id":202375,"properties":{"cluster":true,"cluster_id":202375,"point_count":3,"point_count_abbreviated":3},"geometry":{"type":"Point","coordinates":[-117.66137838363646,33.51340954687856]}},{"type":"Feature","geometry":{"type":"Point","coordinates":[-117.666867,33.508774]},"properties":{"listingKey":"20251114043828273511000000","listingId":"OC-25260366","listPrice":525000,"city":"San Juan Capistrano","baths":1,"slug":"20251114043828273511000000","mlsSource":"CRMLS","propertyType":"A","propertySubType":"Condominium","livingArea":806,"associationFee":410,"unparsedAddress":"31282 Calle San Juan, San Juan Capistrano, CA 92675"}},{"type":"Feature","geometry":{"type":"Point","coordinates":[-117.684357,33.537548]},"properties":{"listingKey":"20251015150510689340000000","listingId":"NP-25239995","listPrice":1195000,"city":"Laguna Niguel","baths":2.5,"slug":"20251015150510689340000000","mlsSource":"CRMLS","propertyType":"A","propertySubType":"Condominium","livingArea":1950,"associationFee":660,"unparsedAddress":"29282 Rue Cerise, 7, Laguna Niguel, CA 92677"}},{"type":"Feature","id":660424,"properties":{"cluster":true,"cluster_id":660424,"point_count":2,"point_count_abbreviated":2},"geometry":{"type":"Point","coordinates":[-117.64542907476425,33.53909645609342]}},{"type":"Feature","geometry":{"type":"Point","coordinates":[-117.668166,33.537352]},"properties":{"listingKey":"20250807163531512057000000","listingId":"8P-2505985","listPrice":1099999,"city":"San Juan Capistrano","baths":2,"slug":"20250807163531512057000000","mlsSource":"CRMLS","propertyType":"A","propertySubType":"Single Family Residence","livingArea":1503,"associationFee":140,"unparsedAddress":"29302 Edgewood Road, San Juan Capistrano, CA 92675"}}]