[{"type":"Feature","id":367784,"properties":{"cluster":true,"cluster_id":367784,"point_count":3,"point_count_abbreviated":3},"geometry":{"type":"Point","coordinates":[-117.23590135574341,34.2386190619265]}},{"type":"Feature","geometry":{"type":"Point","coordinates":[-117.227077,34.237984]},"properties":{"listingKey":"20250715035020973745000000","listingId":"IG-25158187","listPrice":1975,"city":"Twin Peaks","baths":2,"slug":"20250715035020973745000000","mlsSource":"CRMLS","propertyType":"B","propertySubType":"Single Family Residence","livingArea":1323,"associationFee":0,"unparsedAddress":"26415 Fernrock Road, Twin Peaks, CA 92391"}},{"type":"Feature","geometry":{"type":"Point","coordinates":[-117.245022,34.237792]},"properties":{"listingKey":"20250715033735766250000000","listingId":"PW-25158189","listPrice":359000,"city":"Twin Peaks","baths":1,"slug":"20250715033735766250000000","mlsSource":"CRMLS","propertyType":"A","propertySubType":"Single Family Residence","livingArea":808,"associationFee":0,"unparsedAddress":"25576 Hi Lane, Twin Peaks, CA 92391"}},{"type":"Feature","geometry":{"type":"Point","coordinates":[-117.242051,34.235846]},"properties":{"listingKey":"20250822064740930934000000","listingId":"PV-25188874","listPrice":349000,"city":"Twin Peaks","baths":1.5,"slug":"20250822064740930934000000","mlsSource":"CRMLS","propertyType":"A","propertySubType":"Single Family Residence","livingArea":1529,"associationFee":0,"unparsedAddress":"968 Ca-189, Twin Peaks, CA 92391"}},{"type":"Feature","id":163081,"properties":{"cluster":true,"cluster_id":163081,"point_count":3,"point_count_abbreviated":3},"geometry":{"type":"Point","coordinates":[-117.24378526210783,34.23989922320783]}},{"type":"Feature","geometry":{"type":"Point","coordinates":[-117.239482,34.234647]},"properties":{"listingKey":"20250628095656346283000000","listingId":"IG-25144788","listPrice":395000,"city":"Twin Peaks","baths":1.5,"slug":"20250628095656346283000000","mlsSource":"CRMLS","propertyType":"A","propertySubType":"Single Family Residence","livingArea":1318,"associationFee":0,"unparsedAddress":"1040 Mile High Road, Twin Peaks, CA 92391"}},{"type":"Feature","id":176297,"properties":{"cluster":true,"cluster_id":176297,"point_count":3,"point_count_abbreviated":3},"geometry":{"type":"Point","coordinates":[-117.23694562911986,34.24506993057682]}},{"type":"Feature","geometry":{"type":"Point","coordinates":[-117.235211,34.24722]},"properties":{"listingKey":"20250902204554469119000000","listingId":"P1-23946","listPrice":474999,"city":"Twin Peaks","baths":2,"slug":"20250902204554469119000000","mlsSource":"CRMLS","propertyType":"A","propertySubType":"Single Family Residence","livingArea":1320,"unparsedAddress":"352 Cedarbrook Drive, Twin Peaks, CA 92391"}},{"type":"Feature","id":322152,"properties":{"cluster":true,"cluster_id":322152,"point_count":3,"point_count_abbreviated":3},"geometry":{"type":"Point","coordinates":[-117.2299826145172,34.24211950296261]}},{"type":"Feature","id":325416,"properties":{"cluster":true,"cluster_id":325416,"point_count":4,"point_count_abbreviated":4},"geometry":{"type":"Point","coordinates":[-117.23355576395988,34.24218232627146]}},{"type":"Feature","id":406025,"properties":{"cluster":true,"cluster_id":406025,"point_count":2,"point_count_abbreviated":2},"geometry":{"type":"Point","coordinates":[-117.23027408123016,34.24402044162329]}},{"type":"Feature","geometry":{"type":"Point","coordinates":[-117.23387,34.245019]},"properties":{"listingKey":"20250809153654891485000000","listingId":"IG-25179251","listPrice":499000,"city":"Lake Arrowhead","baths":1,"slug":"20250809153654891485000000","mlsSource":"CRMLS","propertyType":"A","propertySubType":"Single Family Residence","livingArea":1291,"associationFee":0,"unparsedAddress":"446 Cedarbrook Drive, Lake Arrowhead, CA 92391"}},{"type":"Feature","geometry":{"type":"Point","coordinates":[-117.231287,34.247708]},"properties":{"listingKey":"20250907040020533003000000","listingId":"IV-25199718","listPrice":624000,"city":"Lake Arrowhead","baths":3.5,"slug":"20250907040020533003000000","mlsSource":"CRMLS","propertyType":"A","propertySubType":"Single Family Residence","livingArea":2352,"associationFee":0,"unparsedAddress":"305 Auburn Drive, Lake Arrowhead, CA 92352"}},{"type":"Feature","geometry":{"type":"Point","coordinates":[-117.229415,34.25022]},"properties":{"listingKey":"20251021222647768593000000","listingId":"IG-25242798","listPrice":645000,"city":"Lake Arrowhead","baths":3,"slug":"20251021222647768593000000","mlsSource":"CRMLS","propertyType":"A","propertySubType":"Single Family Residence","livingArea":1901,"associationFee":0,"unparsedAddress":"26333 Walnut Hills Dr, Lake Arrowhead, CA 92352"}},{"type":"Feature","geometry":{"type":"Point","coordinates":[-117.226768,34.242127]},"properties":{"listingKey":"20250725082617989528000000","listingId":"IG-25166618","listPrice":399000,"city":"Twin Peaks","baths":2.5,"slug":"20250725082617989528000000","mlsSource":"CRMLS","propertyType":"A","propertySubType":"Single Family Residence","livingArea":1489,"associationFee":0,"unparsedAddress":"26432 Lake Forest Drive, Twin Peaks, CA 92391"}},{"type":"Feature","geometry":{"type":"Point","coordinates":[-117.22475,34.251328]},"properties":{"listingKey":"20250921051543776944000000","listingId":"IG-25222084","listPrice":769000,"city":"Lake Arrowhead","baths":2.5,"slug":"20250921051543776944000000","mlsSource":"CRMLS","propertyType":"A","propertySubType":"Single Family Residence","livingArea":2598,"associationFee":0,"unparsedAddress":"116 Fairway Drive, Lake Arrowhead, CA 92352"}},{"type":"Feature","id":390440,"properties":{"cluster":true,"cluster_id":390440,"point_count":4,"point_count_abbreviated":4},"geometry":{"type":"Point","coordinates":[-117.22621455788612,34.247133394640414]}}]