[{"type":"Feature","geometry":{"type":"Point","coordinates":[-117.232495,33.656478]},"properties":{"listingKey":"20250831061929183437000000","listingId":"IG-25195501","listPrice":579999,"city":"Lake Elsinore","baths":2,"slug":"20250831061929183437000000","mlsSource":"CRMLS","propertyType":"A","propertySubType":"Single Family Residence","livingArea":1760,"associationFee":134,"unparsedAddress":"34147 Dianthus Lane, Lake Elsinore, CA 92532"}},{"type":"Feature","geometry":{"type":"Point","coordinates":[-117.245844,33.663598]},"properties":{"listingKey":"20250924203048508026000000","listingId":"IV-25224504","listPrice":565000,"city":"Lake Elsinore","baths":3,"slug":"20250924203048508026000000","mlsSource":"CRMLS","propertyType":"A","propertySubType":"Single Family Residence","livingArea":1767,"associationFee":210,"unparsedAddress":"34234 Parkside Drive, Lake Elsinore, CA 92532"}},{"type":"Feature","geometry":{"type":"Point","coordinates":[-117.243822,33.661837]},"properties":{"listingKey":"20251029233435949989000000","listingId":"PW-25249629","listPrice":519500,"city":"Lake Elsinore","baths":2.5,"slug":"20251029233435949989000000","mlsSource":"CRMLS","propertyType":"A","propertySubType":"Condominium","livingArea":1767,"associationFee":209,"unparsedAddress":"34169 Carissa Drive, Lake Elsinore, CA 92532"}},{"type":"Feature","id":235144,"properties":{"cluster":true,"cluster_id":235144,"point_count":3,"point_count_abbreviated":3},"geometry":{"type":"Point","coordinates":[-117.23128616809844,33.666014566062216]}},{"type":"Feature","id":468936,"properties":{"cluster":true,"cluster_id":468936,"point_count":4,"point_count_abbreviated":4},"geometry":{"type":"Point","coordinates":[-117.23640829324722,33.66491847169577]}},{"type":"Feature","geometry":{"type":"Point","coordinates":[-117.234325,33.662194]},"properties":{"listingKey":"20251107160836567401000000","listingId":"OC-25255278","listPrice":3350,"city":"Lake Elsinore","baths":3,"slug":"20251107160836567401000000","mlsSource":"CRMLS","propertyType":"B","propertySubType":"Single Family Residence","livingArea":1963,"unparsedAddress":"35215 Caraway Court, Lake Elsinore, CA 92532"}},{"type":"Feature","geometry":{"type":"Point","coordinates":[-117.240807,33.666693]},"properties":{"listingKey":"20251113185039918069000000","listingId":"IG-25259679","listPrice":3600,"city":"Lake Elsinore","baths":2.5,"slug":"20251113185039918069000000","mlsSource":"CRMLS","propertyType":"B","propertySubType":"Single Family Residence","livingArea":2420,"associationFee":145,"unparsedAddress":"34302 Blossoms, Lake Elsinore, CA 92532"}},{"type":"Feature","geometry":{"type":"Point","coordinates":[-117.239745,33.659959]},"properties":{"listingKey":"20250923095213637166000000","listingId":"CV-25198982","listPrice":3500,"city":"Lake Elsinore","baths":2.75,"slug":"20250923095213637166000000","mlsSource":"CRMLS","propertyType":"B","propertySubType":"Single Family Residence","livingArea":2707,"unparsedAddress":"34161 Camelina Street, Lake Elsinore, CA 92532"}},{"type":"Feature","id":577321,"properties":{"cluster":true,"cluster_id":577321,"point_count":2,"point_count_abbreviated":2},"geometry":{"type":"Point","coordinates":[-117.23996222019196,33.66453226811302]}},{"type":"Feature","geometry":{"type":"Point","coordinates":[-117.224306,33.664086]},"properties":{"listingKey":"20250916075428610570000000","listingId":"SW-25215081","listPrice":710000,"city":"Lake Elsinore","baths":3,"slug":"20250916075428610570000000","mlsSource":"CRMLS","propertyType":"A","propertySubType":"Single Family Residence","livingArea":2795,"associationFee":170,"unparsedAddress":"36312 Shedera Court, Lake Elsinore, CA 92532"}}]