[{"type":"Feature","geometry":{"type":"Point","coordinates":[-117.242554,32.951873]},"properties":{"listingKey":"20250821134216177126000000","listingId":"OC-25188467","listPrice":789000,"city":"San Diego","baths":2,"slug":"20250821134216177126000000","mlsSource":"CRMLS","propertyType":"A","propertySubType":"Condominium","livingArea":1097,"associationFee":534,"unparsedAddress":"3539 Voyager Circle, San Diego, CA 92130"}},{"type":"Feature","geometry":{"type":"Point","coordinates":[-117.231059,32.944139]},"properties":{"listingKey":"20251118173815372567000000","listingId":"8P-2508618","listPrice":600000,"city":"San Diego","baths":1,"slug":"20251118173815372567000000","mlsSource":"CRMLS","propertyType":"A","propertySubType":"Condominium","livingArea":638,"associationFee":330,"unparsedAddress":"12510 Carmel Creek Road, 188, San Diego, CA 92130"}},{"type":"Feature","id":181832,"properties":{"cluster":true,"cluster_id":181832,"point_count":2,"point_count_abbreviated":2},"geometry":{"type":"Point","coordinates":[-117.23640561103821,32.94375272662036]}},{"type":"Feature","id":223592,"properties":{"cluster":true,"cluster_id":223592,"point_count":4,"point_count_abbreviated":4},"geometry":{"type":"Point","coordinates":[-117.22889006137848,32.94721457807481]}},{"type":"Feature","geometry":{"type":"Point","coordinates":[-117.237924,32.940553]},"properties":{"listingKey":"20251118185521166486000000","listingId":"8N-2510917","listPrice":3300,"city":"San Diego","baths":2,"slug":"20251118185521166486000000","mlsSource":"CRMLS","propertyType":"B","propertySubType":"Condominium","livingArea":1101,"unparsedAddress":"12229 Carmel Vista Road, 148, San Diego, CA 92130"}},{"type":"Feature","geometry":{"type":"Point","coordinates":[-117.233581,32.938941]},"properties":{"listingKey":"20251001161657088897000000","listingId":"8N-2509480","listPrice":1295000,"city":"San Diego","baths":2.5,"slug":"20251001161657088897000000","mlsSource":"CRMLS","propertyType":"A","propertySubType":"Condominium","livingArea":1415,"associationFee":560,"unparsedAddress":"3714 Carmel View Rd, San Diego, CA 92130"}}]