[{"type":"Feature","geometry":{"type":"Point","coordinates":[-120.414738,34.955831]},"properties":{"listingKey":"20250917042327569949000000","listingId":"PI-25218541","listPrice":465000,"city":"Santa Maria","baths":2.5,"slug":"20250917042327569949000000","mlsSource":"CRMLS","propertyType":"A","propertySubType":"Townhouse","livingArea":1594,"associationFee":460,"unparsedAddress":"1226 Calle De Campo, Santa Maria, CA 93454"}},{"type":"Feature","geometry":{"type":"Point","coordinates":[-120.419719,34.954275]},"properties":{"listingKey":"20251114232905446816000000","listingId":"PI-25260734","listPrice":400000,"city":"Santa Maria","baths":2,"slug":"20251114232905446816000000","mlsSource":"CRMLS","propertyType":"A","propertySubType":"Townhouse","livingArea":1200,"associationFee":365,"unparsedAddress":"132 Clubhouse, Santa Maria, CA 93454"}},{"type":"Feature","geometry":{"type":"Point","coordinates":[-120.432971,34.944245]},"properties":{"listingKey":"20251118203243391126000000","listingId":"PI-25259684","listPrice":629000,"city":"Santa Maria","baths":1.5,"slug":"20251118203243391126000000","mlsSource":"CRMLS","propertyType":"A","propertySubType":"Single Family Residence","livingArea":1174,"associationFee":0,"unparsedAddress":"300 East Park, Santa Maria, CA 93454"}},{"type":"Feature","id":269863,"properties":{"cluster":true,"cluster_id":269863,"point_count":2,"point_count_abbreviated":2},"geometry":{"type":"Point","coordinates":[-120.43275654315948,34.927033507736155]}},{"type":"Feature","geometry":{"type":"Point","coordinates":[-120.443464,34.929064]},"properties":{"listingKey":"20251021225004585322000000","listingId":"PI-25244262","listPrice":215000,"city":"Santa Maria","baths":2,"slug":"20251021225004585322000000","mlsSource":"CRMLS","propertyType":"A","propertySubType":"Manufactured On Land","livingArea":1258,"associationFee":0,"unparsedAddress":"1701 Thornburg St, Santa Maria, CA 93458"}},{"type":"Feature","geometry":{"type":"Point","coordinates":[-120.425689,34.938626]},"properties":{"listingKey":"20251114042657287612000000","listingId":"PI-25260344","listPrice":520000,"city":"Santa Maria","baths":1,"slug":"20251114042657287612000000","mlsSource":"CRMLS","propertyType":"A","propertySubType":"Single Family Residence","livingArea":1080,"associationFee":0,"unparsedAddress":"726 Laguna, Santa Maria, CA 93454"}},{"type":"Feature","geometry":{"type":"Point","coordinates":[-120.439616,34.926007]},"properties":{"listingKey":"20251009181843855302000000","listingId":"PI-25233638","listPrice":425000,"city":"Santa Maria","baths":1.5,"slug":"20251009181843855302000000","mlsSource":"CRMLS","propertyType":"A","propertySubType":"Townhouse","livingArea":1026,"associationFee":150,"unparsedAddress":"311 Lolita, L, Santa Maria, CA 93458"}},{"type":"Feature","geometry":{"type":"Point","coordinates":[-120.423097,34.946751]},"properties":{"listingKey":"20250812051936733998000000","listingId":"NS-25175589","listPrice":395000,"city":"Santa Maria","baths":2.5,"slug":"20250812051936733998000000","mlsSource":"CRMLS","propertyType":"A","propertySubType":"Condominium","livingArea":1850,"associationFee":438,"unparsedAddress":"828 East Boone Street, 12, Santa Maria, CA 93454"}}]