[{"type":"Feature","id":288105,"properties":{"cluster":true,"cluster_id":288105,"point_count":2,"point_count_abbreviated":2},"geometry":{"type":"Point","coordinates":[-118.07459056377411,33.7870747710093]}},{"type":"Feature","geometry":{"type":"Point","coordinates":[-118.075803,33.783946]},"properties":{"listingKey":"20251109192533762531000000","listingId":"SW-25256754","listPrice":849900,"city":"Seal Beach","baths":2,"slug":"20251109192533762531000000","mlsSource":"CRMLS","propertyType":"A","propertySubType":"Condominium","livingArea":1615,"associationFee":595,"unparsedAddress":"12300 Montecito, 42, Seal Beach, CA 90740"}},{"type":"Feature","geometry":{"type":"Point","coordinates":[-118.07485,33.78523]},"properties":{"listingKey":"20251029031220094214000000","listingId":"PW-25247949","listPrice":595000,"city":"Seal Beach","baths":2,"slug":"20251029031220094214000000","mlsSource":"CRMLS","propertyType":"A","propertySubType":"Condominium","livingArea":1010,"associationFee":525,"unparsedAddress":"12200 Montecito Rd, D104, Seal Beach, CA 90740"}},{"type":"Feature","geometry":{"type":"Point","coordinates":[-118.075813,33.781315]},"properties":{"listingKey":"20250808202154532080000000","listingId":"PW-25178349","listPrice":575000,"city":"Seal Beach","baths":1.5,"slug":"20250808202154532080000000","mlsSource":"CRMLS","propertyType":"A","propertySubType":"Condominium","livingArea":951,"associationFee":561,"unparsedAddress":"12584 Montecito Road, 5, Seal Beach, CA 90740"}},{"type":"Feature","geometry":{"type":"Point","coordinates":[-118.071555,33.787941]},"properties":{"listingKey":"20251119061638244194000000","listingId":"PW-25262881","listPrice":1099000,"city":"Los Alamitos","baths":2,"slug":"20251119061638244194000000","mlsSource":"CRMLS","propertyType":"A","propertySubType":"Single Family Residence","livingArea":1323,"associationFee":0,"unparsedAddress":"12041 Paseo Bonita, Los Alamitos, CA 90720"}},{"type":"Feature","geometry":{"type":"Point","coordinates":[-118.073531,33.786146]},"properties":{"listingKey":"20250825024026649097000000","listingId":"NP-25190138","listPrice":9000,"city":"Newport Beach","baths":3,"slug":"20250825024026649097000000","mlsSource":"CRMLS","propertyType":"B","propertySubType":"Condominium","livingArea":2374,"associationFee":0,"unparsedAddress":"83 Ocean, 90, Newport Beach, CA 92660"}}]