[{"type":"Feature","geometry":{"type":"Point","coordinates":[-116.961898,33.956872]},"properties":{"listingKey":"20250826160600277462000000","listingId":"CV-25192181","listPrice":559000,"city":"Beaumont","baths":3,"slug":"20250826160600277462000000","mlsSource":"CRMLS","propertyType":"A","propertySubType":"Single Family Residence","livingArea":1948,"associationFee":160,"unparsedAddress":"1661 Milford Way, Beaumont, CA 92223"}},{"type":"Feature","id":146280,"properties":{"cluster":true,"cluster_id":146280,"point_count":2,"point_count_abbreviated":2},"geometry":{"type":"Point","coordinates":[-116.96156233549118,33.94436125084161]}},{"type":"Feature","id":428616,"properties":{"cluster":true,"cluster_id":428616,"point_count":3,"point_count_abbreviated":3},"geometry":{"type":"Point","coordinates":[-116.96974754333498,33.956362634480556]}},{"type":"Feature","id":175656,"properties":{"cluster":true,"cluster_id":175656,"point_count":4,"point_count_abbreviated":4},"geometry":{"type":"Point","coordinates":[-116.96220874786377,33.94729834206433]}},{"type":"Feature","geometry":{"type":"Point","coordinates":[-116.964839,33.957227]},"properties":{"listingKey":"20251106012516184839000000","listingId":"PW-25254533","listPrice":795000,"city":"Cherry Valley","baths":2,"slug":"20251106012516184839000000","mlsSource":"CRMLS","propertyType":"A","propertySubType":"Single Family Residence","livingArea":1714,"associationFee":0,"unparsedAddress":"11285 Cherry Avenue, Cherry Valley, CA 92223"}},{"type":"Feature","geometry":{"type":"Point","coordinates":[-116.970538,33.959351]},"properties":{"listingKey":"20251115064255492745000000","listingId":"IG-25261016","listPrice":560000,"city":"Beaumont","baths":3,"slug":"20251115064255492745000000","mlsSource":"CRMLS","propertyType":"A","propertySubType":"Single Family Residence","livingArea":2550,"associationFee":0,"unparsedAddress":"1727 Miranda, Beaumont, CA 92223"}}]