[{"type":"Feature","id":472745,"properties":{"cluster":true,"cluster_id":472745,"point_count":2,"point_count_abbreviated":2},"geometry":{"type":"Point","coordinates":[-116.98095738887787,33.724803675721546]}},{"type":"Feature","geometry":{"type":"Point","coordinates":[-116.980815,33.734863]},"properties":{"listingKey":"20251112014838924419000000","listingId":"OC-25258597","listPrice":240000,"city":"Hemet","baths":2,"slug":"20251112014838924419000000","mlsSource":"CRMLS","propertyType":"A","propertySubType":"Manufactured On Land","livingArea":1360,"associationFee":168,"unparsedAddress":"890 Santa Clara Circle, Hemet, CA 92543"}},{"type":"Feature","id":301128,"properties":{"cluster":true,"cluster_id":301128,"point_count":3,"point_count_abbreviated":3},"geometry":{"type":"Point","coordinates":[-116.98010444641113,33.73221566140165]}},{"type":"Feature","id":173961,"properties":{"cluster":true,"cluster_id":173961,"point_count":2,"point_count_abbreviated":2},"geometry":{"type":"Point","coordinates":[-116.97846829891205,33.72865400259545]}},{"type":"Feature","geometry":{"type":"Point","coordinates":[-116.978239,33.734168]},"properties":{"listingKey":"20250828222443172549000000","listingId":"IV-25194342","listPrice":140000,"city":"Hemet","baths":2,"slug":"20250828222443172549000000","mlsSource":"CRMLS","propertyType":"A","propertySubType":"Manufactured On Land","livingArea":1040,"associationFee":175,"unparsedAddress":"838 San Francisco Drive, Hemet, CA 92543"}},{"type":"Feature","id":460873,"properties":{"cluster":true,"cluster_id":460873,"point_count":2,"point_count_abbreviated":2},"geometry":{"type":"Point","coordinates":[-116.97398900985718,33.736206922995876]}},{"type":"Feature","id":314728,"properties":{"cluster":true,"cluster_id":314728,"point_count":3,"point_count_abbreviated":3},"geometry":{"type":"Point","coordinates":[-116.9720846414566,33.73344696458821]}},{"type":"Feature","id":348424,"properties":{"cluster":true,"cluster_id":348424,"point_count":4,"point_count_abbreviated":4},"geometry":{"type":"Point","coordinates":[-116.96678191423416,33.73813631317337]}},{"type":"Feature","geometry":{"type":"Point","coordinates":[-116.963811,33.739939]},"properties":{"listingKey":"20250623185147315426000000","listingId":"IV-25140459","listPrice":344900,"city":"Hemet","baths":1,"slug":"20250623185147315426000000","mlsSource":"CRMLS","propertyType":"A","propertySubType":"Single Family Residence","livingArea":812,"associationFee":0,"unparsedAddress":"516 South Taylor Street South, Hemet, CA 92543"}},{"type":"Feature","geometry":{"type":"Point","coordinates":[-116.965448,33.726995]},"properties":{"listingKey":"20250628095500470537000000","listingId":"8N-2506372","listPrice":248000,"city":"Hemet","baths":2,"slug":"20250628095500470537000000","mlsSource":"CRMLS","propertyType":"A","propertySubType":"Single Family Residence","livingArea":1026,"associationFee":65,"unparsedAddress":"660 Palmer Drive, Hemet, CA 92543"}},{"type":"Feature","id":399785,"properties":{"cluster":true,"cluster_id":399785,"point_count":2,"point_count_abbreviated":2},"geometry":{"type":"Point","coordinates":[-116.96309387683868,33.730862397180886]}},{"type":"Feature","geometry":{"type":"Point","coordinates":[-116.966202,33.73107]},"properties":{"listingKey":"20250821220343492963000000","listingId":"SW-25182715","listPrice":439900,"city":"Hemet","baths":2,"slug":"20250821220343492963000000","mlsSource":"CRMLS","propertyType":"A","propertySubType":"Single Family Residence","livingArea":1032,"associationFee":0,"unparsedAddress":"594 Montebello Place, Hemet, CA 92543"}},{"type":"Feature","geometry":{"type":"Point","coordinates":[-116.968508,33.728478]},"properties":{"listingKey":"20251112045234606057000000","listingId":"DW-25258723","listPrice":335000,"city":"Hemet","baths":2,"slug":"20251112045234606057000000","mlsSource":"CRMLS","propertyType":"A","propertySubType":"Single Family Residence","livingArea":904,"associationFee":0,"unparsedAddress":"375 Magnolia Cir, Hemet, CA 92543"}},{"type":"Feature","geometry":{"type":"Point","coordinates":[-116.968685,33.741305]},"properties":{"listingKey":"20251113171754829011000000","listingId":"CV-25244768","listPrice":425000,"city":"Hemet","baths":2,"slug":"20251113171754829011000000","mlsSource":"CRMLS","propertyType":"A","propertySubType":"Single Family Residence","livingArea":1112,"associationFee":0,"unparsedAddress":"429 South Juanita Street, Hemet, CA 92543"}}]