[{"type":"Feature","geometry":{"type":"Point","coordinates":[-116.978067,32.844212]},"properties":{"listingKey":"20251016000909731412000000","listingId":"8P-2507833","listPrice":763367,"city":"Santee","baths":2.5,"slug":"20251016000909731412000000","mlsSource":"CRMLS","propertyType":"A","propertySubType":"Townhouse","livingArea":1548,"associationFee":305,"unparsedAddress":"332 Stream ct, Santee, CA 92071"}},{"type":"Feature","id":476585,"properties":{"cluster":true,"cluster_id":476585,"point_count":2,"point_count_abbreviated":2},"geometry":{"type":"Point","coordinates":[-116.97499752044678,32.858158281574134]}},{"type":"Feature","id":617896,"properties":{"cluster":true,"cluster_id":617896,"point_count":2,"point_count_abbreviated":2},"geometry":{"type":"Point","coordinates":[-116.96709305047989,32.85272363956997]}},{"type":"Feature","geometry":{"type":"Point","coordinates":[-116.972975,32.850707]},"properties":{"listingKey":"20251017193031625780000000","listingId":"8P-2507903","listPrice":575000,"city":"Santee","baths":1.5,"slug":"20251017193031625780000000","mlsSource":"CRMLS","propertyType":"A","propertySubType":"Townhouse","livingArea":1116,"associationFee":235,"unparsedAddress":"9555 Cottonwood Ave, E, Santee, CA 92071"}},{"type":"Feature","geometry":{"type":"Point","coordinates":[-116.965169,32.850327]},"properties":{"listingKey":"20251017204018852312000000","listingId":"8P-2507907","listPrice":1300000,"city":"Santee","baths":3,"slug":"20251017204018852312000000","mlsSource":"CRMLS","propertyType":"A","propertySubType":"Single Family Residence","livingArea":2558,"associationFee":100,"unparsedAddress":"10664 Sandy Creek Drive, Santee, CA 92071"}},{"type":"Feature","geometry":{"type":"Point","coordinates":[-116.970801,32.848371]},"properties":{"listingKey":"20251031053826453339000000","listingId":"8N-2510429","listPrice":1189900,"city":"Santee","baths":3,"slug":"20251031053826453339000000","mlsSource":"CRMLS","propertyType":"A","propertySubType":"Single Family Residence","livingArea":2384,"associationFee":165,"unparsedAddress":"10349 River Bluff Drive, Santee, CA 92071"}}]