[{"type":"Feature","geometry":{"type":"Point","coordinates":[-116.962307,32.61769]},"properties":{"listingKey":"20251006233547485488000000","listingId":"8P-2507594","listPrice":1595,"city":"Chula Vista","baths":1,"slug":"20251006233547485488000000","mlsSource":"CRMLS","propertyType":"B","propertySubType":"Room for Rent","livingArea":225,"unparsedAddress":"2006 Foxtrot Loop, Chula Vista, CA 91915"}},{"type":"Feature","geometry":{"type":"Point","coordinates":[-116.961912,32.614092]},"properties":{"listingKey":"20250726103849619774000000","listingId":"8P-2505670","listPrice":719000,"city":"Chula Vista","baths":2.5,"slug":"20250726103849619774000000","mlsSource":"CRMLS","propertyType":"A","propertySubType":"Townhouse","livingArea":1430,"associationFee":504,"unparsedAddress":"1842 Observation Way, 2, Chula Vista, CA 91915"}},{"type":"Feature","geometry":{"type":"Point","coordinates":[-116.978475,32.613073]},"properties":{"listingKey":"20251105011709185435000000","listingId":"8P-2508340","listPrice":1175000,"city":"Chula Vista","baths":4.5,"slug":"20251105011709185435000000","mlsSource":"CRMLS","propertyType":"A","propertySubType":"Single Family Residence","livingArea":3232,"associationFee":61,"unparsedAddress":"1688 Fleishbein Street, Chula Vista, CA 91913"}},{"type":"Feature","id":269033,"properties":{"cluster":true,"cluster_id":269033,"point_count":4,"point_count_abbreviated":4},"geometry":{"type":"Point","coordinates":[-116.97475612163544,32.604431412550326]}},{"type":"Feature","id":602569,"properties":{"cluster":true,"cluster_id":602569,"point_count":3,"point_count_abbreviated":3},"geometry":{"type":"Point","coordinates":[-116.97095274925232,32.61301718325136]}},{"type":"Feature","geometry":{"type":"Point","coordinates":[-116.975384,32.614638]},"properties":{"listingKey":"20251108194210848210000000","listingId":"8P-2508445","listPrice":649999,"city":"Chula Vista","baths":2.5,"slug":"20251108194210848210000000","mlsSource":"CRMLS","propertyType":"A","propertySubType":"Single Family Residence","livingArea":1671,"associationFee":115,"unparsedAddress":"1762 Koester Street, Chula Vista, CA 91913"}}]