[{"type":"Feature","id":316166,"properties":{"cluster":true,"cluster_id":316166,"point_count":4,"point_count_abbreviated":4},"geometry":{"type":"Point","coordinates":[-122.00058549642563,38.277904233032075]}},{"type":"Feature","geometry":{"type":"Point","coordinates":[-122.040002,38.273728]},"properties":{"listingKey":"20250908175013469399000000","listingId":"8P-2506865","listPrice":495000,"city":"Fairfield","baths":2,"slug":"20250908175013469399000000","mlsSource":"CRMLS","propertyType":"A","propertySubType":"Single Family Residence","livingArea":1391,"associationFee":0,"unparsedAddress":"280 Dahlia Street, Fairfield, CA 94533"}},{"type":"Feature","geometry":{"type":"Point","coordinates":[-122.010117,38.291671]},"properties":{"listingKey":"20250710131349521605000000","listingId":"01-41104181","listPrice":799000,"city":"Fairfield","baths":3.5,"slug":"20250710131349521605000000","mlsSource":"CRMLS","propertyType":"A","propertySubType":"Single Family Residence","livingArea":3101,"unparsedAddress":"3826 Danbury Way, Fairfield, CA 94533"}},{"type":"Feature","geometry":{"type":"Point","coordinates":[-122.063073,38.281318]},"properties":{"listingKey":"20251105185422719459000000","listingId":"01-41116728","listPrice":824000,"city":"Fairfield","baths":2.5,"slug":"20251105185422719459000000","mlsSource":"CRMLS","propertyType":"A","propertySubType":"Single Family Residence","livingArea":2285,"associationFee":204,"unparsedAddress":"3127 Cherry Valley Cir, Fairfield, CA 94534"}},{"type":"Feature","geometry":{"type":"Point","coordinates":[-122.030423,38.280882]},"properties":{"listingKey":"20251121105234915108000000","listingId":"SN-25264317","listPrice":619000,"city":"Fairfield","baths":2.5,"slug":"20251121105234915108000000","mlsSource":"CRMLS","propertyType":"A","propertySubType":"Single Family Residence","livingArea":1894,"associationFee":0,"unparsedAddress":"2800 Elmhurst Circle, Fairfield, CA 94533"}}]