[{"type":"Feature","id":429286,"properties":{"cluster":true,"cluster_id":429286,"point_count":4,"point_count_abbreviated":4},"geometry":{"type":"Point","coordinates":[-122.04892426729202,37.5185210805614]}},{"type":"Feature","id":347110,"properties":{"cluster":true,"cluster_id":347110,"point_count":4,"point_count_abbreviated":4},"geometry":{"type":"Point","coordinates":[-122.03952312469482,37.57360069302388]}},{"type":"Feature","geometry":{"type":"Point","coordinates":[-122.071916,37.568867]},"properties":{"listingKey":"20251112175115287740000000","listingId":"01-41117243","listPrice":1245000,"city":"Union City","baths":2,"slug":"20251112175115287740000000","mlsSource":"CRMLS","propertyType":"A","propertySubType":"Single Family Residence","livingArea":1409,"unparsedAddress":"4942 Rocklin Dr, Union City, CA 94587"}},{"type":"Feature","geometry":{"type":"Point","coordinates":[-122.061801,37.560232]},"properties":{"listingKey":"20250807194955746071000000","listingId":"01-41107386","listPrice":1500000,"city":"Fremont","baths":3.5,"slug":"20250807194955746071000000","mlsSource":"CRMLS","propertyType":"A","propertySubType":"Condominium","livingArea":1969,"associationFee":350,"unparsedAddress":"34192 Firenze Ter, Fremont, CA 94555"}},{"type":"Feature","id":386470,"properties":{"cluster":true,"cluster_id":386470,"point_count":5,"point_count_abbreviated":5},"geometry":{"type":"Point","coordinates":[-122.0419875383377,37.53231649444656]}},{"type":"Feature","geometry":{"type":"Point","coordinates":[-122.064071,37.57602]},"properties":{"listingKey":"20250709162710331303000000","listingId":"01-41104055","listPrice":1350000,"city":"Union City","baths":2.5,"slug":"20250709162710331303000000","mlsSource":"CRMLS","propertyType":"A","propertySubType":"Single Family Residence","livingArea":1518,"unparsedAddress":"34102 Zaner Way, Union City, CA 94587"}},{"type":"Feature","geometry":{"type":"Point","coordinates":[-122.026029,37.567088]},"properties":{"listingKey":"20251009161855429072000000","listingId":"01-41114217","listPrice":1549000,"city":"Fremont","baths":2.5,"slug":"20251009161855429072000000","mlsSource":"CRMLS","propertyType":"A","propertySubType":"Single Family Residence","livingArea":1689,"associationFee":200,"unparsedAddress":"4027 Sunset Ter, Fremont, CA 94536"}},{"type":"Feature","id":425126,"properties":{"cluster":true,"cluster_id":425126,"point_count":2,"point_count_abbreviated":2},"geometry":{"type":"Point","coordinates":[-122.03581362962723,37.55822077698127]}},{"type":"Feature","id":296678,"properties":{"cluster":true,"cluster_id":296678,"point_count":4,"point_count_abbreviated":4},"geometry":{"type":"Point","coordinates":[-122.02948361635208,37.53482378133265]}},{"type":"Feature","geometry":{"type":"Point","coordinates":[-122.050384,37.545664]},"properties":{"listingKey":"20250710041202430288000000","listingId":"01-41104088","listPrice":1499888,"city":"Newark","baths":3,"slug":"20250710041202430288000000","mlsSource":"CRMLS","propertyType":"A","propertySubType":"Single Family Residence","livingArea":2024,"unparsedAddress":"35421 Cleremont Dr, Newark, CA 94560"}},{"type":"Feature","geometry":{"type":"Point","coordinates":[-122.030974,37.551805]},"properties":{"listingKey":"20250910232204366537000000","listingId":"01-41111009","listPrice":1498000,"city":"Newark","baths":2.5,"slug":"20250910232204366537000000","mlsSource":"CRMLS","propertyType":"A","propertySubType":"Single Family Residence","livingArea":2144,"unparsedAddress":"5139 Dryden Ct, Newark, CA 94560"}},{"type":"Feature","geometry":{"type":"Point","coordinates":[-122.045632,37.563546]},"properties":{"listingKey":"20251009213827449557000000","listingId":"01-41114280","listPrice":880000,"city":"Fremont","baths":2.5,"slug":"20251009213827449557000000","mlsSource":"CRMLS","propertyType":"A","propertySubType":"Condominium","livingArea":1178,"associationFee":495,"unparsedAddress":"34607 Pueblo Ter, Fremont, CA 94555"}},{"type":"Feature","id":648583,"properties":{"cluster":true,"cluster_id":648583,"point_count":2,"point_count_abbreviated":2},"geometry":{"type":"Point","coordinates":[-122.02433109283447,37.57516104341339]}},{"type":"Feature","id":447398,"properties":{"cluster":true,"cluster_id":447398,"point_count":3,"point_count_abbreviated":3},"geometry":{"type":"Point","coordinates":[-122.01328396797179,37.53980208833629]}},{"type":"Feature","id":520328,"properties":{"cluster":true,"cluster_id":520328,"point_count":2,"point_count_abbreviated":2},"geometry":{"type":"Point","coordinates":[-122.01622813940048,37.553270634596046]}},{"type":"Feature","id":546023,"properties":{"cluster":true,"cluster_id":546023,"point_count":2,"point_count_abbreviated":2},"geometry":{"type":"Point","coordinates":[-122.00653731822968,37.53010606439757]}},{"type":"Feature","id":233958,"properties":{"cluster":true,"cluster_id":233958,"point_count":5,"point_count_abbreviated":5},"geometry":{"type":"Point","coordinates":[-122.00579166412354,37.561600633733775]}},{"type":"Feature","id":121991,"properties":{"cluster":true,"cluster_id":121991,"point_count":7,"point_count_abbreviated":7},"geometry":{"type":"Point","coordinates":[-121.99888842446462,37.51731087749009]}},{"type":"Feature","id":361478,"properties":{"cluster":true,"cluster_id":361478,"point_count":4,"point_count_abbreviated":4},"geometry":{"type":"Point","coordinates":[-121.9954825937748,37.55681954581553]}}]