[{"type":"Feature","geometry":{"type":"Point","coordinates":[-116.344041,33.773093]},"properties":{"listingKey":"20250926191112539670000000","listingId":"219135954","listPrice":459000,"city":"Palm Desert","baths":2.5,"slug":"20250926191112539670000000","mlsSource":"GPS","propertyType":"A","propertySubType":"Condominium","livingArea":1624,"associationFee":320,"unparsedAddress":"609 Calle Vibrante, Palm Desert, CA 92211"}},{"type":"Feature","geometry":{"type":"Point","coordinates":[-116.342722,33.776764]},"properties":{"listingKey":"20250913000625286091000000","listingId":"219136275","listPrice":379000,"city":"Palm Desert","baths":2,"slug":"20250913000625286091000000","mlsSource":"GPS","propertyType":"A","propertySubType":"Condominium","livingArea":1465,"associationFee":535,"unparsedAddress":"205 Paseo Gregario, Palm Desert, CA 92211"}},{"type":"Feature","id":98473,"properties":{"cluster":true,"cluster_id":98473,"point_count":2,"point_count_abbreviated":2},"geometry":{"type":"Point","coordinates":[-116.33776366710663,33.77049675681964]}},{"type":"Feature","geometry":{"type":"Point","coordinates":[-116.343181,33.770245]},"properties":{"listingKey":"20251007025011533959000000","listingId":"219136557","listPrice":1450000,"city":"Palm Desert","baths":4,"slug":"20251007025011533959000000","mlsSource":"GPS","propertyType":"A","propertySubType":"Single Family Residence","livingArea":3965,"associationFee":485,"unparsedAddress":"38131 Tandika Trail N, Palm Desert, CA 92211"}},{"type":"Feature","geometry":{"type":"Point","coordinates":[-116.343389,33.77465]},"properties":{"listingKey":"20250819023647030917000000","listingId":"219134131","listPrice":459000,"city":"Palm Desert","baths":2.5,"slug":"20250819023647030917000000","mlsSource":"GPS","propertyType":"A","propertySubType":"Condominium","livingArea":1596,"associationFee":320,"unparsedAddress":"444 Via De La Paz, Palm Desert, CA 92211"}}]