[{"type":"Feature","id":115081,"properties":{"cluster":true,"cluster_id":115081,"point_count":2,"point_count_abbreviated":2},"geometry":{"type":"Point","coordinates":[-116.34225100278854,33.72589231404446]}},{"type":"Feature","geometry":{"type":"Point","coordinates":[-116.345009,33.726217]},"properties":{"listingKey":"20251106171337826814000000","listingId":"219138462","listPrice":1125000,"city":"Indian Wells","baths":3,"slug":"20251106171337826814000000","mlsSource":"GPS","propertyType":"A","propertySubType":"Condominium","livingArea":2413,"associationFee":2098,"unparsedAddress":"44841 Desert Horizons Drive, Indian Wells, CA 92210"}},{"type":"Feature","id":49257,"properties":{"cluster":true,"cluster_id":49257,"point_count":3,"point_count_abbreviated":3},"geometry":{"type":"Point","coordinates":[-116.34386122226714,33.72695416926955]}},{"type":"Feature","geometry":{"type":"Point","coordinates":[-116.340623,33.725556]},"properties":{"listingKey":"20251102180705088411000000","listingId":"219138381","listPrice":910000,"city":"Indian Wells","baths":2.25,"slug":"20251102180705088411000000","mlsSource":"GPS","propertyType":"A","propertySubType":"Single Family Residence","livingArea":2813,"associationFee":1933,"unparsedAddress":"44828 Oro Grande Circle, Indian Wells, CA 92210"}},{"type":"Feature","geometry":{"type":"Point","coordinates":[-116.335926,33.731702]},"properties":{"listingKey":"20250925164600621796000000","listingId":"219137406","listPrice":2450000,"city":"Indian Wells","baths":4.5,"slug":"20250925164600621796000000","mlsSource":"GPS","propertyType":"A","propertySubType":"Single Family Residence","livingArea":3260,"associationFee":750,"unparsedAddress":"76168 Via Chianti, Indian Wells, CA 92210"}},{"type":"Feature","geometry":{"type":"Point","coordinates":[-116.337161,33.73293]},"properties":{"listingKey":"20251113213726498060000000","listingId":"219138794","listPrice":2325000,"city":"Indian Wells","baths":4.5,"slug":"20251113213726498060000000","mlsSource":"GPS","propertyType":"A","propertySubType":"Single Family Residence","livingArea":3260,"associationFee":750,"unparsedAddress":"76056 Via Chianti, Indian Wells, CA 92210"}},{"type":"Feature","geometry":{"type":"Point","coordinates":[-116.340941,33.732999]},"properties":{"listingKey":"20250925182301978660000000","listingId":"219137573","listPrice":5495000,"city":"Indian Wells","baths":5.5,"slug":"20250925182301978660000000","mlsSource":"GPS","propertyType":"A","propertySubType":"Single Family Residence","livingArea":6526,"associationFee":750,"unparsedAddress":"43312 Via Siena, Indian Wells, CA 92210"}},{"type":"Feature","geometry":{"type":"Point","coordinates":[-116.34183,33.731541]},"properties":{"listingKey":"20251022190007891615000000","listingId":"219137622","listPrice":2995000,"city":"Indian Wells","baths":3.5,"slug":"20251022190007891615000000","mlsSource":"GPS","propertyType":"A","propertySubType":"Single Family Residence","livingArea":4299,"associationFee":750,"unparsedAddress":"75836 Via Cortona, Indian Wells, CA 92210"}}]