[{"type":"Feature","geometry":{"type":"Point","coordinates":[-116.344084,33.718324]},"properties":{"listingKey":"20250905015445586778000000","listingId":"219134886","listPrice":6900,"city":"Indian Wells","baths":2,"slug":"20250905015445586778000000","mlsSource":"GPS","propertyType":"B","propertySubType":"Condominium","livingArea":2072,"associationFee":1,"unparsedAddress":"75670 Calle Del Sur, Indian Wells, CA 92210"}},{"type":"Feature","id":123913,"properties":{"cluster":true,"cluster_id":123913,"point_count":2,"point_count_abbreviated":2},"geometry":{"type":"Point","coordinates":[-116.3440614938736,33.7235097843469]}},{"type":"Feature","geometry":{"type":"Point","coordinates":[-116.343485,33.719437]},"properties":{"listingKey":"20251114155401105468000000","listingId":"219138742","listPrice":825000,"city":"Indian Wells","baths":2,"slug":"20251114155401105468000000","mlsSource":"GPS","propertyType":"A","propertySubType":"Condominium","livingArea":2024,"associationFee":850,"unparsedAddress":"45215 Camino Dorado, Indian Wells, CA 92210"}},{"type":"Feature","geometry":{"type":"Point","coordinates":[-116.34076,33.722059]},"properties":{"listingKey":"20250903175426631672000000","listingId":"219134781","listPrice":1095000,"city":"Indian Wells","baths":3,"slug":"20250903175426631672000000","mlsSource":"GPS","propertyType":"A","propertySubType":"Condominium","livingArea":2568,"associationFee":1933,"unparsedAddress":"75720 Vista Del Rey, Indian Wells, CA 92210"}},{"type":"Feature","id":54121,"properties":{"cluster":true,"cluster_id":54121,"point_count":7,"point_count_abbreviated":7},"geometry":{"type":"Point","coordinates":[-116.33468525750295,33.716498211109325]}},{"type":"Feature","id":617833,"properties":{"cluster":true,"cluster_id":617833,"point_count":2,"point_count_abbreviated":2},"geometry":{"type":"Point","coordinates":[-116.33882582187653,33.718539275424604]}},{"type":"Feature","geometry":{"type":"Point","coordinates":[-116.339981,33.72428]},"properties":{"listingKey":"20250727232138443059000000","listingId":"219133455","listPrice":1150000,"city":"Indian Wells","baths":3,"slug":"20250727232138443059000000","mlsSource":"GPS","propertyType":"A","propertySubType":"Condominium","livingArea":3131,"associationFee":2098,"unparsedAddress":"75768 Valle Vista Drive, Indian Wells, CA 92210"}},{"type":"Feature","geometry":{"type":"Point","coordinates":[-116.340597,33.716035]},"properties":{"listingKey":"20251119031115282738000000","listingId":"219138977","listPrice":2100000,"city":"Indian Wells","baths":3.5,"slug":"20251119031115282738000000","mlsSource":"GPS","propertyType":"A","propertySubType":"Single Family Residence","livingArea":3875,"associationFee":0,"unparsedAddress":"75840 Altamira Drive, Indian Wells, CA 92210"}}]