[{"type":"Feature","geometry":{"type":"Point","coordinates":[-117.537334,33.838184]},"properties":{"listingKey":"20251102215923787286000000","listingId":"PW-25252280","listPrice":2950000,"city":"Corona","baths":5.5,"slug":"20251102215923787286000000","mlsSource":"CRMLS","propertyType":"A","propertySubType":"Single Family Residence","livingArea":4098,"associationFee":0,"unparsedAddress":"1607 Cherokee Road, Corona, CA 92883"}},{"type":"Feature","geometry":{"type":"Point","coordinates":[-117.533467,33.851267]},"properties":{"listingKey":"20251103171714266891000000","listingId":"PW-25252521","listPrice":849000,"city":"Corona","baths":2.25,"slug":"20251103171714266891000000","mlsSource":"CRMLS","propertyType":"A","propertySubType":"Single Family Residence","livingArea":2034,"associationFee":0,"unparsedAddress":"7233 Bel Air St, Corona, CA 92881"}},{"type":"Feature","geometry":{"type":"Point","coordinates":[-117.550069,33.840778]},"properties":{"listingKey":"20251107155827149384000000","listingId":"IV-25250056","listPrice":985000,"city":"Corona","baths":2,"slug":"20251107155827149384000000","mlsSource":"CRMLS","propertyType":"A","propertySubType":"Single Family Residence","livingArea":2001,"associationFee":0,"unparsedAddress":"2843 James St., Corona, CA 92881"}},{"type":"Feature","geometry":{"type":"Point","coordinates":[-117.54853,33.845598]},"properties":{"listingKey":"20251106180337787812000000","listingId":"IG-25255191","listPrice":1029000,"city":"Corona","baths":4,"slug":"20251106180337787812000000","mlsSource":"CRMLS","propertyType":"A","propertySubType":"Single Family Residence","livingArea":3103,"associationFee":0,"unparsedAddress":"2559 Gilbert Avenue, Corona, CA 92881"}},{"type":"Feature","geometry":{"type":"Point","coordinates":[-117.547295,33.850922]},"properties":{"listingKey":"20251031204923466801000000","listingId":"CV-25250987","listPrice":869888,"city":"Corona","baths":3,"slug":"20251031204923466801000000","mlsSource":"CRMLS","propertyType":"A","propertySubType":"Single Family Residence","livingArea":2129,"associationFee":0,"unparsedAddress":"2208 Coachman Circle, Corona, CA 92881"}},{"type":"Feature","id":576168,"properties":{"cluster":true,"cluster_id":576168,"point_count":2,"point_count_abbreviated":2},"geometry":{"type":"Point","coordinates":[-117.54185825586319,33.84311660279228]}}]