[{"type":"Feature","geometry":{"type":"Point","coordinates":[-117.972722,34.144353]},"properties":{"listingKey":"20251014144804719607000000","listingId":"PF-25233899","listPrice":10000,"city":"Bradbury","baths":5.5,"slug":"20251014144804719607000000","mlsSource":"CRMLS","propertyType":"B","propertySubType":"Single Family Residence","livingArea":6501,"associationFee":0,"unparsedAddress":"1527 Royal Oaks Drive, Bradbury, CA 91008"}},{"type":"Feature","geometry":{"type":"Point","coordinates":[-117.977515,34.148453]},"properties":{"listingKey":"20250816062748850446000000","listingId":"AR-25183582","listPrice":3480000,"city":"Bradbury","baths":13,"slug":"20250816062748850446000000","mlsSource":"CRMLS","propertyType":"A","propertySubType":"Single Family Residence","livingArea":14048,"associationFee":500,"unparsedAddress":"238 Barranca Road, Bradbury, CA 91008"}},{"type":"Feature","geometry":{"type":"Point","coordinates":[-117.980337,34.150749]},"properties":{"listingKey":"20250819050241765867000000","listingId":"OC-25186331","listPrice":11980000,"city":"Bradbury","baths":13,"slug":"20250819050241765867000000","mlsSource":"CRMLS","propertyType":"A","propertySubType":"Single Family Residence","livingArea":17153,"associationFee":445,"unparsedAddress":"18 Dovetail Lane, Bradbury, CA 91008"}},{"type":"Feature","geometry":{"type":"Point","coordinates":[-117.97705,34.149477]},"properties":{"listingKey":"20250828072110224886000000","listingId":"AR-25191117","listPrice":13580000,"city":"Bradbury","baths":12,"slug":"20250828072110224886000000","mlsSource":"CRMLS","propertyType":"A","propertySubType":"Single Family Residence","livingArea":18324,"associationFee":5626,"unparsedAddress":"165 Circle Drive, Bradbury, CA 91008"}},{"type":"Feature","geometry":{"type":"Point","coordinates":[-117.978899,34.145392]},"properties":{"listingKey":"20251023213528332868000000","listingId":"DW-25243613","listPrice":1349900,"city":"Monrovia","baths":1.75,"slug":"20251023213528332868000000","mlsSource":"CRMLS","propertyType":"A","propertySubType":"Single Family Residence","livingArea":1683,"associationFee":0,"unparsedAddress":"540 Hacienda Drive, Monrovia, CA 91016"}}]