[{"type":"Feature","geometry":{"type":"Point","coordinates":[-116.276133,33.738263]},"properties":{"listingKey":"20251111234251783300000000","listingId":"PW-25257800","listPrice":1895000,"city":"Bermuda Dunes","baths":3.25,"slug":"20251111234251783300000000","mlsSource":"CRMLS","propertyType":"A","propertySubType":"Single Family Residence","livingArea":4708,"associationFee":224,"unparsedAddress":"42820 Caballeros Drive, Bermuda Dunes, CA 92203"}},{"type":"Feature","geometry":{"type":"Point","coordinates":[-116.271509,33.736593]},"properties":{"listingKey":"20251013221334111486000000","listingId":"219136901","listPrice":750000,"city":"Bermuda Dunes","baths":2.5,"slug":"20251013221334111486000000","mlsSource":"GPS","propertyType":"A","propertySubType":"Single Family Residence","livingArea":2427,"associationFee":224,"unparsedAddress":"79865 Kingston Drive, Bermuda Dunes, CA 92203"}},{"type":"Feature","id":49449,"properties":{"cluster":true,"cluster_id":49449,"point_count":2,"point_count_abbreviated":2},"geometry":{"type":"Point","coordinates":[-116.27277910709381,33.735042576369494]}},{"type":"Feature","geometry":{"type":"Point","coordinates":[-116.268872,33.740279]},"properties":{"listingKey":"20251026152648515947000000","listingId":"219137649","listPrice":189000,"city":"Bermuda Dunes","baths":0,"slug":"20251026152648515947000000","mlsSource":"GPS","propertyType":"D","associationFee":0,"unparsedAddress":"0 Glass Drive, 164, Bermuda Dunes, CA 92203"}},{"type":"Feature","geometry":{"type":"Point","coordinates":[-116.2707,33.739806]},"properties":{"listingKey":"20251015014910482353000000","listingId":"219136971","listPrice":1080000,"city":"Bermuda Dunes","baths":3.5,"slug":"20251015014910482353000000","mlsSource":"GPS","propertyType":"A","propertySubType":"Single Family Residence","livingArea":3418,"associationFee":215,"unparsedAddress":"79915 Bermuda Dunes Drive, Bermuda Dunes, CA 92203"}}]