[{"type":"Feature","geometry":{"type":"Point","coordinates":[-116.277861,33.723512]},"properties":{"listingKey":"20251110164759998550000000","listingId":"219138509","listPrice":649999,"city":"La Quinta","baths":3,"slug":"20251110164759998550000000","mlsSource":"GPS","propertyType":"A","propertySubType":"Single Family Residence","livingArea":2292,"associationFee":82,"unparsedAddress":"44800 Calle Santa Barbara, La Quinta, CA 92253"}},{"type":"Feature","id":99625,"properties":{"cluster":true,"cluster_id":99625,"point_count":2,"point_count_abbreviated":2},"geometry":{"type":"Point","coordinates":[-116.27625793218613,33.72331792982749]}},{"type":"Feature","geometry":{"type":"Point","coordinates":[-116.269744,33.720216]},"properties":{"listingKey":"20250823215042654726000000","listingId":"219134370","listPrice":6000,"city":"Indio","baths":2,"slug":"20250823215042654726000000","mlsSource":"GPS","propertyType":"B","propertySubType":"Single Family Residence","livingArea":1529,"associationFee":392,"unparsedAddress":"45233 Big Canyon Street, Indio, CA 92201"}},{"type":"Feature","id":46057,"properties":{"cluster":true,"cluster_id":46057,"point_count":2,"point_count_abbreviated":2},"geometry":{"type":"Point","coordinates":[-116.27702236175537,33.71637518475782]}},{"type":"Feature","geometry":{"type":"Point","coordinates":[-116.269694,33.721577]},"properties":{"listingKey":"20251103050652127122000000","listingId":"219138340","listPrice":4995,"city":"Indio","baths":2,"slug":"20251103050652127122000000","mlsSource":"GPS","propertyType":"B","propertySubType":"Single Family Residence","livingArea":1529,"associationFee":1,"unparsedAddress":"79948 Bethpage Avenue, Indio, CA 92201"}},{"type":"Feature","geometry":{"type":"Point","coordinates":[-116.273089,33.715387]},"properties":{"listingKey":"20251115234855303816000000","listingId":"219138837","listPrice":5500,"city":"Indio","baths":2.5,"slug":"20251115234855303816000000","mlsSource":"GPS","propertyType":"B","propertySubType":"Single Family Residence","livingArea":1703,"associationFee":1,"unparsedAddress":"79754 Carmel Valley Avenue, Indio, CA 92201"}},{"type":"Feature","geometry":{"type":"Point","coordinates":[-116.269739,33.719123]},"properties":{"listingKey":"20251018175546858423000000","listingId":"219137237","listPrice":3200,"city":"Indio","baths":1.75,"slug":"20251018175546858423000000","mlsSource":"GPS","propertyType":"B","propertySubType":"Single Family Residence","livingArea":1529,"associationFee":389,"unparsedAddress":"45385 Big Canyon Street, Indio, CA 92201"}}]