[{"type":"Feature","id":438343,"properties":{"cluster":true,"cluster_id":438343,"point_count":3,"point_count_abbreviated":3},"geometry":{"type":"Point","coordinates":[-122.2979485988617,38.00317989486814]}},{"type":"Feature","id":458023,"properties":{"cluster":true,"cluster_id":458023,"point_count":2,"point_count_abbreviated":2},"geometry":{"type":"Point","coordinates":[-122.28421300649643,38.0027867794858]}},{"type":"Feature","geometry":{"type":"Point","coordinates":[-122.267222,38.002473]},"properties":{"listingKey":"20251104184029011483000000","listingId":"01-41116631","listPrice":820000,"city":"Hercules","baths":2.5,"slug":"20251104184029011483000000","mlsSource":"CRMLS","propertyType":"A","propertySubType":"Single Family Residence","livingArea":1905,"unparsedAddress":"199 Starling Way, Hercules, CA 94547"}},{"type":"Feature","geometry":{"type":"Point","coordinates":[-122.260022,38.027669]},"properties":{"listingKey":"20251107030801831647000000","listingId":"01-41116904","listPrice":900000,"city":"Rodeo","baths":2.5,"slug":"20251107030801831647000000","mlsSource":"CRMLS","propertyType":"A","propertySubType":"Single Family Residence","livingArea":1842,"unparsedAddress":"919 North Elm Drive, Rodeo, CA"}},{"type":"Feature","geometry":{"type":"Point","coordinates":[-122.256421,38.017993]},"properties":{"listingKey":"20251031050715301196000000","listingId":"01-41116309","listPrice":850000,"city":"Rodeo","baths":2,"slug":"20251031050715301196000000","mlsSource":"CRMLS","propertyType":"A","propertySubType":"Single Family Residence","livingArea":1326,"associationFee":145,"unparsedAddress":"713 Sandy Brook Ct, Rodeo, CA"}},{"type":"Feature","id":624551,"properties":{"cluster":true,"cluster_id":624551,"point_count":2,"point_count_abbreviated":2},"geometry":{"type":"Point","coordinates":[-122.28720366954803,38.016527658774606]}},{"type":"Feature","id":415080,"properties":{"cluster":true,"cluster_id":415080,"point_count":2,"point_count_abbreviated":2},"geometry":{"type":"Point","coordinates":[-122.28532075881958,38.01225900558896]}},{"type":"Feature","geometry":{"type":"Point","coordinates":[-122.27577,38.016413]},"properties":{"listingKey":"20251119180747178085000000","listingId":"01-41117786","listPrice":848000,"city":"Hercules","baths":2.5,"slug":"20251119180747178085000000","mlsSource":"CRMLS","propertyType":"A","propertySubType":"Single Family Residence","livingArea":2006,"associationFee":90,"unparsedAddress":"2036 Serra Ln, Hercules, CA 94547"}},{"type":"Feature","id":773289,"properties":{"cluster":true,"cluster_id":773289,"point_count":2,"point_count_abbreviated":2},"geometry":{"type":"Point","coordinates":[-122.26323813199997,38.00983717400166]}},{"type":"Feature","id":147111,"properties":{"cluster":true,"cluster_id":147111,"point_count":6,"point_count_abbreviated":6},"geometry":{"type":"Point","coordinates":[-122.27802604436873,38.00952721886685]}},{"type":"Feature","geometry":{"type":"Point","coordinates":[-122.271837,38.008343]},"properties":{"listingKey":"20250816063259369311000000","listingId":"01-41108391","listPrice":540000,"city":"Hercules","baths":1.5,"slug":"20250816063259369311000000","mlsSource":"CRMLS","propertyType":"A","propertySubType":"Townhouse","livingArea":1288,"associationFee":340,"unparsedAddress":"31 Sapphire Ct, Hercules, CA 94547"}},{"type":"Feature","id":151975,"properties":{"cluster":true,"cluster_id":151975,"point_count":7,"point_count_abbreviated":7},"geometry":{"type":"Point","coordinates":[-122.2925864798682,38.00661579060113]}},{"type":"Feature","geometry":{"type":"Point","coordinates":[-122.259562,38.00584]},"properties":{"listingKey":"20250826234517990120000000","listingId":"01-41109381","listPrice":749000,"city":"Hercules","baths":2,"slug":"20250826234517990120000000","mlsSource":"CRMLS","propertyType":"A","propertySubType":"Single Family Residence","livingArea":1581,"unparsedAddress":"1769 Redwood Rd, Hercules, CA 94547"}}]