[{"type":"Feature","geometry":{"type":"Point","coordinates":[-122.293214,37.894054]},"properties":{"listingKey":"20251003200823246044000000","listingId":"PW-25231979","listPrice":1349999,"city":"Albany","baths":2,"slug":"20251003200823246044000000","mlsSource":"CRMLS","propertyType":"A","propertySubType":"Single Family Residence","livingArea":1679,"associationFee":0,"unparsedAddress":"720 Key Route, Albany, CA 94706"}},{"type":"Feature","geometry":{"type":"Point","coordinates":[-122.272284,37.90433]},"properties":{"listingKey":"20251007230818462078000000","listingId":"01-41114027","listPrice":1425000,"city":"Berkeley","baths":3,"slug":"20251007230818462078000000","mlsSource":"CRMLS","propertyType":"A","propertySubType":"Single Family Residence","livingArea":1430,"unparsedAddress":"411 Vassar Ave, Berkeley, CA 94708"}},{"type":"Feature","geometry":{"type":"Point","coordinates":[-122.278324,37.907244]},"properties":{"listingKey":"20250927042648124473000000","listingId":"01-41112920","listPrice":1848000,"city":"Kensington","baths":2.5,"slug":"20250927042648124473000000","mlsSource":"CRMLS","propertyType":"A","propertySubType":"Single Family Residence","livingArea":2388,"unparsedAddress":"201 Amherst Ave, Kensington, CA 94708"}},{"type":"Feature","geometry":{"type":"Point","coordinates":[-122.294653,37.920861]},"properties":{"listingKey":"20251029235442712535000000","listingId":"01-41116156","listPrice":1199000,"city":"El Cerrito","baths":3,"slug":"20251029235442712535000000","mlsSource":"CRMLS","propertyType":"A","propertySubType":"Single Family Residence","livingArea":1668,"unparsedAddress":"1140 King Dr, El Cerrito, CA 94530"}},{"type":"Feature","geometry":{"type":"Point","coordinates":[-122.297151,37.914023]},"properties":{"listingKey":"20251010231049676079000000","listingId":"01-41114460","listPrice":1495000,"city":"El Cerrito","baths":2.5,"slug":"20251010231049676079000000","mlsSource":"CRMLS","propertyType":"A","propertySubType":"Single Family Residence","livingArea":2148,"unparsedAddress":"876 Balra Dr, El Cerrito, CA 94530"}}]