[{"type":"Feature","geometry":{"type":"Point","coordinates":[-122.261321,37.882838]},"properties":{"listingKey":"20251021203238175576000000","listingId":"01-41115245","listPrice":2500,"city":"Berkeley","baths":1,"slug":"20251021203238175576000000","mlsSource":"CRMLS","propertyType":"B","livingArea":600,"unparsedAddress":"1407 Euclid Ave, Berkeley, CA 94708"}},{"type":"Feature","geometry":{"type":"Point","coordinates":[-122.268415,37.88058]},"properties":{"listingKey":"20251118191812697475000000","listingId":"01-41117635","listPrice":4700000,"city":"Berkeley","baths":0,"slug":"20251118191812697475000000","mlsSource":"CRMLS","propertyType":"C","associationFee":0,"unparsedAddress":"1444 Walnut St, Berkeley, CA 94709"}},{"type":"Feature","geometry":{"type":"Point","coordinates":[-122.282948,37.872732]},"properties":{"listingKey":"20251017002609262869000000","listingId":"01-41114986","listPrice":899000,"city":"Berkeley","baths":1,"slug":"20251017002609262869000000","mlsSource":"CRMLS","propertyType":"A","propertySubType":"Single Family Residence","livingArea":976,"unparsedAddress":"1436 Delaware St, Berkeley, CA 94702"}},{"type":"Feature","id":487815,"properties":{"cluster":true,"cluster_id":487815,"point_count":2,"point_count_abbreviated":2},"geometry":{"type":"Point","coordinates":[-122.29038208723068,37.87080093949645]}},{"type":"Feature","id":163945,"properties":{"cluster":true,"cluster_id":163945,"point_count":2,"point_count_abbreviated":2},"geometry":{"type":"Point","coordinates":[-122.27762818336487,37.86867087689808]}},{"type":"Feature","geometry":{"type":"Point","coordinates":[-122.2819,37.866173]},"properties":{"listingKey":"20251008162355453390000000","listingId":"01-41114080","listPrice":825000,"city":"Berkeley","baths":1,"slug":"20251008162355453390000000","mlsSource":"CRMLS","propertyType":"A","propertySubType":"Single Family Residence","livingArea":995,"unparsedAddress":"2230 Sacramento St, Berkeley, CA 94702"}},{"type":"Feature","id":527655,"properties":{"cluster":true,"cluster_id":527655,"point_count":3,"point_count_abbreviated":3},"geometry":{"type":"Point","coordinates":[-122.29449927806854,37.86458561437331]}},{"type":"Feature","geometry":{"type":"Point","coordinates":[-122.265505,37.859903]},"properties":{"listingKey":"20251003004826541731000000","listingId":"01-41113590","listPrice":5490,"city":"Berkeley","baths":2,"slug":"20251003004826541731000000","mlsSource":"CRMLS","propertyType":"B","propertySubType":"Duplex","livingArea":1650,"unparsedAddress":"2141 Ward St, Berkeley, CA 94705"}},{"type":"Feature","geometry":{"type":"Point","coordinates":[-122.286322,37.857706]},"properties":{"listingKey":"20251119203015716537000000","listingId":"01-41117800","listPrice":999000,"city":"Berkeley","baths":4,"slug":"20251119203015716537000000","mlsSource":"CRMLS","propertyType":"A","propertySubType":"Single Family Residence","livingArea":1654,"unparsedAddress":"2703 Mathews St, Berkeley, CA 94702"}}]