[{"type":"Feature","id":388998,"properties":{"cluster":true,"cluster_id":388998,"point_count":3,"point_count_abbreviated":3},"geometry":{"type":"Point","coordinates":[-117.20772743225098,33.48962983735255]}},{"type":"Feature","geometry":{"type":"Point","coordinates":[-117.191205,33.501762]},"properties":{"listingKey":"20251008045705326250000000","listingId":"IV-25234989","listPrice":2100000,"city":"Temecula","baths":5,"slug":"20251008045705326250000000","mlsSource":"CRMLS","propertyType":"A","propertySubType":"Single Family Residence","livingArea":4966,"associationFee":0,"unparsedAddress":"43110 Palomino, Temecula, CA 92590"}},{"type":"Feature","geometry":{"type":"Point","coordinates":[-117.187935,33.476354]},"properties":{"listingKey":"20251029223346294278000000","listingId":"OC-25248633","listPrice":2699900,"city":"Temecula","baths":4.5,"slug":"20251029223346294278000000","mlsSource":"CRMLS","propertyType":"A","propertySubType":"Single Family Residence","livingArea":4430,"associationFee":290,"unparsedAddress":"44915 Palladian Court, Temecula, CA 92590"}},{"type":"Feature","geometry":{"type":"Point","coordinates":[-117.175883,33.473588]},"properties":{"listingKey":"20250908021654542197000000","listingId":"SW-25201488","listPrice":2799000,"city":"Temecula","baths":3.5,"slug":"20250908021654542197000000","mlsSource":"CRMLS","propertyType":"A","propertySubType":"Single Family Residence","livingArea":4092,"associationFee":60,"unparsedAddress":"49650 Via Vaquero, Temecula, CA 92590"}},{"type":"Feature","geometry":{"type":"Point","coordinates":[-117.177194,33.483477]},"properties":{"listingKey":"20251029185917345385000000","listingId":"SW-25157303","listPrice":2875000,"city":"Temecula","baths":3.5,"slug":"20251029185917345385000000","mlsSource":"CRMLS","propertyType":"A","propertySubType":"Single Family Residence","livingArea":3844,"associationFee":0,"unparsedAddress":"27630 Morning Glory Circle, Temecula, CA 92590"}},{"type":"Feature","geometry":{"type":"Point","coordinates":[-117.229369,33.473684]},"properties":{"listingKey":"20250804045932506113000000","listingId":"SW-25174548","listPrice":1699000,"city":"Temecula","baths":4.5,"slug":"20250804045932506113000000","mlsSource":"CRMLS","propertyType":"A","propertySubType":"Single Family Residence","livingArea":4861,"associationFee":80,"unparsedAddress":"46366 Sandia Creek Drive, Temecula, CA 92590"}},{"type":"Feature","geometry":{"type":"Point","coordinates":[-117.228027,33.452379]},"properties":{"listingKey":"20250925041555408796000000","listingId":"SW-25224434","listPrice":1649000,"city":"Temecula","baths":4,"slug":"20250925041555408796000000","mlsSource":"CRMLS","propertyType":"A","propertySubType":"Single Family Residence","livingArea":3689,"associationFee":0,"unparsedAddress":"26525 Carancho Road, Temecula, CA 92590"}},{"type":"Feature","geometry":{"type":"Point","coordinates":[-117.21162,33.478359]},"properties":{"listingKey":"20250704050631848350000000","listingId":"SW-25127037","listPrice":3194000,"city":"Temecula","baths":5.5,"slug":"20250704050631848350000000","mlsSource":"CRMLS","propertyType":"A","propertySubType":"Single Family Residence","livingArea":6100,"associationFee":125,"unparsedAddress":"45200 Oak Manor Ct, Temecula, CA 92590"}}]