[{"type":"Feature","id":380518,"properties":{"cluster":true,"cluster_id":380518,"point_count":4,"point_count_abbreviated":4},"geometry":{"type":"Point","coordinates":[-117.2062361240387,33.21686115884749]}},{"type":"Feature","geometry":{"type":"Point","coordinates":[-117.205386,33.260796]},"properties":{"listingKey":"20251110182434164411000000","listingId":"OC-25257394","listPrice":1350000,"city":"Bonsall","baths":2.5,"slug":"20251110182434164411000000","mlsSource":"CRMLS","propertyType":"A","propertySubType":"Single Family Residence","livingArea":3155,"associationFee":0,"unparsedAddress":"1973 Vista Del Mar, Bonsall, CA 92003"}},{"type":"Feature","id":712296,"properties":{"cluster":true,"cluster_id":712296,"point_count":2,"point_count_abbreviated":2},"geometry":{"type":"Point","coordinates":[-117.19836384057999,33.25409373515215]}},{"type":"Feature","id":458406,"properties":{"cluster":true,"cluster_id":458406,"point_count":3,"point_count_abbreviated":3},"geometry":{"type":"Point","coordinates":[-117.19261765480043,33.27333347281112]}},{"type":"Feature","id":376166,"properties":{"cluster":true,"cluster_id":376166,"point_count":4,"point_count_abbreviated":4},"geometry":{"type":"Point","coordinates":[-117.18655005097389,33.23903525149329]}},{"type":"Feature","geometry":{"type":"Point","coordinates":[-117.185026,33.254314]},"properties":{"listingKey":"20251030215909856021000000","listingId":"8N-2510408","listPrice":1499000,"city":"Vista","baths":3.5,"slug":"20251030215909856021000000","mlsSource":"CRMLS","propertyType":"A","propertySubType":"Single Family Residence","livingArea":3644,"associationFee":0,"unparsedAddress":"3068 Southwind Lane, Vista, CA 92084"}},{"type":"Feature","geometry":{"type":"Point","coordinates":[-117.162278,33.272914]},"properties":{"listingKey":"20251105231415821154000000","listingId":"8N-2510591","listPrice":1155000,"city":"Bonsall","baths":2,"slug":"20251105231415821154000000","mlsSource":"CRMLS","propertyType":"A","propertySubType":"Single Family Residence","livingArea":2305,"associationFee":0,"unparsedAddress":"31220 Aquaduct Rd., Bonsall, CA 92003"}},{"type":"Feature","id":130182,"properties":{"cluster":true,"cluster_id":130182,"point_count":7,"point_count_abbreviated":7},"geometry":{"type":"Point","coordinates":[-117.23355403968266,33.21201795150492]}},{"type":"Feature","id":414822,"properties":{"cluster":true,"cluster_id":414822,"point_count":3,"point_count_abbreviated":3},"geometry":{"type":"Point","coordinates":[-117.2286343574524,33.25039721078886]}},{"type":"Feature","id":200742,"properties":{"cluster":true,"cluster_id":200742,"point_count":6,"point_count_abbreviated":6},"geometry":{"type":"Point","coordinates":[-117.22637683153152,33.21966903632047]}},{"type":"Feature","geometry":{"type":"Point","coordinates":[-117.22499,33.231389]},"properties":{"listingKey":"20251015233213906760000000","listingId":"8N-2509965","listPrice":4600,"city":"Vista","baths":2.5,"slug":"20251015233213906760000000","mlsSource":"CRMLS","propertyType":"B","propertySubType":"Single Family Residence","livingArea":1857,"unparsedAddress":"1132 Cherry Tree Lane, Vista, CA 92084"}},{"type":"Feature","geometry":{"type":"Point","coordinates":[-117.219596,33.259677]},"properties":{"listingKey":"20251029041430201507000000","listingId":"8N-2510346","listPrice":1650000,"city":"Vista","baths":2.5,"slug":"20251029041430201507000000","mlsSource":"CRMLS","propertyType":"A","propertySubType":"Single Family Residence","livingArea":2709,"associationFee":0,"unparsedAddress":"1596 Aldorado Drive, Vista, CA 92084"}},{"type":"Feature","id":400806,"properties":{"cluster":true,"cluster_id":400806,"point_count":3,"point_count_abbreviated":3},"geometry":{"type":"Point","coordinates":[-117.21743881702425,33.28344803507537]}},{"type":"Feature","geometry":{"type":"Point","coordinates":[-117.219601,33.212971]},"properties":{"listingKey":"20251105185833246588000000","listingId":"8N-2510575","listPrice":1299000,"city":"Vista","baths":3,"slug":"20251105185833246588000000","mlsSource":"CRMLS","propertyType":"A","propertySubType":"Single Family Residence","livingArea":3015,"associationFee":0,"unparsedAddress":"1248 Via Christina, Vista, CA 92084"}},{"type":"Feature","geometry":{"type":"Point","coordinates":[-117.213003,33.230874]},"properties":{"listingKey":"20251008210650362377000000","listingId":"8N-2509750","listPrice":1228777,"city":"Vista","baths":3.5,"slug":"20251008210650362377000000","mlsSource":"CRMLS","propertyType":"A","propertySubType":"Single Family Residence","livingArea":2760,"associationFee":0,"unparsedAddress":"1650 Elevado Road, Vista, CA 92084"}}]