[{"type":"Feature","id":179942,"properties":{"cluster":true,"cluster_id":179942,"point_count":2,"point_count_abbreviated":2},"geometry":{"type":"Point","coordinates":[-117.20600545406342,32.93637839612076]}},{"type":"Feature","geometry":{"type":"Point","coordinates":[-117.204823,32.944496]},"properties":{"listingKey":"20250930202210186669000000","listingId":"8P-2507408","listPrice":8900,"city":"San Diego","baths":3.5,"slug":"20250930202210186669000000","mlsSource":"CRMLS","propertyType":"B","propertySubType":"Single Family Residence","livingArea":3439,"unparsedAddress":"5286 Caminito Vista Lujo, San Diego, CA 92130"}},{"type":"Feature","id":459046,"properties":{"cluster":true,"cluster_id":459046,"point_count":2,"point_count_abbreviated":2},"geometry":{"type":"Point","coordinates":[-117.196746468544,32.95983185651667]}},{"type":"Feature","id":430345,"properties":{"cluster":true,"cluster_id":430345,"point_count":2,"point_count_abbreviated":2},"geometry":{"type":"Point","coordinates":[-117.19664454460144,32.93872852424914]}},{"type":"Feature","id":315559,"properties":{"cluster":true,"cluster_id":315559,"point_count":2,"point_count_abbreviated":2},"geometry":{"type":"Point","coordinates":[-117.16786444187164,32.92241590696919]}},{"type":"Feature","geometry":{"type":"Point","coordinates":[-117.19523,32.980448]},"properties":{"listingKey":"20251028012657797850000000","listingId":"8N-2510323","listPrice":5495000,"city":"Rancho Santa Fe","baths":7,"slug":"20251028012657797850000000","mlsSource":"CRMLS","propertyType":"A","propertySubType":"Single Family Residence","livingArea":5635,"associationFee":675,"unparsedAddress":"5936 Fairway Place, Rancho Santa Fe, CA 92067"}},{"type":"Feature","geometry":{"type":"Point","coordinates":[-117.186973,32.917017]},"properties":{"listingKey":"20251106224835572937000000","listingId":"8N-2510644","listPrice":1755000,"city":"San Diego","baths":3,"slug":"20251106224835572937000000","mlsSource":"CRMLS","propertyType":"A","propertySubType":"Single Family Residence","livingArea":2893,"associationFee":81,"unparsedAddress":"6181 Sunset Crest Way, San Diego, CA 92121"}},{"type":"Feature","id":185990,"properties":{"cluster":true,"cluster_id":185990,"point_count":6,"point_count_abbreviated":6},"geometry":{"type":"Point","coordinates":[-117.17205315828325,32.985728468085426]}},{"type":"Feature","id":156838,"properties":{"cluster":true,"cluster_id":156838,"point_count":4,"point_count_abbreviated":4},"geometry":{"type":"Point","coordinates":[-117.23626747727394,32.95616119301033]}},{"type":"Feature","id":120646,"properties":{"cluster":true,"cluster_id":120646,"point_count":9,"point_count_abbreviated":9},"geometry":{"type":"Point","coordinates":[-117.23232567310333,32.944445007715146]}},{"type":"Feature","id":184326,"properties":{"cluster":true,"cluster_id":184326,"point_count":2,"point_count_abbreviated":2},"geometry":{"type":"Point","coordinates":[-117.2294157743454,32.9870768700209]}},{"type":"Feature","geometry":{"type":"Point","coordinates":[-117.229504,32.973415]},"properties":{"listingKey":"20250729070325475255000000","listingId":"8N-2507402","listPrice":33000,"city":"San Diego","baths":6.5,"slug":"20250729070325475255000000","mlsSource":"CRMLS","propertyType":"B","propertySubType":"Single Family Residence","livingArea":11758,"unparsedAddress":"4130 Rancho Las Brisas Trl, San Diego, CA 92130"}},{"type":"Feature","geometry":{"type":"Point","coordinates":[-117.231344,32.92466]},"properties":{"listingKey":"20251013215328859058000000","listingId":"8N-2509895","listPrice":5850,"city":"San Diego","baths":2.5,"slug":"20251013215328859058000000","mlsSource":"CRMLS","propertyType":"B","propertySubType":"Single Family Residence","livingArea":2000,"unparsedAddress":"11323 WEST SAN RAPHAEL DRIVEWAY, San Diego, CA 92130"}},{"type":"Feature","id":240999,"properties":{"cluster":true,"cluster_id":240999,"point_count":2,"point_count_abbreviated":2},"geometry":{"type":"Point","coordinates":[-117.21773207187653,32.983940566350725]}},{"type":"Feature","geometry":{"type":"Point","coordinates":[-117.217155,32.942619]},"properties":{"listingKey":"20251029231455360525000000","listingId":"8N-2510370","listPrice":1650000,"city":"Carmel Valley","baths":3,"slug":"20251029231455360525000000","mlsSource":"CRMLS","propertyType":"A","propertySubType":"Single Family Residence","livingArea":2000,"associationFee":0,"unparsedAddress":"4615 Da Vinci Street, Carmel Valley, CA 92130"}},{"type":"Feature","geometry":{"type":"Point","coordinates":[-117.215068,32.970453]},"properties":{"listingKey":"20251101014918579061000000","listingId":"8N-2510464","listPrice":6895000,"city":"San Diego","baths":6,"slug":"20251101014918579061000000","mlsSource":"CRMLS","propertyType":"A","propertySubType":"Single Family Residence","livingArea":8128,"associationFee":800,"unparsedAddress":"4860 Rancho Verde Trail, San Diego, CA 92130"}},{"type":"Feature","id":235527,"properties":{"cluster":true,"cluster_id":235527,"point_count":2,"point_count_abbreviated":2},"geometry":{"type":"Point","coordinates":[-117.21365511417389,32.95604191076782]}}]