[{"type":"Feature","geometry":{"type":"Point","coordinates":[-117.07031,32.693112]},"properties":{"listingKey":"20251118205801449303000000","listingId":"8P-2508642","listPrice":829000,"city":"San Diego","baths":3,"slug":"20251118205801449303000000","mlsSource":"CRMLS","propertyType":"A","propertySubType":"Single Family Residence","livingArea":2139,"associationFee":0,"unparsedAddress":"5868 Greycourt Avenue, San Diego, CA 92114"}},{"type":"Feature","geometry":{"type":"Point","coordinates":[-117.082004,32.667003]},"properties":{"listingKey":"20251028193401873858000000","listingId":"8P-2508140","listPrice":519000,"city":"National City","baths":2,"slug":"20251028193401873858000000","mlsSource":"CRMLS","propertyType":"A","propertySubType":"Condominium","livingArea":1081,"associationFee":474,"unparsedAddress":"1915 Via Las Palmas, 32A, National City, CA 91950"}},{"type":"Feature","geometry":{"type":"Point","coordinates":[-117.09039,32.667768]},"properties":{"listingKey":"20251030183454677085000000","listingId":"8P-2508190","listPrice":2645,"city":"National City","baths":1,"slug":"20251030183454677085000000","mlsSource":"CRMLS","propertyType":"B","propertySubType":"Duplex","livingArea":750,"associationFee":0,"unparsedAddress":"2110 L Avenue, 2114, National City, CA 91950"}},{"type":"Feature","geometry":{"type":"Point","coordinates":[-117.087674,32.690686]},"properties":{"listingKey":"20251105201416999333000000","listingId":"8P-2508355","listPrice":799999,"city":"National City","baths":2,"slug":"20251105201416999333000000","mlsSource":"CRMLS","propertyType":"A","propertySubType":"Single Family Residence","livingArea":1596,"associationFee":0,"unparsedAddress":"2104 Beta Street, National City, CA 91950"}},{"type":"Feature","id":323879,"properties":{"cluster":true,"cluster_id":323879,"point_count":4,"point_count_abbreviated":4},"geometry":{"type":"Point","coordinates":[-117.08589747548103,32.68144794909874]}},{"type":"Feature","id":579943,"properties":{"cluster":true,"cluster_id":579943,"point_count":3,"point_count_abbreviated":3},"geometry":{"type":"Point","coordinates":[-117.11011826992036,32.68847626186523]}},{"type":"Feature","geometry":{"type":"Point","coordinates":[-117.104269,32.679648]},"properties":{"listingKey":"20250921071922878817000000","listingId":"8P-2507217","listPrice":2500,"city":"National City","baths":1,"slug":"20250921071922878817000000","mlsSource":"CRMLS","propertyType":"B","livingArea":794,"associationFee":0,"unparsedAddress":"331 East 5th Street, National City, CA 91950"}},{"type":"Feature","id":373449,"properties":{"cluster":true,"cluster_id":373449,"point_count":2,"point_count_abbreviated":2},"geometry":{"type":"Point","coordinates":[-117.10640966892242,32.67548774728402]}},{"type":"Feature","geometry":{"type":"Point","coordinates":[-117.096574,32.660321]},"properties":{"listingKey":"20250716040816463629000000","listingId":"WS-25159091","listPrice":1635000,"city":"San Diego","baths":0,"slug":"20250716040816463629000000","mlsSource":"CRMLS","propertyType":"C","propertySubType":"Triplex","livingArea":2283,"associationFee":0,"unparsedAddress":"348 27th Street, San Diego, CA 92102"}},{"type":"Feature","id":189353,"properties":{"cluster":true,"cluster_id":189353,"point_count":2,"point_count_abbreviated":2},"geometry":{"type":"Point","coordinates":[-117.09722846746445,32.66644734889344]}}]