[{"type":"Feature","geometry":{"type":"Point","coordinates":[-118.965102,35.384101]},"properties":{"listingKey":"20250904041352547521000000","listingId":"DW-25198352","listPrice":415000,"city":"Bakersfield","baths":2,"slug":"20250904041352547521000000","mlsSource":"CRMLS","propertyType":"A","propertySubType":"Single Family Residence","livingArea":1593,"associationFee":0,"unparsedAddress":"2244 Corto st, Bakersfield, CA 93505"}},{"type":"Feature","geometry":{"type":"Point","coordinates":[-118.983858,35.382266]},"properties":{"listingKey":"20251013170803224621000000","listingId":"OC-25238332","listPrice":330000,"city":"Bakersfield","baths":2,"slug":"20251013170803224621000000","mlsSource":"CRMLS","propertyType":"A","propertySubType":"Single Family Residence","livingArea":1315,"associationFee":0,"unparsedAddress":"1107 Pacific, Bakersfield, CA 93305"}},{"type":"Feature","geometry":{"type":"Point","coordinates":[-118.960817,35.381092]},"properties":{"listingKey":"20251114174525201924000000","listingId":"MC-25260547","listPrice":410000,"city":"Bakersfield","baths":2.5,"slug":"20251114174525201924000000","mlsSource":"CRMLS","propertyType":"A","propertySubType":"Single Family Residence","livingArea":2282,"associationFee":0,"unparsedAddress":"1717 Locust Ravine, Bakersfield, CA 93306"}},{"type":"Feature","geometry":{"type":"Point","coordinates":[-118.989818,35.377454]},"properties":{"listingKey":"20251115054110750716000000","listingId":"OC-25261082","listPrice":1300,"city":"Bakersfield","baths":1,"slug":"20251115054110750716000000","mlsSource":"CRMLS","propertyType":"B","propertySubType":"Duplex","livingArea":884,"associationFee":0,"unparsedAddress":"820 Jackson, Bakersfield, CA 93305"}},{"type":"Feature","id":255143,"properties":{"cluster":true,"cluster_id":255143,"point_count":2,"point_count_abbreviated":2},"geometry":{"type":"Point","coordinates":[-118.98407131433487,35.36175608332951]}}]