[{"type":"Feature","id":39240,"properties":{"cluster":true,"cluster_id":39240,"point_count":2,"point_count_abbreviated":2},"geometry":{"type":"Point","coordinates":[-116.28899842500687,33.78358821468876]}},{"type":"Feature","id":76232,"properties":{"cluster":true,"cluster_id":76232,"point_count":2,"point_count_abbreviated":2},"geometry":{"type":"Point","coordinates":[-116.29478931427002,33.781907304982624]}},{"type":"Feature","geometry":{"type":"Point","coordinates":[-116.286219,33.78094]},"properties":{"listingKey":"20250826190315641656000000","listingId":"219134741","listPrice":644900,"city":"Palm Desert","baths":2.5,"slug":"20250826190315641656000000","mlsSource":"GPS","propertyType":"A","propertySubType":"Single Family Residence","livingArea":1900,"associationFee":432,"unparsedAddress":"78700 Sunrise Mountain View, Palm Desert, CA 92211"}},{"type":"Feature","id":45160,"properties":{"cluster":true,"cluster_id":45160,"point_count":5,"point_count_abbreviated":5},"geometry":{"type":"Point","coordinates":[-116.2963857650757,33.789293252637066]}},{"type":"Feature","id":47337,"properties":{"cluster":true,"cluster_id":47337,"point_count":2,"point_count_abbreviated":2},"geometry":{"type":"Point","coordinates":[-116.2992525100708,33.79395383850432]}},{"type":"Feature","geometry":{"type":"Point","coordinates":[-116.295152,33.794778]},"properties":{"listingKey":"20250822005517222488000000","listingId":"219134262","listPrice":4950,"city":"Palm Desert","baths":1.75,"slug":"20250822005517222488000000","mlsSource":"GPS","propertyType":"B","propertySubType":"Single Family Residence","livingArea":1664,"associationFee":442,"unparsedAddress":"78322 Vinewood Drive, Palm Desert, CA 92211"}},{"type":"Feature","geometry":{"type":"Point","coordinates":[-116.291133,33.797352]},"properties":{"listingKey":"20250821141001382974000000","listingId":"219134232","listPrice":799900,"city":"Palm Desert","baths":3,"slug":"20250821141001382974000000","mlsSource":"GPS","propertyType":"A","propertySubType":"Single Family Residence","livingArea":2354,"associationFee":442,"unparsedAddress":"78634 Falsetto Drive, Palm Desert, CA 92211"}},{"type":"Feature","geometry":{"type":"Point","coordinates":[-116.296363,33.796847]},"properties":{"listingKey":"20251111003409153161000000","listingId":"219138626","listPrice":610000,"city":"Palm Desert","baths":1.75,"slug":"20251111003409153161000000","mlsSource":"GPS","propertyType":"A","propertySubType":"Single Family Residence","livingArea":2032,"associationFee":442,"unparsedAddress":"78241 Hollister Drive, Palm Desert, CA 92211"}},{"type":"Feature","geometry":{"type":"Point","coordinates":[-116.287242,33.795956]},"properties":{"listingKey":"20250802152438102884000000","listingId":"219133673","listPrice":699900,"city":"Palm Desert","baths":2.5,"slug":"20250802152438102884000000","mlsSource":"GPS","propertyType":"A","propertySubType":"Single Family Residence","livingArea":2473,"associationFee":440,"unparsedAddress":"78802 Falsetto Drive, Palm Desert, CA 92211"}},{"type":"Feature","geometry":{"type":"Point","coordinates":[-116.285478,33.788329]},"properties":{"listingKey":"20250929232936469852000000","listingId":"219136065","listPrice":5500,"city":"Palm Desert","baths":2.5,"slug":"20250929232936469852000000","mlsSource":"GPS","propertyType":"B","propertySubType":"Single Family Residence","livingArea":1900,"associationFee":1,"unparsedAddress":"35875 Donny Circle, Palm Desert, CA 92211"}},{"type":"Feature","id":76040,"properties":{"cluster":true,"cluster_id":76040,"point_count":3,"point_count_abbreviated":3},"geometry":{"type":"Point","coordinates":[-116.2865459918976,33.793025070350836]}},{"type":"Feature","geometry":{"type":"Point","coordinates":[-116.283749,33.785727]},"properties":{"listingKey":"20251119073646560447000000","listingId":"PW-25262891","listPrice":430000,"city":"Palm Desert","baths":1.75,"slug":"20251119073646560447000000","mlsSource":"CRMLS","propertyType":"A","propertySubType":"Single Family Residence","livingArea":1380,"associationFee":1294.5,"unparsedAddress":"78882 Canyon Vista, Palm Desert, CA 92211"}}]