[{"type":"Feature","geometry":{"type":"Point","coordinates":[-116.287281,33.737306]},"properties":{"listingKey":"20250924205516640074000000","listingId":"219135834","listPrice":6000,"city":"Bermuda Dunes","baths":2.5,"slug":"20250924205516640074000000","mlsSource":"GPS","propertyType":"B","propertySubType":"Single Family Residence","livingArea":1920,"associationFee":214,"unparsedAddress":"78950 Starlight Lane, Bermuda Dunes, CA 92203"}},{"type":"Feature","geometry":{"type":"Point","coordinates":[-116.281802,33.731543]},"properties":{"listingKey":"20251013213436053445000000","listingId":"219137002","listPrice":1050000,"city":"Bermuda Dunes","baths":2.75,"slug":"20251013213436053445000000","mlsSource":"GPS","propertyType":"A","propertySubType":"Single Family Residence","livingArea":3454,"associationFee":224,"unparsedAddress":"43761 Chapelton Drive, Bermuda Dunes, CA 92203"}},{"type":"Feature","geometry":{"type":"Point","coordinates":[-116.283234,33.725309]},"properties":{"listingKey":"20251024201741197049000000","listingId":"219137586","listPrice":3150,"city":"La Quinta","baths":2,"slug":"20251024201741197049000000","mlsSource":"GPS","propertyType":"B","propertySubType":"Single Family Residence","livingArea":1968,"associationFee":0,"unparsedAddress":"79120 Canterra Drive, La Quinta, CA 92253"}},{"type":"Feature","id":88232,"properties":{"cluster":true,"cluster_id":88232,"point_count":2,"point_count_abbreviated":2},"geometry":{"type":"Point","coordinates":[-116.28580123186111,33.73009504227289]}},{"type":"Feature","id":68232,"properties":{"cluster":true,"cluster_id":68232,"point_count":4,"point_count_abbreviated":4},"geometry":{"type":"Point","coordinates":[-116.2843930721283,33.73300158582555]}},{"type":"Feature","id":38792,"properties":{"cluster":true,"cluster_id":38792,"point_count":2,"point_count_abbreviated":2},"geometry":{"type":"Point","coordinates":[-116.2795490026474,33.72615108669656]}},{"type":"Feature","geometry":{"type":"Point","coordinates":[-116.284518,33.736884]},"properties":{"listingKey":"20251018040045508828000000","listingId":"219137220","listPrice":999000,"city":"Bermuda Dunes","baths":3,"slug":"20251018040045508828000000","mlsSource":"GPS","propertyType":"A","propertySubType":"Single Family Residence","livingArea":3324,"associationFee":224,"unparsedAddress":"79100 Barwick Place, Bermuda Dunes, CA 92203"}},{"type":"Feature","id":78697,"properties":{"cluster":true,"cluster_id":78697,"point_count":2,"point_count_abbreviated":2},"geometry":{"type":"Point","coordinates":[-116.28575563430786,33.73999428605343]}},{"type":"Feature","id":81897,"properties":{"cluster":true,"cluster_id":81897,"point_count":3,"point_count_abbreviated":3},"geometry":{"type":"Point","coordinates":[-116.2834668159485,33.74109314023107]}},{"type":"Feature","id":71208,"properties":{"cluster":true,"cluster_id":71208,"point_count":2,"point_count_abbreviated":2},"geometry":{"type":"Point","coordinates":[-116.2823224067688,33.73485074763141]}},{"type":"Feature","id":62696,"properties":{"cluster":true,"cluster_id":62696,"point_count":8,"point_count_abbreviated":8},"geometry":{"type":"Point","coordinates":[-116.30059964954853,33.72716720796875]}},{"type":"Feature","geometry":{"type":"Point","coordinates":[-116.29652,33.725119]},"properties":{"listingKey":"20251013221656573724000000","listingId":"219136897","listPrice":725000,"city":"La Quinta","baths":2.5,"slug":"20251013221656573724000000","mlsSource":"GPS","propertyType":"A","propertySubType":"Single Family Residence","livingArea":2443,"associationFee":215,"unparsedAddress":"78440 Via Palomino, La Quinta, CA 92253"}},{"type":"Feature","id":47880,"properties":{"cluster":true,"cluster_id":47880,"point_count":2,"point_count_abbreviated":2},"geometry":{"type":"Point","coordinates":[-116.2942287325859,33.72749847651859]}},{"type":"Feature","geometry":{"type":"Point","coordinates":[-116.298328,33.73058]},"properties":{"listingKey":"20251002165837833179000000","listingId":"219136236","listPrice":725000,"city":"La Quinta","baths":3,"slug":"20251002165837833179000000","mlsSource":"GPS","propertyType":"A","propertySubType":"Single Family Residence","livingArea":2523,"associationFee":43,"unparsedAddress":"43875 Milan Court, La Quinta, CA 92253"}},{"type":"Feature","id":85736,"properties":{"cluster":true,"cluster_id":85736,"point_count":2,"point_count_abbreviated":2},"geometry":{"type":"Point","coordinates":[-116.29707723855972,33.74150650798299]}},{"type":"Feature","id":61096,"properties":{"cluster":true,"cluster_id":61096,"point_count":9,"point_count_abbreviated":9},"geometry":{"type":"Point","coordinates":[-116.29767179489137,33.7273765282]}},{"type":"Feature","geometry":{"type":"Point","coordinates":[-116.292998,33.731489]},"properties":{"listingKey":"20251105205131973607000000","listingId":"219138271","listPrice":700000,"city":"La Quinta","baths":3,"slug":"20251105205131973607000000","mlsSource":"GPS","propertyType":"A","propertySubType":"Single Family Residence","livingArea":2730,"associationFee":0,"unparsedAddress":"78707 Torino Drive, La Quinta, CA 92253"}},{"type":"Feature","id":93768,"properties":{"cluster":true,"cluster_id":93768,"point_count":2,"point_count_abbreviated":2},"geometry":{"type":"Point","coordinates":[-116.29038780927658,33.7415154295672]}},{"type":"Feature","geometry":{"type":"Point","coordinates":[-116.290471,33.727465]},"properties":{"listingKey":"20250904000658958479000000","listingId":"PW-25193606","listPrice":649000,"city":"La Quinta","baths":2,"slug":"20250904000658958479000000","mlsSource":"CRMLS","propertyType":"A","propertySubType":"Single Family Residence","livingArea":1798,"associationFee":0,"unparsedAddress":"78755 Villeta Drive, La Quinta, CA 92253"}},{"type":"Feature","id":40840,"properties":{"cluster":true,"cluster_id":40840,"point_count":3,"point_count_abbreviated":3},"geometry":{"type":"Point","coordinates":[-116.28972172737123,33.73165948726114]}},{"type":"Feature","geometry":{"type":"Point","coordinates":[-116.290119,33.737326]},"properties":{"listingKey":"20250922182641641820000000","listingId":"219135701","listPrice":2990000,"city":"Bermuda Dunes","baths":6,"slug":"20250922182641641820000000","mlsSource":"GPS","propertyType":"A","propertySubType":"Single Family Residence","livingArea":6856,"associationFee":223,"unparsedAddress":"78770 Starlight Lane, Bermuda Dunes, CA 92203"}},{"type":"Feature","geometry":{"type":"Point","coordinates":[-116.300183,33.742508]},"properties":{"listingKey":"20251004002737239457000000","listingId":"219136382","listPrice":599000,"city":"Bermuda Dunes","baths":2,"slug":"20251004002737239457000000","mlsSource":"GPS","propertyType":"A","propertySubType":"Single Family Residence","livingArea":2149,"associationFee":0,"unparsedAddress":"78206 Sombrero Court, Bermuda Dunes, CA 92203"}}]