[{"type":"Feature","geometry":{"type":"Point","coordinates":[-121.978624,37.957896]},"properties":{"listingKey":"20251007011452217630000000","listingId":"01-41113891","listPrice":599000,"city":"Concord","baths":2.5,"slug":"20251007011452217630000000","mlsSource":"CRMLS","propertyType":"A","propertySubType":"Townhouse","livingArea":1378,"associationFee":434,"unparsedAddress":"4839 Boxer Blvd, Concord, CA 94521"}},{"type":"Feature","geometry":{"type":"Point","coordinates":[-121.971638,37.953711]},"properties":{"listingKey":"20250924041244411397000000","listingId":"01-41112495","listPrice":950000,"city":"Concord","baths":2.5,"slug":"20250924041244411397000000","mlsSource":"CRMLS","propertyType":"A","propertySubType":"Single Family Residence","livingArea":2325,"unparsedAddress":"5091 Saint Celestine Court, Concord, CA 94521"}},{"type":"Feature","geometry":{"type":"Point","coordinates":[-121.971008,37.955347]},"properties":{"listingKey":"20251102000359058893000000","listingId":"01-41116482","listPrice":480000,"city":"Concord","baths":2,"slug":"20251102000359058893000000","mlsSource":"CRMLS","propertyType":"A","propertySubType":"Condominium","livingArea":1080,"associationFee":526,"unparsedAddress":"5080 Valley Crest Dr, 32, Concord, CA 94521"}},{"type":"Feature","geometry":{"type":"Point","coordinates":[-121.976519,37.958336]},"properties":{"listingKey":"20251114001040765131000000","listingId":"01-41117399","listPrice":329000,"city":"Concord","baths":1,"slug":"20251114001040765131000000","mlsSource":"CRMLS","propertyType":"A","propertySubType":"Condominium","livingArea":741,"associationFee":650,"unparsedAddress":"4888 Clayton Rd, 6, Concord, CA 94521"}},{"type":"Feature","id":518761,"properties":{"cluster":true,"cluster_id":518761,"point_count":2,"point_count_abbreviated":2},"geometry":{"type":"Point","coordinates":[-121.97201192378998,37.956088287565066]}}]