[{"type":"Feature","id":487785,"properties":{"cluster":true,"cluster_id":487785,"point_count":2,"point_count_abbreviated":2},"geometry":{"type":"Point","coordinates":[-117.95785546302795,33.91879092673388]}},{"type":"Feature","id":521161,"properties":{"cluster":true,"cluster_id":521161,"point_count":2,"point_count_abbreviated":2},"geometry":{"type":"Point","coordinates":[-117.96017557382584,33.923500537911465]}},{"type":"Feature","geometry":{"type":"Point","coordinates":[-117.957375,33.920771]},"properties":{"listingKey":"20250522044246775954000000","listingId":"TR-25114147","listPrice":3100,"city":"La Habra","baths":1.5,"slug":"20250522044246775954000000","mlsSource":"CRMLS","propertyType":"B","propertySubType":"Condominium","livingArea":1384,"unparsedAddress":"1008 Las Lomas Drive, C, La Habra, CA 90631"}},{"type":"Feature","geometry":{"type":"Point","coordinates":[-117.956335,33.918749]},"properties":{"listingKey":"20251023031352863750000000","listingId":"PW-25244672","listPrice":1050000,"city":"La Habra","baths":2.5,"slug":"20251023031352863750000000","mlsSource":"CRMLS","propertyType":"A","propertySubType":"Single Family Residence","livingArea":1969,"associationFee":0,"unparsedAddress":"920 Sonora Avenue, La Habra, CA 90631"}},{"type":"Feature","geometry":{"type":"Point","coordinates":[-117.955869,33.922114]},"properties":{"listingKey":"20251106221121047504000000","listingId":"PW-25252324","listPrice":514900,"city":"La Habra","baths":1.5,"slug":"20251106221121047504000000","mlsSource":"CRMLS","propertyType":"A","propertySubType":"Condominium","livingArea":942,"associationFee":385,"unparsedAddress":"875 Las Lomas, B, La Habra, CA 90631"}},{"type":"Feature","geometry":{"type":"Point","coordinates":[-117.951391,33.916396]},"properties":{"listingKey":"20251114003236364183000000","listingId":"PW-25260207","listPrice":4000,"city":"La Habra","baths":2,"slug":"20251114003236364183000000","mlsSource":"CRMLS","propertyType":"B","propertySubType":"Single Family Residence","livingArea":1374,"associationFee":0,"unparsedAddress":"530 West Parkwood Avenue, La Habra, CA 90631"}}]