[{"type":"Feature","geometry":{"type":"Point","coordinates":[-118.362737,34.031045]},"properties":{"listingKey":"20250625142727763069000000","listingId":"OC-25142324","listPrice":2595,"city":"Los Angeles","baths":1,"slug":"20250625142727763069000000","mlsSource":"CRMLS","propertyType":"B","propertySubType":"Quadruplex","livingArea":627,"associationFee":0,"unparsedAddress":"5459 Carlin Street, 1, Los Angeles, CA 90016"}},{"type":"Feature","geometry":{"type":"Point","coordinates":[-118.359113,34.03155]},"properties":{"listingKey":"20251031021723498413000000","listingId":"BB-25251049","listPrice":3400,"city":"Los Angeles","baths":2.5,"slug":"20251031021723498413000000","mlsSource":"CRMLS","propertyType":"B","propertySubType":"Apartment","livingArea":1041,"associationFee":0,"unparsedAddress":"2631 cochran Avenue, Los Angeles, CA 90016"}},{"type":"Feature","geometry":{"type":"Point","coordinates":[-118.362244,34.032962]},"properties":{"listingKey":"20250902034919078223000000","listingId":"DW-25187786","listPrice":768888,"city":"Los Angeles","baths":1,"slug":"20250902034919078223000000","mlsSource":"CRMLS","propertyType":"A","propertySubType":"Single Family Residence","livingArea":1072,"associationFee":0,"unparsedAddress":"2540 Hauser Boulevard, Los Angeles, CA 90016"}},{"type":"Feature","id":842857,"properties":{"cluster":true,"cluster_id":842857,"point_count":2,"point_count_abbreviated":2},"geometry":{"type":"Point","coordinates":[-118.36635053157806,34.030353760108795]}},{"type":"Feature","geometry":{"type":"Point","coordinates":[-118.359144,34.026215]},"properties":{"listingKey":"20250807084430293416000000","listingId":"PW-25177795","listPrice":2899900,"city":"Los Angeles","baths":0,"slug":"20250807084430293416000000","mlsSource":"CRMLS","propertyType":"C","propertySubType":"Quadruplex","livingArea":5138,"associationFee":0,"unparsedAddress":"2927 South Redondo Boulevard, Los Angeles, CA 90016"}}]