[{"type":"Feature","geometry":{"type":"Point","coordinates":[-119.176401,34.195634]},"properties":{"listingKey":"20251106200957806611000000","listingId":"V1-33248","listPrice":1995000,"city":"Oxnard","baths":0,"slug":"20251106200957806611000000","mlsSource":"CRMLS","propertyType":"C","livingArea":4097,"unparsedAddress":"633 Meta Street, Oxnard, CA 93030"}},{"type":"Feature","geometry":{"type":"Point","coordinates":[-119.17875,34.179565]},"properties":{"listingKey":"20251007171932106701000000","listingId":"V1-32732","listPrice":6250000,"city":"Oxnard","baths":0,"slug":"20251007171932106701000000","mlsSource":"CRMLS","propertyType":"C","unparsedAddress":"161 West juniper Street, Oxnard, CA 93033"}},{"type":"Feature","geometry":{"type":"Point","coordinates":[-119.158372,34.177627]},"properties":{"listingKey":"20251120161957298596000000","listingId":"V1-33472","listPrice":680000,"city":"Oxnard","baths":2,"slug":"20251120161957298596000000","mlsSource":"CRMLS","propertyType":"A","propertySubType":"Single Family Residence","livingArea":1611,"unparsedAddress":"1835 Kennedy Place, Oxnard, CA 93033"}},{"type":"Feature","geometry":{"type":"Point","coordinates":[-119.148666,34.175536]},"properties":{"listingKey":"20251009172630469029000000","listingId":"V1-32772","listPrice":2800,"city":"Oxnard","baths":1,"slug":"20251009172630469029000000","mlsSource":"CRMLS","propertyType":"B","propertySubType":"Condominium","livingArea":878,"unparsedAddress":"2530 El Dorado Avenue, Oxnard, CA 93033"}},{"type":"Feature","id":906281,"properties":{"cluster":true,"cluster_id":906281,"point_count":2,"point_count_abbreviated":2},"geometry":{"type":"Point","coordinates":[-119.15610015392303,34.17353137954771]}},{"type":"Feature","id":271943,"properties":{"cluster":true,"cluster_id":271943,"point_count":2,"point_count_abbreviated":2},"geometry":{"type":"Point","coordinates":[-119.14788454771042,34.16340724180162]}},{"type":"Feature","geometry":{"type":"Point","coordinates":[-119.179368,34.165714]},"properties":{"listingKey":"20251104152218214236000000","listingId":"V1-33217","listPrice":649900,"city":"Oxnard","baths":2,"slug":"20251104152218214236000000","mlsSource":"CRMLS","propertyType":"A","propertySubType":"Single Family Residence","livingArea":1657,"unparsedAddress":"172 West Yucca Street, Oxnard, CA 93033"}},{"type":"Feature","geometry":{"type":"Point","coordinates":[-119.167477,34.166051]},"properties":{"listingKey":"20250915141003910490000000","listingId":"V1-32336","listPrice":749999,"city":"Oxnard","baths":2,"slug":"20250915141003910490000000","mlsSource":"CRMLS","propertyType":"A","propertySubType":"Single Family Residence","livingArea":1144,"unparsedAddress":"840 Morro Way, Oxnard, CA 93033"}}]