[{"type":"Feature","geometry":{"type":"Point","coordinates":[-117.594026,33.649618]},"properties":{"listingKey":"20251106002429529686000000","listingId":"PW-25254078","listPrice":4475,"city":"Rancho Santa Margarita","baths":2.5,"slug":"20251106002429529686000000","mlsSource":"CRMLS","propertyType":"B","propertySubType":"Single Family Residence","livingArea":1602,"unparsedAddress":"8 El Arreo, Rancho Santa Margarita, CA 92688"}},{"type":"Feature","id":188680,"properties":{"cluster":true,"cluster_id":188680,"point_count":4,"point_count_abbreviated":4},"geometry":{"type":"Point","coordinates":[-117.59010449051857,33.64017561717691]}},{"type":"Feature","geometry":{"type":"Point","coordinates":[-117.589724,33.636351]},"properties":{"listingKey":"20250928040857057765000000","listingId":"PW-25225919","listPrice":675000,"city":"Rancho Santa Margarita","baths":2,"slug":"20250928040857057765000000","mlsSource":"CRMLS","propertyType":"A","propertySubType":"Condominium","livingArea":1038,"associationFee":507,"unparsedAddress":"31 Santa Agatha, Rancho Santa Margarita, CA 92688"}},{"type":"Feature","id":384424,"properties":{"cluster":true,"cluster_id":384424,"point_count":5,"point_count_abbreviated":5},"geometry":{"type":"Point","coordinates":[-117.58955490589142,33.64698742144995]}},{"type":"Feature","id":147624,"properties":{"cluster":true,"cluster_id":147624,"point_count":5,"point_count_abbreviated":5},"geometry":{"type":"Point","coordinates":[-117.58761727809907,33.6419821174872]}},{"type":"Feature","id":267081,"properties":{"cluster":true,"cluster_id":267081,"point_count":6,"point_count_abbreviated":6},"geometry":{"type":"Point","coordinates":[-117.5853458046913,33.6499802826969]}},{"type":"Feature","geometry":{"type":"Point","coordinates":[-117.582197,33.647969]},"properties":{"listingKey":"20251112020416412196000000","listingId":"OC-25258653","listPrice":3300,"city":"Rancho Santa Margarita","baths":2.5,"slug":"20251112020416412196000000","mlsSource":"CRMLS","propertyType":"B","propertySubType":"Condominium","livingArea":934,"unparsedAddress":"28 Via Esperanza, Rancho Santa Margarita, CA 92688"}},{"type":"Feature","geometry":{"type":"Point","coordinates":[-117.576791,33.649719]},"properties":{"listingKey":"20251118232557947422000000","listingId":"WS-25262676","listPrice":4800,"city":"Trabuco Canyon","baths":3.5,"slug":"20251118232557947422000000","mlsSource":"CRMLS","propertyType":"B","propertySubType":"Townhouse","livingArea":2055,"unparsedAddress":"21406 Dahlia Court, Trabuco Canyon, CA 92679"}},{"type":"Feature","id":150504,"properties":{"cluster":true,"cluster_id":150504,"point_count":3,"point_count_abbreviated":3},"geometry":{"type":"Point","coordinates":[-117.57984280586244,33.65001154151625]}},{"type":"Feature","geometry":{"type":"Point","coordinates":[-117.577108,33.645558]},"properties":{"listingKey":"20251119184824335295000000","listingId":"OC-25262987","listPrice":5495,"city":"Trabuco Canyon","baths":2.75,"slug":"20251119184824335295000000","mlsSource":"CRMLS","propertyType":"B","propertySubType":"Single Family Residence","livingArea":2946,"unparsedAddress":"31785 Via Del Viento, Trabuco Canyon, CA 92679"}},{"type":"Feature","geometry":{"type":"Point","coordinates":[-117.577744,33.636798]},"properties":{"listingKey":"20250828071829408458000000","listingId":"OC-25193190","listPrice":15000000,"city":"Coto de Caza","baths":7.5,"slug":"20250828071829408458000000","mlsSource":"CRMLS","propertyType":"A","propertySubType":"Single Family Residence","livingArea":15000,"associationFee":795,"unparsedAddress":"22442 Via Pajaro, Coto de Caza, CA 92679"}},{"type":"Feature","id":213448,"properties":{"cluster":true,"cluster_id":213448,"point_count":5,"point_count_abbreviated":5},"geometry":{"type":"Point","coordinates":[-117.59620893001556,33.63607791418747]}},{"type":"Feature","id":217544,"properties":{"cluster":true,"cluster_id":217544,"point_count":3,"point_count_abbreviated":3},"geometry":{"type":"Point","coordinates":[-117.59696960449219,33.63919531251685]}},{"type":"Feature","geometry":{"type":"Point","coordinates":[-117.595259,33.646688]},"properties":{"listingKey":"20250720061425600611000000","listingId":"OC-25162974","listPrice":4995,"city":"Rancho Santa Margarita","baths":2.5,"slug":"20250720061425600611000000","mlsSource":"CRMLS","propertyType":"B","propertySubType":"Single Family Residence","livingArea":2038,"unparsedAddress":"7 Mejorana, Rancho Santa Margarita, CA 92688"}}]