[{"type":"Feature","geometry":{"type":"Point","coordinates":[-122.111083,37.996922]},"properties":{"listingKey":"20251021225100054359000000","listingId":"01-41115387","listPrice":289999,"city":"Martinez","baths":2,"slug":"20251021225100054359000000","mlsSource":"CRMLS","propertyType":"A","propertySubType":"Condominium","livingArea":939,"associationFee":565,"unparsedAddress":"398 Mill Rd, Martinez, CA 94553"}},{"type":"Feature","geometry":{"type":"Point","coordinates":[-122.107573,37.999386]},"properties":{"listingKey":"20251022211820335201000000","listingId":"01-41115503","listPrice":949000,"city":"Martinez","baths":2.5,"slug":"20251022211820335201000000","mlsSource":"CRMLS","propertyType":"A","propertySubType":"Single Family Residence","livingArea":1904,"associationFee":186,"unparsedAddress":"321 Liveoak Ct, Martinez, CA 94553"}},{"type":"Feature","geometry":{"type":"Point","coordinates":[-122.111691,38.000089]},"properties":{"listingKey":"20250809153703011299000000","listingId":"01-41107601","listPrice":910420,"city":"Martinez","baths":2.5,"slug":"20250809153703011299000000","mlsSource":"CRMLS","propertyType":"A","propertySubType":"Single Family Residence","livingArea":1803,"associationFee":186,"unparsedAddress":"415 Orchard View Ave, Martinez, CA 94553"}},{"type":"Feature","id":657800,"properties":{"cluster":true,"cluster_id":657800,"point_count":2,"point_count_abbreviated":2},"geometry":{"type":"Point","coordinates":[-122.10635304450989,38.00254160968569]}},{"type":"Feature","id":242089,"properties":{"cluster":true,"cluster_id":242089,"point_count":3,"point_count_abbreviated":3},"geometry":{"type":"Point","coordinates":[-122.12005376815796,37.99813545865889]}},{"type":"Feature","geometry":{"type":"Point","coordinates":[-122.123142,38.001066]},"properties":{"listingKey":"20251118233727729724000000","listingId":"01-41117738","listPrice":799000,"city":"Martinez","baths":2,"slug":"20251118233727729724000000","mlsSource":"CRMLS","propertyType":"A","propertySubType":"Single Family Residence","livingArea":1121,"unparsedAddress":"3102 Pine St, Martinez, CA 94553"}},{"type":"Feature","geometry":{"type":"Point","coordinates":[-122.123537,38.00308]},"properties":{"listingKey":"20251004032312959877000000","listingId":"01-41113775","listPrice":1152000,"city":"Martinez","baths":2,"slug":"20251004032312959877000000","mlsSource":"CRMLS","propertyType":"A","propertySubType":"Single Family Residence","livingArea":2009,"unparsedAddress":"830 Westview Ct, Martinez, CA 94553"}},{"type":"Feature","geometry":{"type":"Point","coordinates":[-122.118195,38.007825]},"properties":{"listingKey":"20251026030817044761000000","listingId":"01-41115861","listPrice":619000,"city":"Martinez","baths":2,"slug":"20251026030817044761000000","mlsSource":"CRMLS","propertyType":"A","propertySubType":"Single Family Residence","livingArea":1043,"unparsedAddress":"2555 Orange St, Martinez, CA 94553"}},{"type":"Feature","geometry":{"type":"Point","coordinates":[-122.123189,38.010236]},"properties":{"listingKey":"20251112223700134378000000","listingId":"01-41117283","listPrice":639999,"city":"Martinez","baths":2,"slug":"20251112223700134378000000","mlsSource":"CRMLS","propertyType":"A","propertySubType":"Single Family Residence","livingArea":1658,"unparsedAddress":"2131 Pomona Ave, Martinez, CA 94553"}},{"type":"Feature","id":602600,"properties":{"cluster":true,"cluster_id":602600,"point_count":4,"point_count_abbreviated":4},"geometry":{"type":"Point","coordinates":[-122.11413949728012,38.00895168506122]}},{"type":"Feature","geometry":{"type":"Point","coordinates":[-122.114031,38.004249]},"properties":{"listingKey":"20251114223700297446000000","listingId":"01-41117512","listPrice":914000,"city":"Martinez","baths":2.5,"slug":"20251114223700297446000000","mlsSource":"CRMLS","propertyType":"A","propertySubType":"Single Family Residence","livingArea":2101,"associationFee":65,"unparsedAddress":"745 Bayshore St, Martinez, CA 94553"}}]