[{"type":"Feature","id":620776,"properties":{"cluster":true,"cluster_id":620776,"point_count":2,"point_count_abbreviated":2},"geometry":{"type":"Point","coordinates":[-122.10467666387558,37.99600203682165]}},{"type":"Feature","geometry":{"type":"Point","coordinates":[-122.107073,37.992869]},"properties":{"listingKey":"20251101231922919696000000","listingId":"01-41116477","listPrice":440000,"city":"Martinez","baths":2,"slug":"20251101231922919696000000","mlsSource":"CRMLS","propertyType":"A","propertySubType":"Condominium","livingArea":1030,"associationFee":562,"unparsedAddress":"1405 Hull Ln, Martinez, CA 94553"}},{"type":"Feature","geometry":{"type":"Point","coordinates":[-122.115565,37.991178]},"properties":{"listingKey":"20250930045400764488000000","listingId":"01-41113071","listPrice":499000,"city":"Martinez","baths":2.5,"slug":"20250930045400764488000000","mlsSource":"CRMLS","propertyType":"A","propertySubType":"Townhouse","livingArea":1390,"associationFee":400,"unparsedAddress":"824 Center Ave, Martinez, CA 94553"}},{"type":"Feature","geometry":{"type":"Point","coordinates":[-122.121208,37.991184]},"properties":{"listingKey":"20251024185309448272000000","listingId":"01-41115742","listPrice":725000,"city":"Martinez","baths":3,"slug":"20251024185309448272000000","mlsSource":"CRMLS","propertyType":"A","propertySubType":"Townhouse","livingArea":1373,"associationFee":303,"unparsedAddress":"512 Laurel Knoll Ct, Martinez, CA 94553"}},{"type":"Feature","geometry":{"type":"Point","coordinates":[-122.114536,37.986217]},"properties":{"listingKey":"20251109015136733337000000","listingId":"01-41117054","listPrice":1300000,"city":"Martinez","baths":3,"slug":"20251109015136733337000000","mlsSource":"CRMLS","propertyType":"A","propertySubType":"Single Family Residence","livingArea":2597,"unparsedAddress":"4900 John Muir Rd, Martinez, CA 94553"}}]