[{"type":"Feature","id":290985,"properties":{"cluster":true,"cluster_id":290985,"point_count":2,"point_count_abbreviated":2},"geometry":{"type":"Point","coordinates":[-117.72128194570541,33.598682674483854]}},{"type":"Feature","geometry":{"type":"Point","coordinates":[-117.721084,33.597892]},"properties":{"listingKey":"20251011023207834559000000","listingId":"OC-25236769","listPrice":829000,"city":"Aliso Viejo","baths":2.5,"slug":"20251011023207834559000000","mlsSource":"CRMLS","propertyType":"A","propertySubType":"Condominium","livingArea":1260,"associationFee":435,"unparsedAddress":"106 Via Athena, Aliso Viejo, CA 92656"}},{"type":"Feature","geometry":{"type":"Point","coordinates":[-117.720936,33.601262]},"properties":{"listingKey":"20251118203144131700000000","listingId":"OC-25261619","listPrice":725000,"city":"Aliso Viejo","baths":2,"slug":"20251118203144131700000000","mlsSource":"CRMLS","propertyType":"A","propertySubType":"Single Family Residence","livingArea":1240,"associationFee":485,"unparsedAddress":"23432 Via San Martine, Aliso Viejo, CA 92656"}},{"type":"Feature","geometry":{"type":"Point","coordinates":[-117.719837,33.59897]},"properties":{"listingKey":"20250909202803631031000000","listingId":"NP-25207007","listPrice":769950,"city":"Aliso Viejo","baths":1.75,"slug":"20250909202803631031000000","mlsSource":"CRMLS","propertyType":"A","propertySubType":"Condominium","livingArea":1162,"associationFee":435,"unparsedAddress":"25 Via Falerno, Aliso Viejo, CA 92656"}},{"type":"Feature","id":178857,"properties":{"cluster":true,"cluster_id":178857,"point_count":2,"point_count_abbreviated":2},"geometry":{"type":"Point","coordinates":[-117.71907985210419,33.605022825683506]}},{"type":"Feature","geometry":{"type":"Point","coordinates":[-117.722224,33.60393]},"properties":{"listingKey":"20251103203313901098000000","listingId":"OC-25252765","listPrice":825000,"city":"Aliso Viejo","baths":2,"slug":"20251103203313901098000000","mlsSource":"CRMLS","propertyType":"A","propertySubType":"Single Family Residence","livingArea":1240,"associationFee":485,"unparsedAddress":"23376 Via San Miguel, Aliso Viejo, CA 92656"}}]