[{"type":"Feature","geometry":{"type":"Point","coordinates":[-117.641191,34.108247]},"properties":{"listingKey":"20251009211759178058000000","listingId":"IV-25236366","listPrice":748900,"city":"Upland","baths":2,"slug":"20251009211759178058000000","mlsSource":"CRMLS","propertyType":"A","propertySubType":"Single Family Residence","livingArea":1529,"associationFee":0,"unparsedAddress":"719 Valadez, Upland, CA 91786"}},{"type":"Feature","geometry":{"type":"Point","coordinates":[-117.633223,34.108961]},"properties":{"listingKey":"20250913030411869557000000","listingId":"IV-25216488","listPrice":739900,"city":"Upland","baths":2,"slug":"20250913030411869557000000","mlsSource":"CRMLS","propertyType":"A","propertySubType":"Single Family Residence","livingArea":1472,"associationFee":0,"unparsedAddress":"1164 North 13th, Upland, CA 91786"}},{"type":"Feature","geometry":{"type":"Point","coordinates":[-117.621634,34.110842]},"properties":{"listingKey":"20251011055709624512000000","listingId":"CV-25237632","listPrice":995000,"city":"Rancho Cucamonga","baths":2.5,"slug":"20251011055709624512000000","mlsSource":"CRMLS","propertyType":"A","propertySubType":"Single Family Residence","livingArea":2163,"associationFee":0,"unparsedAddress":"7862 Alta Cuesta, Rancho Cucamonga, CA 91730"}},{"type":"Feature","geometry":{"type":"Point","coordinates":[-117.620871,34.119621]},"properties":{"listingKey":"20251002043311510761000000","listingId":"WS-25228471","listPrice":719000,"city":"Rancho Cucamonga","baths":1.75,"slug":"20251002043311510761000000","mlsSource":"CRMLS","propertyType":"A","propertySubType":"Single Family Residence","livingArea":1284,"unparsedAddress":"7405 Via Paraiso, Rancho Cucamonga, CA 91730"}},{"type":"Feature","geometry":{"type":"Point","coordinates":[-117.634762,34.113632]},"properties":{"listingKey":"20250913030237170384000000","listingId":"PW-25216404","listPrice":799800,"city":"Upland","baths":2.5,"slug":"20250913030237170384000000","mlsSource":"CRMLS","propertyType":"A","propertySubType":"Single Family Residence","livingArea":1738,"associationFee":0,"unparsedAddress":"1382 Crawford Avenue, Upland, CA 91786"}},{"type":"Feature","geometry":{"type":"Point","coordinates":[-117.63607,34.117018]},"properties":{"listingKey":"20251114022428444998000000","listingId":"CV-25260290","listPrice":920000,"city":"Upland","baths":2,"slug":"20251114022428444998000000","mlsSource":"CRMLS","propertyType":"A","propertySubType":"Single Family Residence","livingArea":1690,"associationFee":0,"unparsedAddress":"1476 Fernando, Upland, CA 91786"}},{"type":"Feature","id":557160,"properties":{"cluster":true,"cluster_id":557160,"point_count":3,"point_count_abbreviated":3},"geometry":{"type":"Point","coordinates":[-117.6337945461273,34.12200445243697]}},{"type":"Feature","geometry":{"type":"Point","coordinates":[-117.635152,34.125352]},"properties":{"listingKey":"20250912150336407323000000","listingId":"IG-25215642","listPrice":3500,"city":"Upland","baths":2.5,"slug":"20250912150336407323000000","mlsSource":"CRMLS","propertyType":"B","propertySubType":"Single Family Residence","livingArea":1906,"unparsedAddress":"1228 Scenic View Street, Upland, CA 91784"}},{"type":"Feature","geometry":{"type":"Point","coordinates":[-117.637514,34.123655]},"properties":{"listingKey":"20251120234740710224000000","listingId":"CV-25233502","listPrice":690000,"city":"Upland","baths":2,"slug":"20251120234740710224000000","mlsSource":"CRMLS","propertyType":"A","propertySubType":"Condominium","livingArea":1390,"associationFee":465,"unparsedAddress":"1060 Pebble Beach, Upland, CA 91784"}},{"type":"Feature","geometry":{"type":"Point","coordinates":[-117.641049,34.122882]},"properties":{"listingKey":"20251027021925730584000000","listingId":"BB-25247735","listPrice":719000,"city":"Upland","baths":2,"slug":"20251027021925730584000000","mlsSource":"CRMLS","propertyType":"A","propertySubType":"Condominium","livingArea":1390,"associationFee":465,"unparsedAddress":"728 Pebble Beach, Upland, CA 91784"}},{"type":"Feature","geometry":{"type":"Point","coordinates":[-117.631682,34.1113]},"properties":{"listingKey":"20251022205533079093000000","listingId":"CV-25245220","listPrice":689000,"city":"Upland","baths":2,"slug":"20251022205533079093000000","mlsSource":"CRMLS","propertyType":"A","propertySubType":"Single Family Residence","livingArea":1214,"associationFee":0,"unparsedAddress":"1317 Monte Verde Avenue, Upland, CA 91786"}},{"type":"Feature","geometry":{"type":"Point","coordinates":[-117.631161,34.118215]},"properties":{"listingKey":"20250909000237762276000000","listingId":"OC-25202447","listPrice":925000,"city":"Upland","baths":2,"slug":"20250909000237762276000000","mlsSource":"CRMLS","propertyType":"A","propertySubType":"Single Family Residence","livingArea":2212,"associationFee":0,"unparsedAddress":"1405 East 15th Street, Upland, CA 91786"}}]