[{"type":"Feature","geometry":{"type":"Point","coordinates":[-117.73486,34.07475]},"properties":{"listingKey":"20250813095859650639000000","listingId":"CV-25181902","listPrice":707999,"city":"Pomona","baths":2,"slug":"20250813095859650639000000","mlsSource":"CRMLS","propertyType":"A","propertySubType":"Single Family Residence","livingArea":1370,"associationFee":0,"unparsedAddress":"870 Somerset Avenue, Pomona, CA 91767"}},{"type":"Feature","geometry":{"type":"Point","coordinates":[-117.732638,34.071735]},"properties":{"listingKey":"20251115040138930547000000","listingId":"CV-25261049","listPrice":775000,"city":"Pomona","baths":2,"slug":"20251115040138930547000000","mlsSource":"CRMLS","propertyType":"A","propertySubType":"Single Family Residence","livingArea":1744,"associationFee":0,"unparsedAddress":"1289 Joshua Lane, Pomona, CA 91767"}},{"type":"Feature","geometry":{"type":"Point","coordinates":[-117.737838,34.079267]},"properties":{"listingKey":"20251112174146902297000000","listingId":"PW-25256472","listPrice":850000,"city":"Pomona","baths":2,"slug":"20251112174146902297000000","mlsSource":"CRMLS","propertyType":"A","propertySubType":"Single Family Residence","livingArea":2435,"associationFee":0,"unparsedAddress":"776 Briarwood Ln, Pomona, CA 91767"}},{"type":"Feature","geometry":{"type":"Point","coordinates":[-117.738104,34.076464]},"properties":{"listingKey":"20251015034246939765000000","listingId":"IV-25239813","listPrice":699999,"city":"Pomona","baths":2.25,"slug":"20251015034246939765000000","mlsSource":"CRMLS","propertyType":"A","propertySubType":"Single Family Residence","livingArea":1350,"associationFee":0,"unparsedAddress":"732 James Place, Pomona, CA 91767"}},{"type":"Feature","geometry":{"type":"Point","coordinates":[-117.735987,34.071695]},"properties":{"listingKey":"20251021222702069393000000","listingId":"PW-25242867","listPrice":730000,"city":"Pomona","baths":2,"slug":"20251021222702069393000000","mlsSource":"CRMLS","propertyType":"A","propertySubType":"Single Family Residence","livingArea":1632,"associationFee":0,"unparsedAddress":"1257 Claremont Place, Pomona, CA 91767"}}]