[{"type":"Feature","geometry":{"type":"Point","coordinates":[-117.157167,33.6447]},"properties":{"listingKey":"20251021204038842721000000","listingId":"SW-25243414","listPrice":3800,"city":"Menifee","baths":3,"slug":"20251021204038842721000000","mlsSource":"CRMLS","propertyType":"B","propertySubType":"Single Family Residence","livingArea":2060,"associationFee":0,"unparsedAddress":"28823 Loretta Avenue, Menifee, CA 92584"}},{"type":"Feature","geometry":{"type":"Point","coordinates":[-117.153655,33.637146]},"properties":{"listingKey":"20251107182030404089000000","listingId":"SW-25255397","listPrice":674999,"city":"Menifee","baths":2.5,"slug":"20251107182030404089000000","mlsSource":"CRMLS","propertyType":"A","propertySubType":"Single Family Residence","livingArea":2320,"associationFee":20,"unparsedAddress":"33263 Gypsum, Menifee, CA 92584"}},{"type":"Feature","geometry":{"type":"Point","coordinates":[-117.143505,33.642402]},"properties":{"listingKey":"20250718111747756602000000","listingId":"SW-25160685","listPrice":669500,"city":"Menifee","baths":3,"slug":"20250718111747756602000000","mlsSource":"CRMLS","propertyType":"A","propertySubType":"Single Family Residence","livingArea":2723,"associationFee":110,"unparsedAddress":"32942 Forgecroft Street, Menifee, CA 92584"}},{"type":"Feature","id":437448,"properties":{"cluster":true,"cluster_id":437448,"point_count":2,"point_count_abbreviated":2},"geometry":{"type":"Point","coordinates":[-117.15104430913925,33.63450577365768]}},{"type":"Feature","geometry":{"type":"Point","coordinates":[-117.148829,33.642818]},"properties":{"listingKey":"20250912134531930998000000","listingId":"IG-25215219","listPrice":3800,"city":"Menifee","baths":3,"slug":"20250912134531930998000000","mlsSource":"CRMLS","propertyType":"B","propertySubType":"Single Family Residence","livingArea":1902,"associationFee":110,"unparsedAddress":"32910 Linecroft Court, Menifee, CA 92584"}}]