[{"type":"Feature","id":537800,"properties":{"cluster":true,"cluster_id":537800,"point_count":2,"point_count_abbreviated":2},"geometry":{"type":"Point","coordinates":[-117.137311398983,33.54473456982426]}},{"type":"Feature","id":173289,"properties":{"cluster":true,"cluster_id":173289,"point_count":3,"point_count_abbreviated":3},"geometry":{"type":"Point","coordinates":[-117.14279651641846,33.55115915664811]}},{"type":"Feature","id":119688,"properties":{"cluster":true,"cluster_id":119688,"point_count":2,"point_count_abbreviated":2},"geometry":{"type":"Point","coordinates":[-117.14883953332901,33.54185519845713]}},{"type":"Feature","geometry":{"type":"Point","coordinates":[-117.153714,33.547403]},"properties":{"listingKey":"20251029234545792207000000","listingId":"SW-25249765","listPrice":3300,"city":"Murrieta","baths":2,"slug":"20251029234545792207000000","mlsSource":"CRMLS","propertyType":"B","propertySubType":"Single Family Residence","livingArea":2214,"associationFee":0,"unparsedAddress":"39723 Clements, Murrieta, CA 92563"}},{"type":"Feature","geometry":{"type":"Point","coordinates":[-117.150683,33.554466]},"properties":{"listingKey":"20250913013946130164000000","listingId":"8N-2508937","listPrice":1450000,"city":"Murrieta","baths":0,"slug":"20250913013946130164000000","mlsSource":"CRMLS","propertyType":"C","propertySubType":"Quadruplex","livingArea":4448,"associationFee":60,"unparsedAddress":"39071 Agua Vista, Murrieta, CA 92563"}},{"type":"Feature","geometry":{"type":"Point","coordinates":[-117.154012,33.542681]},"properties":{"listingKey":"20251021210433082080000000","listingId":"PW-25243609","listPrice":795000,"city":"Temecula","baths":3,"slug":"20251021210433082080000000","mlsSource":"CRMLS","propertyType":"A","propertySubType":"Single Family Residence","livingArea":2806,"associationFee":133,"unparsedAddress":"39794 Cambridge Place, Temecula, CA 92591"}},{"type":"Feature","id":233672,"properties":{"cluster":true,"cluster_id":233672,"point_count":2,"point_count_abbreviated":2},"geometry":{"type":"Point","coordinates":[-117.14234054088593,33.558705312363045]}},{"type":"Feature","geometry":{"type":"Point","coordinates":[-117.156972,33.54728]},"properties":{"listingKey":"20251119084408345216000000","listingId":"SW-25262038","listPrice":849900,"city":"Murrieta","baths":2.5,"slug":"20251119084408345216000000","mlsSource":"CRMLS","propertyType":"A","propertySubType":"Single Family Residence","livingArea":2527,"associationFee":0,"unparsedAddress":"26586 Weston Hills Drive, Murrieta, CA 92563"}},{"type":"Feature","geometry":{"type":"Point","coordinates":[-117.151098,33.549383]},"properties":{"listingKey":"20251003000701091521000000","listingId":"PW-25195002","listPrice":595000,"city":"Murrieta","baths":2,"slug":"20251003000701091521000000","mlsSource":"CRMLS","propertyType":"A","propertySubType":"Single Family Residence","livingArea":1168,"associationFee":0,"unparsedAddress":"26738 Silver Oaks Drive, Murrieta, CA 92563"}},{"type":"Feature","geometry":{"type":"Point","coordinates":[-117.155612,33.554619]},"properties":{"listingKey":"20251007174208996562000000","listingId":"OC-25234201","listPrice":3295,"city":"Murrieta","baths":2.5,"slug":"20251007174208996562000000","mlsSource":"CRMLS","propertyType":"B","propertySubType":"Single Family Residence","livingArea":1773,"associationFee":0,"unparsedAddress":"39790 Monarch, Murrieta, CA 92563"}},{"type":"Feature","geometry":{"type":"Point","coordinates":[-117.155051,33.551859]},"properties":{"listingKey":"20250625012352510611000000","listingId":"SW-25140990","listPrice":800000,"city":"Murrieta","baths":3,"slug":"20250625012352510611000000","mlsSource":"CRMLS","propertyType":"A","propertySubType":"Single Family Residence","livingArea":2470,"associationFee":0,"unparsedAddress":"39812 De Vendome Court, Murrieta, CA 92563"}}]