[{"type":"Feature","id":647720,"properties":{"cluster":true,"cluster_id":647720,"point_count":2,"point_count_abbreviated":2},"geometry":{"type":"Point","coordinates":[-117.84111768007278,34.13169987553144]}},{"type":"Feature","geometry":{"type":"Point","coordinates":[-117.847266,34.130092]},"properties":{"listingKey":"20250910155211318707000000","listingId":"DW-25200000","listPrice":824777,"city":"Glendora","baths":1.5,"slug":"20250910155211318707000000","mlsSource":"CRMLS","propertyType":"A","propertySubType":"Single Family Residence","livingArea":1388,"associationFee":0,"unparsedAddress":"1032 East Lemon Avenue, Glendora, CA 91741"}},{"type":"Feature","id":164103,"properties":{"cluster":true,"cluster_id":164103,"point_count":3,"point_count_abbreviated":3},"geometry":{"type":"Point","coordinates":[-117.8336101770401,34.12895270518234]}},{"type":"Feature","id":96263,"properties":{"cluster":true,"cluster_id":96263,"point_count":6,"point_count_abbreviated":6},"geometry":{"type":"Point","coordinates":[-117.85964727401732,34.12858561962372]}},{"type":"Feature","id":418407,"properties":{"cluster":true,"cluster_id":418407,"point_count":3,"point_count_abbreviated":3},"geometry":{"type":"Point","coordinates":[-117.8197878599167,34.128097156529606]}},{"type":"Feature","geometry":{"type":"Point","coordinates":[-117.836683,34.147148]},"properties":{"listingKey":"20250926090138066595000000","listingId":"CV-25224541","listPrice":1499000,"city":"Glendora","baths":2.25,"slug":"20250926090138066595000000","mlsSource":"CRMLS","propertyType":"A","propertySubType":"Single Family Residence","livingArea":2709,"associationFee":0,"unparsedAddress":"810 Mountain Lane, Glendora, CA 91741"}},{"type":"Feature","id":272168,"properties":{"cluster":true,"cluster_id":272168,"point_count":2,"point_count_abbreviated":2},"geometry":{"type":"Point","coordinates":[-117.85183846950531,34.146720404166004]}},{"type":"Feature","geometry":{"type":"Point","coordinates":[-117.834597,34.138653]},"properties":{"listingKey":"20251021204906068102000000","listingId":"PW-25240850","listPrice":1699000,"city":"Glendora","baths":2.5,"slug":"20251021204906068102000000","mlsSource":"CRMLS","propertyType":"A","propertySubType":"Single Family Residence","livingArea":2544,"associationFee":0,"unparsedAddress":"1627 Oak Tree Lane, Glendora, CA 91741"}},{"type":"Feature","geometry":{"type":"Point","coordinates":[-117.828812,34.135206]},"properties":{"listingKey":"20250907014226469690000000","listingId":"CV-25198154","listPrice":4800,"city":"Glendora","baths":2,"slug":"20250907014226469690000000","mlsSource":"CRMLS","propertyType":"B","propertySubType":"Single Family Residence","livingArea":1456,"associationFee":0,"unparsedAddress":"133 South Lone Hill Avenue, Glendora, CA 91741"}},{"type":"Feature","geometry":{"type":"Point","coordinates":[-117.8581,34.14964]},"properties":{"listingKey":"20250805045540106037000000","listingId":"CV-25174871","listPrice":12500,"city":"Glendora","baths":6.5,"slug":"20250805045540106037000000","mlsSource":"CRMLS","propertyType":"B","propertySubType":"Single Family Residence","livingArea":8951,"associationFee":0,"unparsedAddress":"533 East Sierra Madre Avenue, Glendora, CA 91741"}},{"type":"Feature","geometry":{"type":"Point","coordinates":[-117.854722,34.136337]},"properties":{"listingKey":"20250916205828334501000000","listingId":"WS-25218043","listPrice":6000,"city":"Glendora","baths":2,"slug":"20250916205828334501000000","mlsSource":"CRMLS","propertyType":"B","propertySubType":"Single Family Residence","livingArea":1696,"associationFee":0,"unparsedAddress":"705 East Foothill Blvd, Glendora, CA 91741"}},{"type":"Feature","geometry":{"type":"Point","coordinates":[-117.841645,34.150355]},"properties":{"listingKey":"20251107185413971087000000","listingId":"CV-25254190","listPrice":1499000,"city":"Glendora","baths":3.5,"slug":"20251107185413971087000000","mlsSource":"CRMLS","propertyType":"A","propertySubType":"Single Family Residence","livingArea":3020,"associationFee":0,"unparsedAddress":"1272 East Palm Drive, Glendora, CA 91741"}},{"type":"Feature","geometry":{"type":"Point","coordinates":[-117.821622,34.137151]},"properties":{"listingKey":"20251104203832291415000000","listingId":"CV-25253606","listPrice":1699000,"city":"Glendora","baths":5.5,"slug":"20251104203832291415000000","mlsSource":"CRMLS","propertyType":"A","propertySubType":"Single Family Residence","livingArea":4556,"associationFee":82,"unparsedAddress":"2200 Shenandoah, Glendora, CA 91741"}},{"type":"Feature","geometry":{"type":"Point","coordinates":[-117.853574,34.152896]},"properties":{"listingKey":"20250930161639823251000000","listingId":"SW-25228337","listPrice":1550000,"city":"Glendora","baths":2,"slug":"20250930161639823251000000","mlsSource":"CRMLS","propertyType":"A","propertySubType":"Single Family Residence","livingArea":2219,"associationFee":0,"unparsedAddress":"980 Glencoe Heights, Glendora, CA 91741"}},{"type":"Feature","geometry":{"type":"Point","coordinates":[-117.84992,34.134405]},"properties":{"listingKey":"20251009054823207082000000","listingId":"OC-25234911","listPrice":1149000,"city":"Glendora","baths":3,"slug":"20251009054823207082000000","mlsSource":"CRMLS","propertyType":"A","propertySubType":"Single Family Residence","livingArea":1874,"associationFee":0,"unparsedAddress":"920 East Carroll, Glendora, CA 91741"}}]