[{"type":"Feature","geometry":{"type":"Point","coordinates":[-117.845647,34.034069]},"properties":{"listingKey":"20250729060801316272000000","listingId":"CV-25164339","listPrice":4388888,"city":"Walnut","baths":6.5,"slug":"20250729060801316272000000","mlsSource":"CRMLS","propertyType":"A","propertySubType":"Single Family Residence","livingArea":6448,"associationFee":0,"unparsedAddress":"833 Silver Valley Trail, Walnut, CA 91789"}},{"type":"Feature","id":192487,"properties":{"cluster":true,"cluster_id":192487,"point_count":8,"point_count_abbreviated":8},"geometry":{"type":"Point","coordinates":[-117.82821893692017,34.03303892905157]}},{"type":"Feature","id":204711,"properties":{"cluster":true,"cluster_id":204711,"point_count":2,"point_count_abbreviated":2},"geometry":{"type":"Point","coordinates":[-117.85584568977356,34.0177314385453]}},{"type":"Feature","id":232328,"properties":{"cluster":true,"cluster_id":232328,"point_count":5,"point_count_abbreviated":5},"geometry":{"type":"Point","coordinates":[-117.83117794990541,34.031273128843736]}},{"type":"Feature","id":249448,"properties":{"cluster":true,"cluster_id":249448,"point_count":3,"point_count_abbreviated":3},"geometry":{"type":"Point","coordinates":[-117.8535658121109,34.02976099613238]}},{"type":"Feature","geometry":{"type":"Point","coordinates":[-117.849225,34.018638]},"properties":{"listingKey":"20251010234404393141000000","listingId":"TR-25237342","listPrice":3900,"city":"Walnut","baths":2,"slug":"20251010234404393141000000","mlsSource":"CRMLS","propertyType":"B","propertySubType":"Single Family Residence","livingArea":1450,"associationFee":0,"unparsedAddress":"20935 Divonne Drive, Walnut, CA 91789"}},{"type":"Feature","geometry":{"type":"Point","coordinates":[-117.818503,34.023255]},"properties":{"listingKey":"20251118203336878618000000","listingId":"TR-25262042","listPrice":910000,"city":"Diamond Bar","baths":2,"slug":"20251118203336878618000000","mlsSource":"CRMLS","propertyType":"A","propertySubType":"Single Family Residence","livingArea":1223,"associationFee":0,"unparsedAddress":"158 Cottonwood Cove, Diamond Bar, CA 91765"}},{"type":"Feature","id":193191,"properties":{"cluster":true,"cluster_id":193191,"point_count":4,"point_count_abbreviated":4},"geometry":{"type":"Point","coordinates":[-117.85312995314598,34.045556740616675]}},{"type":"Feature","geometry":{"type":"Point","coordinates":[-117.854769,34.041033]},"properties":{"listingKey":"20251112202351090946000000","listingId":"CV-25251547","listPrice":3950,"city":"Walnut","baths":2,"slug":"20251112202351090946000000","mlsSource":"CRMLS","propertyType":"B","propertySubType":"Single Family Residence","livingArea":1422,"associationFee":0,"unparsedAddress":"1309 Cascade Avenue, Walnut, CA 91789"}},{"type":"Feature","geometry":{"type":"Point","coordinates":[-117.847724,34.041999]},"properties":{"listingKey":"20251105065324442914000000","listingId":"AR-25254187","listPrice":1699000,"city":"Walnut","baths":3,"slug":"20251105065324442914000000","mlsSource":"CRMLS","propertyType":"A","propertySubType":"Single Family Residence","livingArea":2423,"associationFee":0,"unparsedAddress":"1168 Regal Canyon Dr, Walnut, CA 91789"}},{"type":"Feature","id":226568,"properties":{"cluster":true,"cluster_id":226568,"point_count":2,"point_count_abbreviated":2},"geometry":{"type":"Point","coordinates":[-117.83804386854172,34.037244337435894]}}]