[{"type":"Feature","id":166471,"properties":{"cluster":true,"cluster_id":166471,"point_count":4,"point_count_abbreviated":4},"geometry":{"type":"Point","coordinates":[-117.85252511501312,33.97981317708539]}},{"type":"Feature","geometry":{"type":"Point","coordinates":[-117.830476,33.978267]},"properties":{"listingKey":"20251010190531531170000000","listingId":"TR-25235369","listPrice":1750000,"city":"Diamond Bar","baths":2.5,"slug":"20251010190531531170000000","mlsSource":"CRMLS","propertyType":"A","propertySubType":"Single Family Residence","livingArea":2814,"associationFee":308,"unparsedAddress":"2562 Steeplechase Lane, Diamond Bar, CA 91765"}},{"type":"Feature","geometry":{"type":"Point","coordinates":[-117.86031,33.978621]},"properties":{"listingKey":"20251001030624456680000000","listingId":"WS-25229211","listPrice":1950000,"city":"Walnut","baths":4,"slug":"20251001030624456680000000","mlsSource":"CRMLS","propertyType":"A","propertySubType":"Single Family Residence","livingArea":3245,"associationFee":250,"unparsedAddress":"20374 Bickford, Walnut, CA 91789"}},{"type":"Feature","geometry":{"type":"Point","coordinates":[-117.838724,33.961706]},"properties":{"listingKey":"20250928065349416480000000","listingId":"TR-25227108","listPrice":4600,"city":"Diamond Bar","baths":2,"slug":"20250928065349416480000000","mlsSource":"CRMLS","propertyType":"B","propertySubType":"Single Family Residence","livingArea":2037,"associationFee":0,"unparsedAddress":"21614 Fairwind Lane, Diamond Bar, CA 91765"}},{"type":"Feature","id":144583,"properties":{"cluster":true,"cluster_id":144583,"point_count":5,"point_count_abbreviated":5},"geometry":{"type":"Point","coordinates":[-117.83500170707701,33.97083680098267]}},{"type":"Feature","id":157703,"properties":{"cluster":true,"cluster_id":157703,"point_count":5,"point_count_abbreviated":5},"geometry":{"type":"Point","coordinates":[-117.8457123041153,33.966556918466225]}},{"type":"Feature","id":848072,"properties":{"cluster":true,"cluster_id":848072,"point_count":2,"point_count_abbreviated":2},"geometry":{"type":"Point","coordinates":[-117.82853275537491,33.97134307637249]}},{"type":"Feature","geometry":{"type":"Point","coordinates":[-117.845622,33.976122]},"properties":{"listingKey":"20250816063310099798000000","listingId":"PW-25184476","listPrice":1200000,"city":"Diamond Bar","baths":1.75,"slug":"20250816063310099798000000","mlsSource":"CRMLS","propertyType":"A","propertySubType":"Single Family Residence","livingArea":2268,"associationFee":0,"unparsedAddress":"21128 Trigger, Diamond Bar, CA 91765"}}]