[{"type":"Feature","geometry":{"type":"Point","coordinates":[-121.468671,39.523455]},"properties":{"listingKey":"20250808104920824483000000","listingId":"OR-25178013","listPrice":150000,"city":"Oroville","baths":2,"slug":"20250808104920824483000000","mlsSource":"CRMLS","propertyType":"A","propertySubType":"Manufactured On Land","livingArea":1344,"associationFee":30,"unparsedAddress":"422 Lodgeview Drive, Oroville, CA 95966"}},{"type":"Feature","id":365609,"properties":{"cluster":true,"cluster_id":365609,"point_count":2,"point_count_abbreviated":2},"geometry":{"type":"Point","coordinates":[-121.46777808666229,39.52447232020404]}},{"type":"Feature","geometry":{"type":"Point","coordinates":[-121.467956,39.521893]},"properties":{"listingKey":"20251118203231807579000000","listingId":"OR-25260217","listPrice":198000,"city":"Oroville","baths":1.75,"slug":"20251118203231807579000000","mlsSource":"CRMLS","propertyType":"A","propertySubType":"Manufactured On Land","livingArea":1344,"associationFee":30,"unparsedAddress":"485 Silver Leaf, Oroville, CA 95966"}},{"type":"Feature","geometry":{"type":"Point","coordinates":[-121.46789,39.529023]},"properties":{"listingKey":"20250924040956480340000000","listingId":"SN-25223679","listPrice":180000,"city":"Oroville","baths":1.75,"slug":"20250924040956480340000000","mlsSource":"CRMLS","propertyType":"A","propertySubType":"Single Family Residence","livingArea":1440,"associationFee":30,"unparsedAddress":"560 Silver Leaf Drive, Oroville, CA 95966"}},{"type":"Feature","geometry":{"type":"Point","coordinates":[-121.46654,39.529276]},"properties":{"listingKey":"20250821134140990536000000","listingId":"OR-25186629","listPrice":209900,"city":"Oroville","baths":2,"slug":"20250821134140990536000000","mlsSource":"CRMLS","propertyType":"A","propertySubType":"Manufactured On Land","livingArea":1344,"associationFee":30,"unparsedAddress":"56 Montrose Drive, Oroville, CA 95966"}}]