[{"type":"Feature","geometry":{"type":"Point","coordinates":[-122.047509,37.994846]},"properties":{"listingKey":"20250927043207599076000000","listingId":"01-41112978","listPrice":660000,"city":"Concord","baths":2,"slug":"20250927043207599076000000","mlsSource":"CRMLS","propertyType":"A","propertySubType":"Single Family Residence","livingArea":1158,"unparsedAddress":"2868 Avon Ave, Concord, CA"}},{"type":"Feature","geometry":{"type":"Point","coordinates":[-122.051099,37.995444]},"properties":{"listingKey":"20251110161739496942000000","listingId":"01-41117088","listPrice":615000,"city":"Concord","baths":1,"slug":"20251110161739496942000000","mlsSource":"CRMLS","propertyType":"A","propertySubType":"Single Family Residence","livingArea":1028,"unparsedAddress":"2823 Hilltop Rd, Concord, CA 94520"}},{"type":"Feature","geometry":{"type":"Point","coordinates":[-122.04833,37.991494]},"properties":{"listingKey":"20251029152706311371000000","listingId":"01-41116073","listPrice":459946,"city":"Concord","baths":2,"slug":"20251029152706311371000000","mlsSource":"CRMLS","propertyType":"A","propertySubType":"Single Family Residence","livingArea":1116,"unparsedAddress":"1950 Solano Way, Concord, CA 94520"}},{"type":"Feature","geometry":{"type":"Point","coordinates":[-122.043446,37.986519]},"properties":{"listingKey":"20251016191003588232000000","listingId":"01-41114920","listPrice":680000,"city":"Concord","baths":2,"slug":"20251016191003588232000000","mlsSource":"CRMLS","propertyType":"A","propertySubType":"Single Family Residence","livingArea":1383,"unparsedAddress":"2748 Eastgate Ave, Concord, CA 94520"}},{"type":"Feature","geometry":{"type":"Point","coordinates":[-122.038692,37.987242]},"properties":{"listingKey":"20250924041117621143000000","listingId":"01-41112480","listPrice":590000,"city":"Concord","baths":1,"slug":"20250924041117621143000000","mlsSource":"CRMLS","propertyType":"A","propertySubType":"Single Family Residence","livingArea":1015,"unparsedAddress":"2311 Crescent Dr, Concord, CA 94520"}}]