[{"type":"Feature","geometry":{"type":"Point","coordinates":[-122.045125,37.952699]},"properties":{"listingKey":"20251018185141136556000000","listingId":"01-41115199","listPrice":575000,"city":"Concord","baths":1,"slug":"20251018185141136556000000","mlsSource":"CRMLS","propertyType":"A","propertySubType":"Single Family Residence","livingArea":867,"unparsedAddress":"1110 Eureka Lane, Concord, CA"}},{"type":"Feature","geometry":{"type":"Point","coordinates":[-122.047512,37.946595]},"properties":{"listingKey":"20250830095003067071000000","listingId":"01-41109821","listPrice":338000,"city":"Concord","baths":1,"slug":"20250830095003067071000000","mlsSource":"CRMLS","propertyType":"A","propertySubType":"Condominium","livingArea":854,"associationFee":518,"unparsedAddress":"1356 Del Rio Cir, D, Concord, CA 94518"}},{"type":"Feature","geometry":{"type":"Point","coordinates":[-122.039766,37.950898]},"properties":{"listingKey":"20251119224817083688000000","listingId":"01-41117831","listPrice":799990,"city":"Concord","baths":2,"slug":"20251119224817083688000000","mlsSource":"CRMLS","propertyType":"A","propertySubType":"Single Family Residence","livingArea":1702,"unparsedAddress":"1640 Apple Dr, Concord, CA 94518"}},{"type":"Feature","geometry":{"type":"Point","coordinates":[-122.037484,37.954077]},"properties":{"listingKey":"20251003002944807746000000","listingId":"01-41113567","listPrice":349000,"city":"Concord","baths":1,"slug":"20251003002944807746000000","mlsSource":"CRMLS","propertyType":"A","propertySubType":"Condominium","livingArea":910,"associationFee":433,"unparsedAddress":"1060 Oak Grove Rd, 59, Concord, CA 94518"}},{"type":"Feature","geometry":{"type":"Point","coordinates":[-122.052754,37.94761]},"properties":{"listingKey":"20251021204923426253000000","listingId":"01-41115327","listPrice":775000,"city":"Pleasant Hill","baths":2,"slug":"20251021204923426253000000","mlsSource":"CRMLS","propertyType":"A","propertySubType":"Single Family Residence","livingArea":1241,"unparsedAddress":"136 Cleopatra, Pleasant Hill, CA 94523"}},{"type":"Feature","id":524776,"properties":{"cluster":true,"cluster_id":524776,"point_count":2,"point_count_abbreviated":2},"geometry":{"type":"Point","coordinates":[-122.04704940319061,37.96049978331449]}},{"type":"Feature","geometry":{"type":"Point","coordinates":[-122.055389,37.960429]},"properties":{"listingKey":"20251017080336613134000000","listingId":"01-41115027","listPrice":725000,"city":"Pleasant Hill","baths":2.5,"slug":"20251017080336613134000000","mlsSource":"CRMLS","propertyType":"A","propertySubType":"Townhouse","livingArea":1371,"associationFee":565,"unparsedAddress":"322 Rock Creek Way, Pleasant Hill, CA 94523"}}]