[{"type":"Feature","id":343464,"properties":{"cluster":true,"cluster_id":343464,"point_count":3,"point_count_abbreviated":3},"geometry":{"type":"Point","coordinates":[-122.04771101474763,37.91315084342192]}},{"type":"Feature","geometry":{"type":"Point","coordinates":[-122.051583,37.922125]},"properties":{"listingKey":"20251114195526736808000000","listingId":"01-41117480","listPrice":1799000,"city":"Walnut Creek","baths":2,"slug":"20251114195526736808000000","mlsSource":"CRMLS","propertyType":"A","propertySubType":"Single Family Residence","livingArea":2300,"unparsedAddress":"55 Cora Ct, Walnut Creek, CA 94597"}},{"type":"Feature","geometry":{"type":"Point","coordinates":[-122.04422,37.916402]},"properties":{"listingKey":"20250908180820016463000000","listingId":"01-41110790","listPrice":950000,"city":"Walnut Creek","baths":2.5,"slug":"20250908180820016463000000","mlsSource":"CRMLS","propertyType":"A","propertySubType":"Townhouse","livingArea":1915,"associationFee":614,"unparsedAddress":"208 Siskiyou Ct., Walnut Creek, CA 94598"}},{"type":"Feature","geometry":{"type":"Point","coordinates":[-122.041649,37.924437]},"properties":{"listingKey":"20251030195707484041000000","listingId":"01-41116222","listPrice":848000,"city":"Walnut Creek","baths":2,"slug":"20251030195707484041000000","mlsSource":"CRMLS","propertyType":"A","propertySubType":"Townhouse","livingArea":1287,"associationFee":503,"unparsedAddress":"628 Savoy Ct, Walnut Creek, CA 94598"}},{"type":"Feature","id":481800,"properties":{"cluster":true,"cluster_id":481800,"point_count":2,"point_count_abbreviated":2},"geometry":{"type":"Point","coordinates":[-122.0568796992302,37.920008131622055]}},{"type":"Feature","id":435849,"properties":{"cluster":true,"cluster_id":435849,"point_count":3,"point_count_abbreviated":3},"geometry":{"type":"Point","coordinates":[-122.0563495159149,37.922729145335666]}},{"type":"Feature","geometry":{"type":"Point","coordinates":[-122.053667,37.911878]},"properties":{"listingKey":"20251101031847507464000000","listingId":"01-41116430","listPrice":8500,"city":"Walnut Creek","baths":3,"slug":"20251101031847507464000000","mlsSource":"CRMLS","propertyType":"B","propertySubType":"Single Family Residence","livingArea":3610,"unparsedAddress":"1423 Homestead, Walnut Creek, CA 94597"}}]