[{"type":"Feature","geometry":{"type":"Point","coordinates":[-117.832425,33.911737]},"properties":{"listingKey":"20250729123258844116000000","listingId":"RS-25169963","listPrice":1499000,"city":"Yorba Linda","baths":2.75,"slug":"20250729123258844116000000","mlsSource":"CRMLS","propertyType":"A","propertySubType":"Condominium","livingArea":3128,"associationFee":499,"unparsedAddress":"17284 Coriander Court, Yorba Linda, CA 92886"}},{"type":"Feature","geometry":{"type":"Point","coordinates":[-117.834885,33.907662]},"properties":{"listingKey":"20251111183527014487000000","listingId":"PW-25258206","listPrice":6500,"city":"Yorba Linda","baths":3,"slug":"20251111183527014487000000","mlsSource":"CRMLS","propertyType":"B","propertySubType":"Single Family Residence","livingArea":3376,"associationFee":0,"unparsedAddress":"3795 Carson, Yorba Linda, CA 92886"}},{"type":"Feature","geometry":{"type":"Point","coordinates":[-117.834209,33.911683]},"properties":{"listingKey":"20251101174440142019000000","listingId":"TR-25251906","listPrice":2000000,"city":"Yorba Linda","baths":3,"slug":"20251101174440142019000000","mlsSource":"CRMLS","propertyType":"A","propertySubType":"Single Family Residence","livingArea":3000,"associationFee":0,"unparsedAddress":"17175 Sweet Bay Court, Yorba Linda, CA 92886"}},{"type":"Feature","geometry":{"type":"Point","coordinates":[-117.829668,33.911716]},"properties":{"listingKey":"20250928040851000098000000","listingId":"TR-25225740","listPrice":1999999,"city":"Yorba Linda","baths":4.5,"slug":"20250928040851000098000000","mlsSource":"CRMLS","propertyType":"A","propertySubType":"Single Family Residence","livingArea":3616,"associationFee":0,"unparsedAddress":"17411 Bramble, Yorba Linda, CA 92886"}},{"type":"Feature","geometry":{"type":"Point","coordinates":[-117.831554,33.915012]},"properties":{"listingKey":"20250814081214604903000000","listingId":"PW-25181906","listPrice":2988000,"city":"Yorba Linda","baths":4.5,"slug":"20250814081214604903000000","mlsSource":"CRMLS","propertyType":"A","propertySubType":"Single Family Residence","livingArea":5213,"associationFee":0,"unparsedAddress":"17265 BLUE SPRUCE Lane, Yorba Linda, CA 92886"}},{"type":"Feature","geometry":{"type":"Point","coordinates":[-117.830285,33.914703]},"properties":{"listingKey":"20251108202348560132000000","listingId":"RS-25256752","listPrice":14950,"city":"Yorba Linda","baths":5.5,"slug":"20251108202348560132000000","mlsSource":"CRMLS","propertyType":"B","propertySubType":"Single Family Residence","livingArea":5132,"associationFee":0,"unparsedAddress":"3311 Lavender, Yorba Linda, CA 92886"}}]