[{"type":"Feature","geometry":{"type":"Point","coordinates":[-117.837844,33.610725]},"properties":{"listingKey":"20250903041434620100000000","listingId":"OC-25196245","listPrice":2575000,"city":"Newport Coast","baths":2.5,"slug":"20250903041434620100000000","mlsSource":"CRMLS","propertyType":"A","propertySubType":"Condominium","livingArea":1716,"associationFee":295,"unparsedAddress":"18 Lessay, Newport Coast, CA 92657"}},{"type":"Feature","id":325961,"properties":{"cluster":true,"cluster_id":325961,"point_count":2,"point_count_abbreviated":2},"geometry":{"type":"Point","coordinates":[-117.83637553453445,33.610124990768114]}},{"type":"Feature","geometry":{"type":"Point","coordinates":[-117.836158,33.612247]},"properties":{"listingKey":"20250902021546482398000000","listingId":"OC-25196533","listPrice":7800,"city":"Newport Coast","baths":2.25,"slug":"20250902021546482398000000","mlsSource":"CRMLS","propertyType":"B","propertySubType":"Single Family Residence","livingArea":2234,"associationFee":240,"unparsedAddress":"31 Versailles, Newport Coast, CA 92657"}},{"type":"Feature","geometry":{"type":"Point","coordinates":[-117.838012,33.607968]},"properties":{"listingKey":"20251021203229443082000000","listingId":"OC-25238216","listPrice":11975,"city":"Newport Coast","baths":3.5,"slug":"20251021203229443082000000","mlsSource":"CRMLS","propertyType":"B","propertySubType":"Single Family Residence","livingArea":3000,"unparsedAddress":"68 Bridgeport, Newport Coast, CA 92657"}},{"type":"Feature","geometry":{"type":"Point","coordinates":[-117.836335,33.607346]},"properties":{"listingKey":"20250817131558345918000000","listingId":"OC-25185316","listPrice":5950,"city":"Newport Coast","baths":3,"slug":"20250817131558345918000000","mlsSource":"CRMLS","propertyType":"B","propertySubType":"Condominium","livingArea":1750,"unparsedAddress":"31 Dauphine, Newport Coast, CA 92657"}},{"type":"Feature","geometry":{"type":"Point","coordinates":[-117.834329,33.607356]},"properties":{"listingKey":"20250705043420271993000000","listingId":"GD-25149817","listPrice":2399500,"city":"Newport Coast","baths":2.5,"slug":"20250705043420271993000000","mlsSource":"CRMLS","propertyType":"A","propertySubType":"Condominium","livingArea":2106,"associationFee":789,"unparsedAddress":"11 Chandon, Newport Coast, CA 92657"}}]