[{"type":"Feature","geometry":{"type":"Point","coordinates":[-117.39233,34.475987]},"properties":{"listingKey":"20251113024430823513000000","listingId":"IN-25259509","listPrice":565000,"city":"Victorville","baths":2.5,"slug":"20251113024430823513000000","mlsSource":"CRMLS","propertyType":"A","propertySubType":"Single Family Residence","livingArea":2261,"associationFee":0,"unparsedAddress":"12425 Durango, Victorville, CA 92392"}},{"type":"Feature","id":155784,"properties":{"cluster":true,"cluster_id":155784,"point_count":3,"point_count_abbreviated":3},"geometry":{"type":"Point","coordinates":[-117.38850474357606,34.47512310961659]}},{"type":"Feature","geometry":{"type":"Point","coordinates":[-117.396013,34.487419]},"properties":{"listingKey":"20251119205710047722000000","listingId":"DW-25261421","listPrice":549900,"city":"Victorville","baths":3,"slug":"20251119205710047722000000","mlsSource":"CRMLS","propertyType":"A","propertySubType":"Single Family Residence","livingArea":2772,"associationFee":0,"unparsedAddress":"13051 Woodhill, Victorville, CA 92392"}},{"type":"Feature","geometry":{"type":"Point","coordinates":[-117.389661,34.480982]},"properties":{"listingKey":"20251014184922025555000000","listingId":"CV-25239332","listPrice":475000,"city":"Victorville","baths":3,"slug":"20251014184922025555000000","mlsSource":"CRMLS","propertyType":"A","propertySubType":"Single Family Residence","livingArea":1876,"associationFee":0,"unparsedAddress":"12544 Sunbird Lane, Victorville, CA 92392"}},{"type":"Feature","geometry":{"type":"Point","coordinates":[-117.3885,34.484622]},"properties":{"listingKey":"20250910025537811060000000","listingId":"PW-25208788","listPrice":440000,"city":"Victorville","baths":2,"slug":"20250910025537811060000000","mlsSource":"CRMLS","propertyType":"A","propertySubType":"Single Family Residence","livingArea":1585,"associationFee":0,"unparsedAddress":"12602 El Dorado Pl, Victorville, CA 92392"}},{"type":"Feature","id":223113,"properties":{"cluster":true,"cluster_id":223113,"point_count":2,"point_count_abbreviated":2},"geometry":{"type":"Point","coordinates":[-117.38085865974426,34.48358396908715]}},{"type":"Feature","geometry":{"type":"Point","coordinates":[-117.382671,34.488077]},"properties":{"listingKey":"20250930013336877798000000","listingId":"IG-25227954","listPrice":445000,"city":"Victorville","baths":2,"slug":"20250930013336877798000000","mlsSource":"CRMLS","propertyType":"A","propertySubType":"Single Family Residence","livingArea":1633,"associationFee":0,"unparsedAddress":"13073 Snowview, Victorville, CA 92392"}},{"type":"Feature","id":517097,"properties":{"cluster":true,"cluster_id":517097,"point_count":2,"point_count_abbreviated":2},"geometry":{"type":"Point","coordinates":[-117.39608556032181,34.48243870783601]}}]