[{"type":"Feature","geometry":{"type":"Point","coordinates":[-117.369633,34.00204]},"properties":{"listingKey":"20250803002852756509000000","listingId":"CV-25172911","listPrice":5200,"city":"Riverside","baths":3,"slug":"20250803002852756509000000","mlsSource":"CRMLS","propertyType":"B","propertySubType":"Single Family Residence","livingArea":2482,"unparsedAddress":"1784 Julie Dr, Riverside, CA 92501"}},{"type":"Feature","geometry":{"type":"Point","coordinates":[-117.372539,34.006591]},"properties":{"listingKey":"20250724114701174721000000","listingId":"IV-25166334","listPrice":2950,"city":"Riverside","baths":2.5,"slug":"20250724114701174721000000","mlsSource":"CRMLS","propertyType":"B","propertySubType":"Single Family Residence","livingArea":1666,"unparsedAddress":"4473 Bigem Court, Riverside, CA 92501"}},{"type":"Feature","geometry":{"type":"Point","coordinates":[-117.370766,34.011859]},"properties":{"listingKey":"20250919021052653962000000","listingId":"DW-25219712","listPrice":580000,"city":"Riverside","baths":2,"slug":"20250919021052653962000000","mlsSource":"CRMLS","propertyType":"A","propertySubType":"Single Family Residence","livingArea":1347,"associationFee":0,"unparsedAddress":"4557 Snake River Road, Riverside, CA 92501"}},{"type":"Feature","id":218089,"properties":{"cluster":true,"cluster_id":218089,"point_count":2,"point_count_abbreviated":2},"geometry":{"type":"Point","coordinates":[-117.37544864416122,34.00653027965626]}},{"type":"Feature","id":169800,"properties":{"cluster":true,"cluster_id":169800,"point_count":6,"point_count_abbreviated":6},"geometry":{"type":"Point","coordinates":[-117.37600922584534,34.00502571079198]}},{"type":"Feature","geometry":{"type":"Point","coordinates":[-117.369396,34.014181]},"properties":{"listingKey":"20250711152017811925000000","listingId":"PW-25154135","listPrice":3950,"city":"Riverside","baths":2.75,"slug":"20250711152017811925000000","mlsSource":"CRMLS","propertyType":"B","propertySubType":"Single Family Residence","livingArea":2485,"associationFee":58,"unparsedAddress":"4443 Cherry Grove, Riverside, CA 92501"}},{"type":"Feature","geometry":{"type":"Point","coordinates":[-117.367436,34.003683]},"properties":{"listingKey":"20251109030846660025000000","listingId":"IV-25256911","listPrice":3295,"city":"Riverside","baths":2.5,"slug":"20251109030846660025000000","mlsSource":"CRMLS","propertyType":"B","propertySubType":"Single Family Residence","livingArea":1871,"unparsedAddress":"4028 Landau Court, Riverside, CA 92501"}},{"type":"Feature","geometry":{"type":"Point","coordinates":[-117.366758,33.998553]},"properties":{"listingKey":"20251101014912469222000000","listingId":"PW-25251505","listPrice":549900,"city":"Riverside","baths":1,"slug":"20251101014912469222000000","mlsSource":"CRMLS","propertyType":"A","propertySubType":"Single Family Residence","livingArea":1098,"associationFee":0,"unparsedAddress":"3805 Stoddard, Riverside, CA 92501"}},{"type":"Feature","geometry":{"type":"Point","coordinates":[-117.366337,34.007186]},"properties":{"listingKey":"20250927042938514951000000","listingId":"IG-25223582","listPrice":599900,"city":"Riverside","baths":2,"slug":"20250927042938514951000000","mlsSource":"CRMLS","propertyType":"A","propertySubType":"Single Family Residence","livingArea":1056,"associationFee":0,"unparsedAddress":"4037 Weyer Street, Riverside, CA 92501"}},{"type":"Feature","id":166600,"properties":{"cluster":true,"cluster_id":166600,"point_count":2,"point_count_abbreviated":2},"geometry":{"type":"Point","coordinates":[-117.36503094434738,34.00564977658064]}},{"type":"Feature","geometry":{"type":"Point","coordinates":[-117.359494,34.000134]},"properties":{"listingKey":"20251104043253419777000000","listingId":"IV-25253247","listPrice":4200,"city":"Riverside","baths":3,"slug":"20251104043253419777000000","mlsSource":"CRMLS","propertyType":"B","propertySubType":"Single Family Residence","livingArea":3271,"associationFee":0,"unparsedAddress":"3518 Tyco Drive, Riverside, CA 92501"}},{"type":"Feature","id":199753,"properties":{"cluster":true,"cluster_id":199753,"point_count":2,"point_count_abbreviated":2},"geometry":{"type":"Point","coordinates":[-117.35601872205734,34.00391987274028]}}]