[{"type":"Feature","geometry":{"type":"Point","coordinates":[-117.377508,33.910013]},"properties":{"listingKey":"20250814081212188189000000","listingId":"WS-25183217","listPrice":1098000,"city":"Riverside","baths":3,"slug":"20250814081212188189000000","mlsSource":"CRMLS","propertyType":"A","propertySubType":"Single Family Residence","livingArea":2905,"associationFee":0,"unparsedAddress":"7855 Westpark Drive, Riverside, CA 92506"}},{"type":"Feature","geometry":{"type":"Point","coordinates":[-117.375609,33.923474]},"properties":{"listingKey":"20250906043246313280000000","listingId":"IV-25200671","listPrice":2299999,"city":"Riverside","baths":4.5,"slug":"20250906043246313280000000","mlsSource":"CRMLS","propertyType":"A","propertySubType":"Single Family Residence","livingArea":6200,"associationFee":0,"unparsedAddress":"2100 Hathaway Place, Riverside, CA 92506"}},{"type":"Feature","id":352265,"properties":{"cluster":true,"cluster_id":352265,"point_count":2,"point_count_abbreviated":2},"geometry":{"type":"Point","coordinates":[-117.36843466758728,33.917446547615]}},{"type":"Feature","id":845384,"properties":{"cluster":true,"cluster_id":845384,"point_count":2,"point_count_abbreviated":2},"geometry":{"type":"Point","coordinates":[-117.36816108226776,33.923086565512946]}},{"type":"Feature","geometry":{"type":"Point","coordinates":[-117.358904,33.919954]},"properties":{"listingKey":"20251104235758481032000000","listingId":"IV-25253749","listPrice":2700000,"city":"Riverside","baths":6.5,"slug":"20251104235758481032000000","mlsSource":"CRMLS","propertyType":"A","propertySubType":"Single Family Residence","livingArea":6712,"associationFee":491,"unparsedAddress":"670 Pinnacle Ridge Road, Riverside, CA 92506"}},{"type":"Feature","geometry":{"type":"Point","coordinates":[-117.358605,33.916504]},"properties":{"listingKey":"20251108024632013793000000","listingId":"IV-25254788","listPrice":1875900,"city":"Riverside","baths":4.5,"slug":"20251108024632013793000000","mlsSource":"CRMLS","propertyType":"A","propertySubType":"Single Family Residence","livingArea":4242,"associationFee":450,"unparsedAddress":"7535 Misty View, Riverside, CA 92506"}},{"type":"Feature","geometry":{"type":"Point","coordinates":[-117.36259,33.911274]},"properties":{"listingKey":"20250920041742624921000000","listingId":"IV-25221167","listPrice":1299000,"city":"Riverside","baths":3.5,"slug":"20250920041742624921000000","mlsSource":"CRMLS","propertyType":"A","propertySubType":"Single Family Residence","livingArea":3509,"associationFee":363,"unparsedAddress":"7780 Solitude Court, Riverside, CA 92506"}}]