[{"type":"Feature","geometry":{"type":"Point","coordinates":[-121.421822,37.751237]},"properties":{"listingKey":"20251120172132584470000000","listingId":"01-41117624","listPrice":479000,"city":"Tracy","baths":1,"slug":"20251120172132584470000000","mlsSource":"CRMLS","propertyType":"A","propertySubType":"Single Family Residence","livingArea":1073,"unparsedAddress":"239 East 20th, Tracy, CA 95376"}},{"type":"Feature","geometry":{"type":"Point","coordinates":[-121.426896,37.729852]},"properties":{"listingKey":"20251015201007599896000000","listingId":"01-41114785","listPrice":610000,"city":"Tracy","baths":2.5,"slug":"20251015201007599896000000","mlsSource":"CRMLS","propertyType":"A","propertySubType":"Single Family Residence","livingArea":1568,"unparsedAddress":"60 West South St, Tracy, CA 95376"}},{"type":"Feature","geometry":{"type":"Point","coordinates":[-121.42814,37.724107]},"properties":{"listingKey":"20250821134337563099000000","listingId":"01-41108869","listPrice":610000,"city":"Tracy","baths":2.5,"slug":"20250821134337563099000000","mlsSource":"CRMLS","propertyType":"A","propertySubType":"Single Family Residence","livingArea":1491,"unparsedAddress":"85 Phillips Ct, Tracy, CA 95376"}},{"type":"Feature","geometry":{"type":"Point","coordinates":[-121.433934,37.746511]},"properties":{"listingKey":"20251029003439556913000000","listingId":"01-41116043","listPrice":499000,"city":"Tracy","baths":2,"slug":"20251029003439556913000000","mlsSource":"CRMLS","propertyType":"A","propertySubType":"Single Family Residence","livingArea":1672,"unparsedAddress":"535 West Carlton Way, Tracy, CA 95376"}},{"type":"Feature","geometry":{"type":"Point","coordinates":[-121.437994,37.752488]},"properties":{"listingKey":"20251001025048836688000000","listingId":"01-41113168","listPrice":455000,"city":"Tracy","baths":2.5,"slug":"20251001025048836688000000","mlsSource":"CRMLS","propertyType":"A","propertySubType":"Condominium","livingArea":1368,"associationFee":548,"unparsedAddress":"2214 Morningside Ct, Tracy, CA 95376"}},{"type":"Feature","geometry":{"type":"Point","coordinates":[-121.462051,37.742878]},"properties":{"listingKey":"20251121060159999886000000","listingId":"01-41117949","listPrice":620000,"city":"Tracy","baths":3,"slug":"20251121060159999886000000","mlsSource":"CRMLS","propertyType":"A","propertySubType":"Single Family Residence","livingArea":2051,"unparsedAddress":"2488 Gaines, Tracy, CA 95377"}},{"type":"Feature","geometry":{"type":"Point","coordinates":[-121.460199,37.731203]},"properties":{"listingKey":"20251105164642445639000000","listingId":"01-41116714","listPrice":860000,"city":"Tracy","baths":3,"slug":"20251105164642445639000000","mlsSource":"CRMLS","propertyType":"A","propertySubType":"Single Family Residence","livingArea":3045,"unparsedAddress":"2432 Tennis Ln, Tracy, CA 95377"}},{"type":"Feature","geometry":{"type":"Point","coordinates":[-121.459298,37.723288]},"properties":{"listingKey":"20250729060521807040000000","listingId":"01-41106311","listPrice":760000,"city":"Tracy","baths":2.5,"slug":"20250729060521807040000000","mlsSource":"CRMLS","propertyType":"A","propertySubType":"Single Family Residence","livingArea":2420,"unparsedAddress":"2352 Gretchen Elizabeth Ct, Tracy, CA 95377"}},{"type":"Feature","geometry":{"type":"Point","coordinates":[-121.449657,37.741327]},"properties":{"listingKey":"20250719062314751735000000","listingId":"01-41105416","listPrice":588000,"city":"Tracy","baths":2.5,"slug":"20250719062314751735000000","mlsSource":"CRMLS","propertyType":"A","propertySubType":"Single Family Residence","livingArea":1566,"unparsedAddress":"1830 Laurelgrove Ln, Tracy, CA 95376"}},{"type":"Feature","geometry":{"type":"Point","coordinates":[-121.450037,37.723599]},"properties":{"listingKey":"20251030230220582369000000","listingId":"01-41116262","listPrice":789900,"city":"Tracy","baths":3,"slug":"20251030230220582369000000","mlsSource":"CRMLS","propertyType":"A","propertySubType":"Single Family Residence","livingArea":2360,"unparsedAddress":"1841 Summertime Dr, Tracy, CA 95376"}},{"type":"Feature","geometry":{"type":"Point","coordinates":[-121.440485,37.742542]},"properties":{"listingKey":"20251016051452154538000000","listingId":"01-41114865","listPrice":999888,"city":"Tracy","baths":0,"slug":"20251016051452154538000000","mlsSource":"CRMLS","propertyType":"C","propertySubType":"Single Family Residence","associationFee":0,"unparsedAddress":"1300 Richard Dr, Tracy, CA 95376"}},{"type":"Feature","geometry":{"type":"Point","coordinates":[-121.437861,37.726688]},"properties":{"listingKey":"20251113060455699961000000","listingId":"01-41117319","listPrice":639000,"city":"Tracy","baths":2,"slug":"20251113060455699961000000","mlsSource":"CRMLS","propertyType":"A","propertySubType":"Single Family Residence","livingArea":1650,"unparsedAddress":"925 Gotland Ct, Tracy, CA 95376"}}]