[{"type":"Feature","geometry":{"type":"Point","coordinates":[-119.025648,35.27526]},"properties":{"listingKey":"20250918201109859471000000","listingId":"DW-25220350","listPrice":499000,"city":"Bakersfield","baths":3,"slug":"20250918201109859471000000","mlsSource":"CRMLS","propertyType":"A","propertySubType":"Single Family Residence","livingArea":2429,"associationFee":0,"unparsedAddress":"2103 Delgada, Bakersfield, CA 93313"}},{"type":"Feature","geometry":{"type":"Point","coordinates":[-119.025484,35.295245]},"properties":{"listingKey":"20250814042217935350000000","listingId":"CV-25183135","listPrice":329900,"city":"Bakersfield","baths":3,"slug":"20250814042217935350000000","mlsSource":"CRMLS","propertyType":"A","propertySubType":"Single Family Residence","livingArea":1600,"associationFee":156,"unparsedAddress":"6505 Sky View Drive, Bakersfield, CA 93307"}},{"type":"Feature","geometry":{"type":"Point","coordinates":[-119.006834,35.313308]},"properties":{"listingKey":"20251029214359649231000000","listingId":"PI-25249849","listPrice":399000,"city":"Bakersfield","baths":2,"slug":"20251029214359649231000000","mlsSource":"CRMLS","propertyType":"A","propertySubType":"Single Family Residence","livingArea":1788,"associationFee":0,"unparsedAddress":"4519 Vern Street, Bakersfield, CA 93307"}},{"type":"Feature","geometry":{"type":"Point","coordinates":[-119.008854,35.282198]},"properties":{"listingKey":"20251104192810072408000000","listingId":"FR-25250633","listPrice":999000,"city":"Bakersfield","baths":7,"slug":"20251104192810072408000000","mlsSource":"CRMLS","propertyType":"A","propertySubType":"Quadruplex","livingArea":4432,"associationFee":735,"unparsedAddress":"600 Hosking, 10, Bakersfield, CA 93307"}},{"type":"Feature","geometry":{"type":"Point","coordinates":[-119.053383,35.279169]},"properties":{"listingKey":"20251105230149089822000000","listingId":"NS-25254565","listPrice":390000,"city":"Bakersfield","baths":1.75,"slug":"20251105230149089822000000","mlsSource":"CRMLS","propertyType":"A","propertySubType":"Single Family Residence","livingArea":1307,"associationFee":0,"unparsedAddress":"4606 Sun Devils, Bakersfield, CA 93313"}},{"type":"Feature","geometry":{"type":"Point","coordinates":[-119.066276,35.282606]},"properties":{"listingKey":"20251008195940060826000000","listingId":"8P-2507666","listPrice":479000,"city":"Bakersfield","baths":3,"slug":"20251008195940060826000000","mlsSource":"CRMLS","propertyType":"A","propertySubType":"Single Family Residence","livingArea":1884,"associationFee":0,"unparsedAddress":"5803 Vespucci Avenue, Bakersfield, CA 93313"}},{"type":"Feature","id":291399,"properties":{"cluster":true,"cluster_id":291399,"point_count":2,"point_count_abbreviated":2},"geometry":{"type":"Point","coordinates":[-119.04685109853745,35.28699186790959]}},{"type":"Feature","geometry":{"type":"Point","coordinates":[-119.067944,35.294029]},"properties":{"listingKey":"20251022184734594775000000","listingId":"PI-25245043","listPrice":449000,"city":"Bakersfield","baths":2,"slug":"20251022184734594775000000","mlsSource":"CRMLS","propertyType":"A","propertySubType":"Single Family Residence","livingArea":2027,"associationFee":0,"unparsedAddress":"5913 Hawthorn Tree, Bakersfield, CA 93313"}},{"type":"Feature","id":256006,"properties":{"cluster":true,"cluster_id":256006,"point_count":3,"point_count_abbreviated":3},"geometry":{"type":"Point","coordinates":[-119.08552229404451,35.29605257183317]}},{"type":"Feature","geometry":{"type":"Point","coordinates":[-119.085748,35.308307]},"properties":{"listingKey":"20250909041924557329000000","listingId":"NS-25203530","listPrice":320000,"city":"Bakersfield","baths":2,"slug":"20250909041924557329000000","mlsSource":"CRMLS","propertyType":"A","propertySubType":"Single Family Residence","livingArea":1055,"associationFee":158,"unparsedAddress":"7511 Stone Breakers Avenue, Bakersfield, CA 93313"}},{"type":"Feature","geometry":{"type":"Point","coordinates":[-119.031377,35.310136]},"properties":{"listingKey":"20250828222509194762000000","listingId":"PI-25160535","listPrice":345000,"city":"Bakersfield","baths":1.75,"slug":"20250828222509194762000000","mlsSource":"CRMLS","propertyType":"A","propertySubType":"Single Family Residence","livingArea":1447,"associationFee":0,"unparsedAddress":"2521 Pacheco Road, Bakersfield, CA 93307"}}]