[{"type":"Feature","geometry":{"type":"Point","coordinates":[-121.600024,39.802343]},"properties":{"listingKey":"20251010022547180220000000","listingId":"SN-25232016","listPrice":269000,"city":"Magalia","baths":2,"slug":"20251010022547180220000000","mlsSource":"CRMLS","propertyType":"A","propertySubType":"Single Family Residence","livingArea":1782,"associationFee":310,"unparsedAddress":"6366 Scripps, Magalia, CA 95954"}},{"type":"Feature","id":262279,"properties":{"cluster":true,"cluster_id":262279,"point_count":3,"point_count_abbreviated":3},"geometry":{"type":"Point","coordinates":[-121.59920632839203,39.80843439293915]}},{"type":"Feature","geometry":{"type":"Point","coordinates":[-121.607368,39.781431]},"properties":{"listingKey":"20250821134229531991000000","listingId":"SN-25188491","listPrice":509000,"city":"Paradise","baths":3,"slug":"20250821134229531991000000","mlsSource":"CRMLS","propertyType":"A","propertySubType":"Single Family Residence","livingArea":1889,"associationFee":0,"unparsedAddress":"8404 Montna Drive, Paradise, CA 95969"}},{"type":"Feature","id":327112,"properties":{"cluster":true,"cluster_id":327112,"point_count":2,"point_count_abbreviated":2},"geometry":{"type":"Point","coordinates":[-121.6035059094429,39.77718546562471]}},{"type":"Feature","geometry":{"type":"Point","coordinates":[-121.628415,39.775125]},"properties":{"listingKey":"20250906042550158337000000","listingId":"SN-25200469","listPrice":250000,"city":"Paradise","baths":1,"slug":"20250906042550158337000000","mlsSource":"CRMLS","propertyType":"A","propertySubType":"Single Family Residence","livingArea":948,"associationFee":0,"unparsedAddress":"6342 Baston Lane, Paradise, CA 95969"}}]