[{"type":"Feature","id":119401,"properties":{"cluster":true,"cluster_id":119401,"point_count":2,"point_count_abbreviated":2},"geometry":{"type":"Point","coordinates":[-116.86790227890015,34.25599270762024]}},{"type":"Feature","geometry":{"type":"Point","coordinates":[-116.869716,34.257893]},"properties":{"listingKey":"20250621041855635261000000","listingId":"IV-25133159","listPrice":995000,"city":"Big Bear Lake","baths":3.5,"slug":"20250621041855635261000000","mlsSource":"CRMLS","propertyType":"A","propertySubType":"Single Family Residence","livingArea":2122,"associationFee":0,"unparsedAddress":"42728 Timberline Trail, Big Bear Lake, CA 92315"}},{"type":"Feature","id":834249,"properties":{"cluster":true,"cluster_id":834249,"point_count":3,"point_count_abbreviated":3},"geometry":{"type":"Point","coordinates":[-116.8666237592697,34.255611395041086]}},{"type":"Feature","geometry":{"type":"Point","coordinates":[-116.864015,34.258277]},"properties":{"listingKey":"20251017170626751797000000","listingId":"219137150","listPrice":359000,"city":"Big Bear City","baths":1,"slug":"20251017170626751797000000","mlsSource":"GPS","propertyType":"A","propertySubType":"Single Family Residence","livingArea":840,"associationFee":0,"unparsedAddress":"1040 W Rainbow Boulevard, Big Bear City, CA 92314"}},{"type":"Feature","geometry":{"type":"Point","coordinates":[-116.864248,34.255238]},"properties":{"listingKey":"20250709124101213031000000","listingId":"SW-25152350","listPrice":779000,"city":"Big Bear City","baths":2,"slug":"20250709124101213031000000","mlsSource":"CRMLS","propertyType":"A","propertySubType":"Single Family Residence","livingArea":1616,"associationFee":0,"unparsedAddress":"457 Woodside Drive, Big Bear City, CA 92314"}},{"type":"Feature","geometry":{"type":"Point","coordinates":[-116.863372,34.261578]},"properties":{"listingKey":"20251105205240193390000000","listingId":"IG-25251313","listPrice":369900,"city":"Big Bear","baths":1,"slug":"20251105205240193390000000","mlsSource":"CRMLS","propertyType":"A","propertySubType":"Single Family Residence","livingArea":898,"associationFee":0,"unparsedAddress":"1026 West Country Club, Big Bear, CA 92314"}},{"type":"Feature","geometry":{"type":"Point","coordinates":[-116.862552,34.257591]},"properties":{"listingKey":"20250711062528577219000000","listingId":"IG-25150169","listPrice":399900,"city":"Big Bear City","baths":1,"slug":"20250711062528577219000000","mlsSource":"CRMLS","propertyType":"A","propertySubType":"Single Family Residence","livingArea":864,"associationFee":0,"unparsedAddress":"1004 Sugarloaf Boulevard, Big Bear City, CA 92314"}}]