[{"type":"Feature","geometry":{"type":"Point","coordinates":[-118.179817,33.874304]},"properties":{"listingKey":"20251001165119645380000000","listingId":"PW-25229640","listPrice":1800,"city":"Long Beach","baths":1,"slug":"20251001165119645380000000","mlsSource":"CRMLS","propertyType":"B","propertySubType":"Apartment","livingArea":570,"associationFee":0,"unparsedAddress":"1054 East Artesia Boulevard, 4, Long Beach, CA 90805"}},{"type":"Feature","geometry":{"type":"Point","coordinates":[-118.17899,33.877537]},"properties":{"listingKey":"20251118205738234674000000","listingId":"OC-25262439","listPrice":725000,"city":"Long Beach","baths":1,"slug":"20251118205738234674000000","mlsSource":"CRMLS","propertyType":"A","propertySubType":"Single Family Residence","livingArea":966,"associationFee":0,"unparsedAddress":"6764 Lemon, Long Beach, CA 90805"}},{"type":"Feature","geometry":{"type":"Point","coordinates":[-118.177678,33.876135]},"properties":{"listingKey":"20251008185951688449000000","listingId":"DW-25235279","listPrice":1350000,"city":"Long Beach","baths":0,"slug":"20251008185951688449000000","mlsSource":"CRMLS","propertyType":"C","propertySubType":"Quadruplex","livingArea":4248,"unparsedAddress":"6685 Orange Avenue, Long Beach, CA 90805"}},{"type":"Feature","geometry":{"type":"Point","coordinates":[-118.174274,33.877589]},"properties":{"listingKey":"20250918212849321923000000","listingId":"DW-25220435","listPrice":750000,"city":"Long Beach","baths":3,"slug":"20250918212849321923000000","mlsSource":"CRMLS","propertyType":"A","propertySubType":"Single Family Residence","livingArea":1030,"associationFee":0,"unparsedAddress":"1441 e eleonor, Long Beach, CA 90805"}},{"type":"Feature","geometry":{"type":"Point","coordinates":[-118.17349,33.874357]},"properties":{"listingKey":"20251028203729841384000000","listingId":"PW-25247306","listPrice":6450000,"city":"Long Beach","baths":0,"slug":"20251028203729841384000000","mlsSource":"CRMLS","propertyType":"C","propertySubType":"Apartment","livingArea":17741,"associationFee":0,"unparsedAddress":"1518 East Artesia, Long Beach, CA 90805"}},{"type":"Feature","geometry":{"type":"Point","coordinates":[-118.17109,33.878756]},"properties":{"listingKey":"20251102213809074583000000","listingId":"DW-25252270","listPrice":3200,"city":"Long Beach","baths":3,"slug":"20251102213809074583000000","mlsSource":"CRMLS","propertyType":"B","propertySubType":"Condominium","livingArea":1293,"unparsedAddress":"1731 East 68th, Long Beach, CA 90805"}}]