[{"type":"Feature","geometry":{"type":"Point","coordinates":[-118.178852,33.784687]},"properties":{"listingKey":"20251003215629224083000000","listingId":"SB-25228766","listPrice":685000,"city":"Long Beach","baths":1,"slug":"20251003215629224083000000","mlsSource":"CRMLS","propertyType":"A","propertySubType":"Single Family Residence","livingArea":968,"associationFee":0,"unparsedAddress":"1448 Lemon Avenue, Long Beach, CA 90813"}},{"type":"Feature","geometry":{"type":"Point","coordinates":[-118.171747,33.784701]},"properties":{"listingKey":"20251021205209230545000000","listingId":"OC-25243436","listPrice":1250000,"city":"Long Beach","baths":0,"slug":"20251021205209230545000000","mlsSource":"CRMLS","propertyType":"C","propertySubType":"Quadruplex","livingArea":3538,"associationFee":0,"unparsedAddress":"1408 Walnut, Long Beach, CA 90813"}},{"type":"Feature","geometry":{"type":"Point","coordinates":[-118.173101,33.784422]},"properties":{"listingKey":"20250919002457381758000000","listingId":"PW-25220534","listPrice":840000,"city":"Long Beach","baths":0,"slug":"20250919002457381758000000","mlsSource":"CRMLS","propertyType":"C","propertySubType":"Triplex","livingArea":1516,"associationFee":0,"unparsedAddress":"13391343 Petersons, Long Beach, CA 90813"}},{"type":"Feature","geometry":{"type":"Point","coordinates":[-118.172552,33.780515]},"properties":{"listingKey":"20250923154514167394000000","listingId":"TR-25222856","listPrice":840000,"city":"Long Beach","baths":2,"slug":"20250923154514167394000000","mlsSource":"CRMLS","propertyType":"A","propertySubType":"Single Family Residence","livingArea":1314,"associationFee":0,"unparsedAddress":"1528 East 11th Street, Long Beach, CA 90813"}},{"type":"Feature","geometry":{"type":"Point","coordinates":[-118.171194,33.780515]},"properties":{"listingKey":"20250708165249256448000000","listingId":"PW-25143605","listPrice":2500000,"city":"Long Beach","baths":0,"slug":"20250708165249256448000000","mlsSource":"CRMLS","propertyType":"C","propertySubType":"Apartment","livingArea":7093,"unparsedAddress":"1083 Gaviota Avenue, Long Beach, CA 90813"}}]