[{"type":"Feature","geometry":{"type":"Point","coordinates":[-117.21254,34.274629]},"properties":{"listingKey":"20250705043724592785000000","listingId":"IG-25150298","listPrice":599000,"city":"Lake Arrowhead","baths":2.75,"slug":"20250705043724592785000000","mlsSource":"CRMLS","propertyType":"A","propertySubType":"Single Family Residence","livingArea":1856,"associationFee":0,"unparsedAddress":"1348 Manzanita Way, Lake Arrowhead, CA 92352"}},{"type":"Feature","geometry":{"type":"Point","coordinates":[-117.210568,34.270959]},"properties":{"listingKey":"20250828072014313318000000","listingId":"IG-25193444","listPrice":574500,"city":"Lake Arrowhead","baths":3.5,"slug":"20250828072014313318000000","mlsSource":"CRMLS","propertyType":"A","propertySubType":"Single Family Residence","livingArea":1666,"associationFee":0,"unparsedAddress":"1164 Klondike Drive, Lake Arrowhead, CA 92352"}},{"type":"Feature","geometry":{"type":"Point","coordinates":[-117.211282,34.272204]},"properties":{"listingKey":"20250906213607725036000000","listingId":"OC-25194658","listPrice":2950,"city":"Lake Arrowhead","baths":2,"slug":"20250906213607725036000000","mlsSource":"CRMLS","propertyType":"B","propertySubType":"Single Family Residence","livingArea":1152,"associationFee":0,"unparsedAddress":"1219 Klondike Drive, Lake Arrowhead, CA 92352"}},{"type":"Feature","geometry":{"type":"Point","coordinates":[-117.209726,34.272514]},"properties":{"listingKey":"20251007005325126407000000","listingId":"IG-25232748","listPrice":565000,"city":"Lake Arrowhead","baths":2.5,"slug":"20251007005325126407000000","mlsSource":"CRMLS","propertyType":"A","propertySubType":"Single Family Residence","livingArea":1516,"associationFee":0,"unparsedAddress":"1242 Evergreen, Lake Arrowhead, CA 92352"}},{"type":"Feature","geometry":{"type":"Point","coordinates":[-117.203258,34.271955]},"properties":{"listingKey":"20250916082103675691000000","listingId":"IG-25193175","listPrice":1195000,"city":"Lake Arrowhead","baths":2.5,"slug":"20250916082103675691000000","mlsSource":"CRMLS","propertyType":"A","propertySubType":"Single Family Residence","livingArea":2342,"associationFee":0,"unparsedAddress":"1166 Nadelhorn Drive, Lake Arrowhead, CA 92352"}},{"type":"Feature","geometry":{"type":"Point","coordinates":[-117.202687,34.273328]},"properties":{"listingKey":"20250831210139365160000000","listingId":"IG-25195962","listPrice":899000,"city":"Lake Arrowhead","baths":3,"slug":"20250831210139365160000000","mlsSource":"CRMLS","propertyType":"A","propertySubType":"Single Family Residence","livingArea":2834,"associationFee":0,"unparsedAddress":"27535 St Bernard Lane, Lake Arrowhead, CA 92352"}}]