[{"type":"Feature","geometry":{"type":"Point","coordinates":[-117.212527,34.267326]},"properties":{"listingKey":"20251012035510959647000000","listingId":"IG-25237915","listPrice":699000,"city":"Lake Arrowhead","baths":2.5,"slug":"20251012035510959647000000","mlsSource":"CRMLS","propertyType":"A","propertySubType":"Single Family Residence","livingArea":2204,"associationFee":0,"unparsedAddress":"955 Teakwood Drive, Lake Arrowhead, CA 92352"}},{"type":"Feature","id":613705,"properties":{"cluster":true,"cluster_id":613705,"point_count":2,"point_count_abbreviated":2},"geometry":{"type":"Point","coordinates":[-117.21182584762573,34.26210234091151]}},{"type":"Feature","geometry":{"type":"Point","coordinates":[-117.206907,34.267467]},"properties":{"listingKey":"20251021210422357411000000","listingId":"IV-25239523","listPrice":540000,"city":"Lake Arrowhead","baths":2,"slug":"20251021210422357411000000","mlsSource":"CRMLS","propertyType":"A","propertySubType":"Single Family Residence","livingArea":2416,"associationFee":0,"unparsedAddress":"971 Nadelhorn Drive, Lake Arrowhead, CA 92352"}},{"type":"Feature","geometry":{"type":"Point","coordinates":[-117.208246,34.266991]},"properties":{"listingKey":"20251120214754481271000000","listingId":"IG-25263869","listPrice":3800,"city":"Lake Arrowhead","baths":3.5,"slug":"20251120214754481271000000","mlsSource":"CRMLS","propertyType":"B","propertySubType":"Single Family Residence","livingArea":2890,"associationFee":0,"unparsedAddress":"943 Nadelhorn, Lake Arrowhead, CA 92352"}},{"type":"Feature","id":485737,"properties":{"cluster":true,"cluster_id":485737,"point_count":2,"point_count_abbreviated":2},"geometry":{"type":"Point","coordinates":[-117.20755845308304,34.26369396496696]}},{"type":"Feature","geometry":{"type":"Point","coordinates":[-117.204271,34.262502]},"properties":{"listingKey":"20250813095908319710000000","listingId":"IG-25182095","listPrice":825000,"city":"Lake Arrowhead","baths":3,"slug":"20250813095908319710000000","mlsSource":"CRMLS","propertyType":"A","propertySubType":"Single Family Residence","livingArea":2620,"associationFee":0,"unparsedAddress":"701 Zurich Drive, Lake Arrowhead, CA 92352"}},{"type":"Feature","geometry":{"type":"Point","coordinates":[-117.211254,34.26875]},"properties":{"listingKey":"20250821134145641097000000","listingId":"IG-25188217","listPrice":1059000,"city":"Lake Arrowhead","baths":3,"slug":"20250821134145641097000000","mlsSource":"CRMLS","propertyType":"A","propertySubType":"Single Family Residence","livingArea":2754,"associationFee":0,"unparsedAddress":"1034 Teakwood Drive, Lake Arrowhead, CA 92352"}},{"type":"Feature","geometry":{"type":"Point","coordinates":[-117.210347,34.269768]},"properties":{"listingKey":"20250909221358323565000000","listingId":"8N-2508868","listPrice":620000,"city":"Lake Arrowhead","baths":2,"slug":"20250909221358323565000000","mlsSource":"CRMLS","propertyType":"A","propertySubType":"Single Family Residence","livingArea":1266,"associationFee":0,"unparsedAddress":"1104 N Grass Valley Rd, Lake Arrowhead, CA 92352"}},{"type":"Feature","geometry":{"type":"Point","coordinates":[-117.206993,34.270597]},"properties":{"listingKey":"20251015154659028521000000","listingId":"IG-25240018","listPrice":2200,"city":"Lake Arrowhead","baths":2.5,"slug":"20251015154659028521000000","mlsSource":"CRMLS","propertyType":"B","propertySubType":"Single Family Residence","livingArea":1496,"associationFee":0,"unparsedAddress":"1135 Yukon, Lake Arrowhead, CA 92352"}},{"type":"Feature","id":176201,"properties":{"cluster":true,"cluster_id":176201,"point_count":13,"point_count_abbreviated":13},"geometry":{"type":"Point","coordinates":[-117.20881640911102,34.26938189056345]}},{"type":"Feature","geometry":{"type":"Point","coordinates":[-117.20227,34.270443]},"properties":{"listingKey":"20250625023424934164000000","listingId":"OC-25131723","listPrice":899000,"city":"Lake Arrowhead","baths":4,"slug":"20250625023424934164000000","mlsSource":"CRMLS","propertyType":"A","propertySubType":"Single Family Residence","livingArea":2838,"associationFee":0,"unparsedAddress":"27547 Alpen Drive, Lake Arrowhead, CA 92352"}}]