[{"type":"Feature","geometry":{"type":"Point","coordinates":[-117.210969,34.246061]},"properties":{"listingKey":"20251003010951520836000000","listingId":"IV-25231305","listPrice":599000,"city":"Blue Jay","baths":1.25,"slug":"20251003010951520836000000","mlsSource":"CRMLS","propertyType":"A","propertySubType":"Commercial/Residential","livingArea":1626,"associationFee":0,"unparsedAddress":"27162 State Highway 189, Blue Jay, CA 92317"}},{"type":"Feature","geometry":{"type":"Point","coordinates":[-117.209862,34.248453]},"properties":{"listingKey":"20251113235042137598000000","listingId":"IV-25259459","listPrice":549000,"city":"Blue Jay","baths":1.75,"slug":"20251113235042137598000000","mlsSource":"CRMLS","propertyType":"A","propertySubType":"Cabin","livingArea":1304,"associationFee":1740,"unparsedAddress":"27191 Little Bear Road, Blue Jay, CA 92317"}},{"type":"Feature","geometry":{"type":"Point","coordinates":[-117.207621,34.249279]},"properties":{"listingKey":"20250807194937376756000000","listingId":"IG-25177957","listPrice":1190000,"city":"Lake Arrowhead","baths":4.5,"slug":"20250807194937376756000000","mlsSource":"CRMLS","propertyType":"A","propertySubType":"Single Family Residence","livingArea":4178,"associationFee":0,"unparsedAddress":"27312 Little Bear Road, Lake Arrowhead, CA 92391"}},{"type":"Feature","geometry":{"type":"Point","coordinates":[-117.209749,34.251991]},"properties":{"listingKey":"20250919153858446693000000","listingId":"IG-25202007","listPrice":629000,"city":"Lake Arrowhead","baths":3,"slug":"20250919153858446693000000","mlsSource":"CRMLS","propertyType":"A","propertySubType":"Single Family Residence","livingArea":1683,"associationFee":0,"unparsedAddress":"114 Old Toll Road, Lake Arrowhead, CA 92317"}},{"type":"Feature","geometry":{"type":"Point","coordinates":[-117.206001,34.251612]},"properties":{"listingKey":"20250907184530124818000000","listingId":"IG-25200099","listPrice":590000,"city":"Lake Arrowhead","baths":2.5,"slug":"20250907184530124818000000","mlsSource":"CRMLS","propertyType":"A","propertySubType":"Single Family Residence","livingArea":1613,"associationFee":0,"unparsedAddress":"27381 Cottonwood Lane, Lake Arrowhead, CA 92317"}},{"type":"Feature","geometry":{"type":"Point","coordinates":[-117.204236,34.244964]},"properties":{"listingKey":"20250827041334073606000000","listingId":"IG-25192037","listPrice":585000,"city":"Blue Jay","baths":2,"slug":"20250827041334073606000000","mlsSource":"CRMLS","propertyType":"A","propertySubType":"Single Family Residence","livingArea":1115,"associationFee":150,"unparsedAddress":"465 Blue Jay Canyon Road, Blue Jay, CA 92317"}}]