[{"type":"Feature","geometry":{"type":"Point","coordinates":[-117.212562,34.255421]},"properties":{"listingKey":"20250904041758986356000000","listingId":"IG-25198371","listPrice":535000,"city":"Lake Arrowhead","baths":1.5,"slug":"20250904041758986356000000","mlsSource":"CRMLS","propertyType":"A","propertySubType":"Single Family Residence","livingArea":1406,"associationFee":0,"unparsedAddress":"307 Pioneer Road, Lake Arrowhead, CA 92352"}},{"type":"Feature","id":780873,"properties":{"cluster":true,"cluster_id":780873,"point_count":2,"point_count_abbreviated":2},"geometry":{"type":"Point","coordinates":[-117.21249103546143,34.25700805478101]}},{"type":"Feature","geometry":{"type":"Point","coordinates":[-117.208518,34.255085]},"properties":{"listingKey":"20251002043117802694000000","listingId":"CV-25230120","listPrice":924900,"city":"Lake Arrowhead","baths":3.5,"slug":"20251002043117802694000000","mlsSource":"CRMLS","propertyType":"A","propertySubType":"Single Family Residence","livingArea":2824,"associationFee":0,"unparsedAddress":"277 Grizzly Road, Lake Arrowhead, CA 92317"}},{"type":"Feature","id":670857,"properties":{"cluster":true,"cluster_id":670857,"point_count":2,"point_count_abbreviated":2},"geometry":{"type":"Point","coordinates":[-117.21096485853195,34.25950424919641]}},{"type":"Feature","geometry":{"type":"Point","coordinates":[-117.209436,34.261495]},"properties":{"listingKey":"20250724051002824733000000","listingId":"IG-25165859","listPrice":569000,"city":"Lake Arrowhead","baths":2,"slug":"20250724051002824733000000","mlsSource":"CRMLS","propertyType":"A","propertySubType":"Single Family Residence","livingArea":1716,"associationFee":0,"unparsedAddress":"27230 Peninsula Drive, Lake Arrowhead, CA 92352"}},{"type":"Feature","geometry":{"type":"Point","coordinates":[-117.207696,34.2569]},"properties":{"listingKey":"20251009232229175510000000","listingId":"IG-25235779","listPrice":675000,"city":"Lake Arrowhead","baths":2,"slug":"20251009232229175510000000","mlsSource":"CRMLS","propertyType":"A","propertySubType":"Single Family Residence","livingArea":1080,"associationFee":0,"unparsedAddress":"385 Birchwood Drive, Lake Arrowhead, CA 92352"}},{"type":"Feature","geometry":{"type":"Point","coordinates":[-117.208438,34.260261]},"properties":{"listingKey":"20250712062749241297000000","listingId":"IG-25122056","listPrice":649000,"city":"Lake Arrowhead","baths":3,"slug":"20250712062749241297000000","mlsSource":"CRMLS","propertyType":"A","propertySubType":"Single Family Residence","livingArea":1690,"associationFee":0,"unparsedAddress":"544 Old Toll Road, Lake Arrowhead, CA 92352"}},{"type":"Feature","geometry":{"type":"Point","coordinates":[-117.206792,34.254729]},"properties":{"listingKey":"20250623223550945658000000","listingId":"IG-25140836","listPrice":599000,"city":"Lake Arrowhead","baths":2,"slug":"20250623223550945658000000","mlsSource":"CRMLS","propertyType":"A","propertySubType":"Single Family Residence","livingArea":1697,"associationFee":0,"unparsedAddress":"279 Old Toll Road, Lake Arrowhead, CA 92317"}},{"type":"Feature","geometry":{"type":"Point","coordinates":[-117.209042,34.253803]},"properties":{"listingKey":"20251021222648320129000000","listingId":"IG-25242849","listPrice":749000,"city":"Lake Arrowhead","baths":4,"slug":"20251021222648320129000000","mlsSource":"CRMLS","propertyType":"A","propertySubType":"Single Family Residence","livingArea":2749,"associationFee":0,"unparsedAddress":"221 Grizzly Road, Lake Arrowhead, CA 92317"}},{"type":"Feature","id":488457,"properties":{"cluster":true,"cluster_id":488457,"point_count":4,"point_count_abbreviated":4},"geometry":{"type":"Point","coordinates":[-117.20306172966957,34.25492414126076]}},{"type":"Feature","id":364425,"properties":{"cluster":true,"cluster_id":364425,"point_count":2,"point_count_abbreviated":2},"geometry":{"type":"Point","coordinates":[-117.2050479054451,34.256458261333094]}},{"type":"Feature","id":641289,"properties":{"cluster":true,"cluster_id":641289,"point_count":2,"point_count_abbreviated":2},"geometry":{"type":"Point","coordinates":[-117.20485210418701,34.253044140947196]}}]