[{"type":"Feature","id":682217,"properties":{"cluster":true,"cluster_id":682217,"point_count":2,"point_count_abbreviated":2},"geometry":{"type":"Point","coordinates":[-117.20923215150833,33.95033322985421]}},{"type":"Feature","geometry":{"type":"Point","coordinates":[-117.211532,33.944884]},"properties":{"listingKey":"20250920042029236007000000","listingId":"IV-25221418","listPrice":545000,"city":"Moreno Valley","baths":3.5,"slug":"20250920042029236007000000","mlsSource":"CRMLS","propertyType":"A","propertySubType":"Single Family Residence","livingArea":1711,"associationFee":0,"unparsedAddress":"12124 Champlain Street, Moreno Valley, CA 92557"}},{"type":"Feature","geometry":{"type":"Point","coordinates":[-117.210405,33.9513]},"properties":{"listingKey":"20251003192813744950000000","listingId":"IV-25231920","listPrice":619990,"city":"Moreno Valley","baths":2,"slug":"20251003192813744950000000","mlsSource":"CRMLS","propertyType":"A","propertySubType":"Single Family Residence","livingArea":2097,"associationFee":107,"unparsedAddress":"11633 rockingham Street, Moreno Valley, CA 92557"}},{"type":"Feature","geometry":{"type":"Point","coordinates":[-117.210538,33.946378]},"properties":{"listingKey":"20251103175749187410000000","listingId":"PW-25252515","listPrice":3000,"city":"Moreno Valley","baths":2.5,"slug":"20251103175749187410000000","mlsSource":"CRMLS","propertyType":"B","propertySubType":"Single Family Residence","livingArea":1381,"associationFee":0,"unparsedAddress":"12015 Ponce De Leon, Moreno Valley, CA 92557"}},{"type":"Feature","geometry":{"type":"Point","coordinates":[-117.213115,33.952371]},"properties":{"listingKey":"20251031012757575022000000","listingId":"IV-25251002","listPrice":637000,"city":"Moreno Valley","baths":2,"slug":"20251031012757575022000000","mlsSource":"CRMLS","propertyType":"A","propertySubType":"Single Family Residence","livingArea":1668,"associationFee":0,"unparsedAddress":"25708 Aspenwood Court, Moreno Valley, CA 92557"}},{"type":"Feature","geometry":{"type":"Point","coordinates":[-117.212536,33.945697]},"properties":{"listingKey":"20251113184050546794000000","listingId":"IG-25255122","listPrice":519900,"city":"Moreno Valley","baths":2,"slug":"20251113184050546794000000","mlsSource":"CRMLS","propertyType":"A","propertySubType":"Single Family Residence","livingArea":1434,"associationFee":0,"unparsedAddress":"12062 Leif Ericson, Moreno Valley, CA 92557"}}]