[{"type":"Feature","geometry":{"type":"Point","coordinates":[-117.210625,33.810738]},"properties":{"listingKey":"20251107000802072428000000","listingId":"PW-25255666","listPrice":579000,"city":"Perris","baths":2,"slug":"20251107000802072428000000","mlsSource":"CRMLS","propertyType":"A","propertySubType":"Single Family Residence","livingArea":1636,"associationFee":0,"unparsedAddress":"711 Myrtle, Perris, CA 92571"}},{"type":"Feature","geometry":{"type":"Point","coordinates":[-117.209225,33.812386]},"properties":{"listingKey":"20250909041933475365000000","listingId":"PW-25195373","listPrice":575000,"city":"Perris","baths":2.75,"slug":"20250909041933475365000000","mlsSource":"CRMLS","propertyType":"A","propertySubType":"Single Family Residence","livingArea":1804,"associationFee":0,"unparsedAddress":"763 Anthirium Avenue, Perris, CA 92571"}},{"type":"Feature","geometry":{"type":"Point","coordinates":[-117.210227,33.814047]},"properties":{"listingKey":"20251013233514172825000000","listingId":"IV-25238840","listPrice":3200,"city":"Perris","baths":2.5,"slug":"20251013233514172825000000","mlsSource":"CRMLS","propertyType":"B","propertySubType":"Single Family Residence","livingArea":1599,"associationFee":0,"unparsedAddress":"719 Camelia, Perris, CA 92571"}},{"type":"Feature","geometry":{"type":"Point","coordinates":[-117.211668,33.807955]},"properties":{"listingKey":"20251031204031774473000000","listingId":"IV-25251331","listPrice":527000,"city":"Perris","baths":2.5,"slug":"20251031204031774473000000","mlsSource":"CRMLS","propertyType":"A","propertySubType":"Single Family Residence","livingArea":1800,"associationFee":0,"unparsedAddress":"662 Spinnaker, Perris, CA 92571"}},{"type":"Feature","geometry":{"type":"Point","coordinates":[-117.208338,33.807225]},"properties":{"listingKey":"20250928063944680002000000","listingId":"IV-25225538","listPrice":3250,"city":"Perris","baths":3,"slug":"20250928063944680002000000","mlsSource":"CRMLS","propertyType":"B","propertySubType":"Single Family Residence","livingArea":2852,"associationFee":0,"unparsedAddress":"1989 Murrieta, Perris, CA 92571"}}]