[{"type":"Feature","geometry":{"type":"Point","coordinates":[-116.549017,34.088764]},"properties":{"listingKey":"20251001235237611170000000","listingId":"219136221","listPrice":259995,"city":"Morongo Valley","baths":0,"slug":"20251001235237611170000000","mlsSource":"GPS","propertyType":"D","associationFee":0,"unparsedAddress":"51170 Panorama Drive, Morongo Valley, CA 92256"}},{"type":"Feature","geometry":{"type":"Point","coordinates":[-116.551858,34.079864]},"properties":{"listingKey":"20250529161617611424000000","listingId":"219130762","listPrice":499000,"city":"Morongo Valley","baths":2,"slug":"20250529161617611424000000","mlsSource":"GPS","propertyType":"A","propertySubType":"Single Family Residence","livingArea":1840,"associationFee":0,"unparsedAddress":"51088 Mecca Road, Morongo Valley, CA 92256"}},{"type":"Feature","geometry":{"type":"Point","coordinates":[-116.562401,34.079951]},"properties":{"listingKey":"20251115003412776611000000","listingId":"JT-25260931","listPrice":350000,"city":"Morongo Valley","baths":2,"slug":"20251115003412776611000000","mlsSource":"CRMLS","propertyType":"A","propertySubType":"Single Family Residence","livingArea":1434,"associationFee":0,"unparsedAddress":"9467 North Star, Morongo Valley, CA 92256"}},{"type":"Feature","geometry":{"type":"Point","coordinates":[-116.556431,34.082603]},"properties":{"listingKey":"20251030211724520697000000","listingId":"JT-25250469","listPrice":335000,"city":"Morongo Valley","baths":1,"slug":"20251030211724520697000000","mlsSource":"CRMLS","propertyType":"A","propertySubType":"Single Family Residence","livingArea":760,"associationFee":0,"unparsedAddress":"50825 Oskar Lane, Morongo Valley, CA 92256"}},{"type":"Feature","id":53384,"properties":{"cluster":true,"cluster_id":53384,"point_count":2,"point_count_abbreviated":2},"geometry":{"type":"Point","coordinates":[-116.54774576425552,34.074688168944846]}},{"type":"Feature","id":75912,"properties":{"cluster":true,"cluster_id":75912,"point_count":2,"point_count_abbreviated":2},"geometry":{"type":"Point","coordinates":[-116.54304653406143,34.07789179254593]}}]