[{"type":"Feature","geometry":{"type":"Point","coordinates":[-118.369934,34.184477]},"properties":{"listingKey":"20251030052408121635000000","listingId":"BB-25250265","listPrice":1800,"city":"North Hollywood","baths":1,"slug":"20251030052408121635000000","mlsSource":"CRMLS","propertyType":"B","propertySubType":"Apartment","livingArea":450,"associationFee":0,"unparsedAddress":"6250 Vineland, North Hollywood, CA 91606"}},{"type":"Feature","id":223816,"properties":{"cluster":true,"cluster_id":223816,"point_count":2,"point_count_abbreviated":2},"geometry":{"type":"Point","coordinates":[-118.38084250688553,34.1805922578003]}},{"type":"Feature","geometry":{"type":"Point","coordinates":[-118.372974,34.185315]},"properties":{"listingKey":"20251003000908106151000000","listingId":"PW-25230806","listPrice":1099000,"city":"North Hollywood","baths":2,"slug":"20251003000908106151000000","mlsSource":"CRMLS","propertyType":"A","propertySubType":"Single Family Residence","livingArea":1844,"associationFee":0,"unparsedAddress":"11117 Sylvan Street, North Hollywood, CA 91606"}},{"type":"Feature","geometry":{"type":"Point","coordinates":[-118.381995,34.186897]},"properties":{"listingKey":"20251029232643543268000000","listingId":"OC-25249968","listPrice":1195000,"city":"Los Angeles","baths":0,"slug":"20251029232643543268000000","mlsSource":"CRMLS","propertyType":"C","propertySubType":"Commercial/Residential","livingArea":4099,"associationFee":0,"unparsedAddress":"6400 Camellia, Los Angeles, CA 91606"}},{"type":"Feature","id":174344,"properties":{"cluster":true,"cluster_id":174344,"point_count":6,"point_count_abbreviated":6},"geometry":{"type":"Point","coordinates":[-118.38237494230269,34.19115806228419]}},{"type":"Feature","id":146505,"properties":{"cluster":true,"cluster_id":146505,"point_count":2,"point_count_abbreviated":2},"geometry":{"type":"Point","coordinates":[-118.38716715574265,34.19122462132606]}},{"type":"Feature","id":807369,"properties":{"cluster":true,"cluster_id":807369,"point_count":2,"point_count_abbreviated":2},"geometry":{"type":"Point","coordinates":[-118.37806642055511,34.186636361716225]}}]