[{"type":"Feature","geometry":{"type":"Point","coordinates":[-118.381277,34.129138]},"properties":{"listingKey":"20250907051220315148000000","listingId":"SW-25201187","listPrice":3199900,"city":"Studio City","baths":4.5,"slug":"20250907051220315148000000","mlsSource":"CRMLS","propertyType":"A","propertySubType":"Single Family Residence","livingArea":3632,"associationFee":0,"unparsedAddress":"11372 Dona Teresa Drive, Studio City, CA 91604"}},{"type":"Feature","geometry":{"type":"Point","coordinates":[-118.375212,34.125842]},"properties":{"listingKey":"20251018004029862217000000","listingId":"WS-25240857","listPrice":4000000,"city":"Studio City","baths":5.5,"slug":"20251018004029862217000000","mlsSource":"CRMLS","propertyType":"A","propertySubType":"Single Family Residence","livingArea":6745,"associationFee":0,"unparsedAddress":"3016 Dona Susana Drive, Studio City, CA 91604"}},{"type":"Feature","geometry":{"type":"Point","coordinates":[-118.374359,34.138419]},"properties":{"listingKey":"20250924030208283467000000","listingId":"GD-25203353","listPrice":7500,"city":"Studio City","baths":2,"slug":"20250924030208283467000000","mlsSource":"CRMLS","propertyType":"B","propertySubType":"Single Family Residence","livingArea":2323,"associationFee":0,"unparsedAddress":"3853 Eureka Drive, Studio City, CA 91604"}},{"type":"Feature","geometry":{"type":"Point","coordinates":[-118.371069,34.13997]},"properties":{"listingKey":"20251029230509894242000000","listingId":"PT-25249980","listPrice":6000,"city":"Studio City","baths":3.5,"slug":"20251029230509894242000000","mlsSource":"CRMLS","propertyType":"B","propertySubType":"Condominium","livingArea":1820,"unparsedAddress":"11023 Fruitland Drive, 104, Studio City, CA 91604"}},{"type":"Feature","geometry":{"type":"Point","coordinates":[-118.367198,34.140486]},"properties":{"listingKey":"20251121022015941381000000","listingId":"BB-25263955","listPrice":839000,"city":"Studio City","baths":3,"slug":"20251121022015941381000000","mlsSource":"CRMLS","propertyType":"A","propertySubType":"Townhouse","livingArea":1730,"associationFee":425,"unparsedAddress":"10866 Bluffside, 5, Studio City, CA 91604"}},{"type":"Feature","geometry":{"type":"Point","coordinates":[-118.368285,34.128012]},"properties":{"listingKey":"20250911162905064249000000","listingId":"P1-24069","listPrice":10000,"city":"Los Angeles","baths":4.75,"slug":"20250911162905064249000000","mlsSource":"CRMLS","propertyType":"B","propertySubType":"Single Family Residence","livingArea":3251,"unparsedAddress":"7772 Torreyson Drive, Los Angeles, CA 90046"}}]