[{"type":"Feature","id":400040,"properties":{"cluster":true,"cluster_id":400040,"point_count":4,"point_count_abbreviated":4},"geometry":{"type":"Point","coordinates":[-118.37512940168381,33.97359636568805]}},{"type":"Feature","geometry":{"type":"Point","coordinates":[-118.382349,33.963353]},"properties":{"listingKey":"20251114155930197798000000","listingId":"DW-25253656","listPrice":1070000,"city":"Los Angeles","baths":1,"slug":"20251114155930197798000000","mlsSource":"CRMLS","propertyType":"A","propertySubType":"Single Family Residence","livingArea":1140,"associationFee":0,"unparsedAddress":"8301 Reading Avenue, Los Angeles, CA 90045"}},{"type":"Feature","geometry":{"type":"Point","coordinates":[-118.381901,33.969477]},"properties":{"listingKey":"20251015001720498803000000","listingId":"P1-24556","listPrice":5700,"city":"Los Angeles","baths":1.75,"slug":"20251015001720498803000000","mlsSource":"CRMLS","propertyType":"B","propertySubType":"Single Family Residence","livingArea":1621,"unparsedAddress":"7601 Flight Avenue, Los Angeles, CA 90045"}},{"type":"Feature","geometry":{"type":"Point","coordinates":[-118.376019,33.963868]},"properties":{"listingKey":"20251008223754691519000000","listingId":"P1-24474","listPrice":2050000,"city":"Los Angeles","baths":3,"slug":"20251008223754691519000000","mlsSource":"CRMLS","propertyType":"A","propertySubType":"Single Family Residence","livingArea":3520,"unparsedAddress":"5516 West 82 Street, Los Angeles, CA 90045"}},{"type":"Feature","id":760616,"properties":{"cluster":true,"cluster_id":760616,"point_count":2,"point_count_abbreviated":2},"geometry":{"type":"Point","coordinates":[-118.37504893541336,33.968833913960864]}},{"type":"Feature","id":450344,"properties":{"cluster":true,"cluster_id":450344,"point_count":2,"point_count_abbreviated":2},"geometry":{"type":"Point","coordinates":[-118.37506234645844,33.97971531309332]}},{"type":"Feature","geometry":{"type":"Point","coordinates":[-118.371004,33.974844]},"properties":{"listingKey":"20250928072250267284000000","listingId":"SB-25222529","listPrice":2350000,"city":"Los Angeles","baths":0,"slug":"20250928072250267284000000","mlsSource":"CRMLS","propertyType":"C","propertySubType":"Apartment","livingArea":5097,"associationFee":0,"unparsedAddress":"6900 Knowlton Place, Los Angeles, CA 90045"}},{"type":"Feature","geometry":{"type":"Point","coordinates":[-118.369828,33.969455]},"properties":{"listingKey":"20251114033536052369000000","listingId":"IN-25260343","listPrice":2500,"city":"Inglewood","baths":5,"slug":"20251114033536052369000000","mlsSource":"CRMLS","propertyType":"B","propertySubType":"Quadruplex","livingArea":4536,"associationFee":0,"unparsedAddress":"7212 South La Cienega, Inglewood, CA 90302"}},{"type":"Feature","geometry":{"type":"Point","coordinates":[-118.370532,33.971719]},"properties":{"listingKey":"20251114233944690005000000","listingId":"PV-25260871","listPrice":3800,"city":"Los Angeles","baths":2,"slug":"20251114233944690005000000","mlsSource":"CRMLS","propertyType":"B","propertySubType":"Quadruplex","livingArea":1300,"associationFee":0,"unparsedAddress":"7125 South La Cienega Boulevard, Los Angeles, CA 90045"}}]