[{"type":"Feature","geometry":{"type":"Point","coordinates":[-118.371924,33.907684]},"properties":{"listingKey":"20251106164528160039000000","listingId":"PW-25247711","listPrice":1299000,"city":"Hawthorne","baths":2,"slug":"20251106164528160039000000","mlsSource":"CRMLS","propertyType":"A","propertySubType":"Single Family Residence","livingArea":1123,"associationFee":0,"unparsedAddress":"5250 West 137th St, Hawthorne, CA 90250"}},{"type":"Feature","id":237960,"properties":{"cluster":true,"cluster_id":237960,"point_count":5,"point_count_abbreviated":5},"geometry":{"type":"Point","coordinates":[-118.37694311141969,33.914711427406075]}},{"type":"Feature","geometry":{"type":"Point","coordinates":[-118.36958,33.909218]},"properties":{"listingKey":"20251022202631633572000000","listingId":"PW-25245171","listPrice":1149999,"city":"Hawthorne","baths":2,"slug":"20251022202631633572000000","mlsSource":"CRMLS","propertyType":"A","propertySubType":"Single Family Residence","livingArea":1567,"associationFee":0,"unparsedAddress":"5174 West 135th, Hawthorne, CA 90250"}},{"type":"Feature","id":602120,"properties":{"cluster":true,"cluster_id":602120,"point_count":2,"point_count_abbreviated":2},"geometry":{"type":"Point","coordinates":[-118.37574362754822,33.92274826399469]}},{"type":"Feature","id":250600,"properties":{"cluster":true,"cluster_id":250600,"point_count":4,"point_count_abbreviated":4},"geometry":{"type":"Point","coordinates":[-118.36686283349991,33.915251869901596]}},{"type":"Feature","geometry":{"type":"Point","coordinates":[-118.37149,33.912377]},"properties":{"listingKey":"20251030035156312618000000","listingId":"PW-25248381","listPrice":1299999,"city":"Hawthorne","baths":2,"slug":"20251030035156312618000000","mlsSource":"CRMLS","propertyType":"A","propertySubType":"Single Family Residence","livingArea":1124,"associationFee":0,"unparsedAddress":"13229 Glasgow Place, Hawthorne, CA 90250"}},{"type":"Feature","geometry":{"type":"Point","coordinates":[-118.369659,33.922998]},"properties":{"listingKey":"20251024235919198559000000","listingId":"SB-25242833","listPrice":1499000,"city":"Hawthorne","baths":4,"slug":"20251024235919198559000000","mlsSource":"CRMLS","propertyType":"A","propertySubType":"Single Family Residence","livingArea":2788,"associationFee":0,"unparsedAddress":"12102 South La Cienega Boulevard, Hawthorne, CA 90250"}}]