[{"type":"Feature","geometry":{"type":"Point","coordinates":[-118.387044,33.793834]},"properties":{"listingKey":"20251112234258692523000000","listingId":"PV-25259310","listPrice":14000,"city":"Palos Verdes Estates","baths":5,"slug":"20251112234258692523000000","mlsSource":"CRMLS","propertyType":"B","propertySubType":"Single Family Residence","livingArea":4546,"associationFee":0,"unparsedAddress":"972 Via Rincon, Palos Verdes Estates, CA 90274"}},{"type":"Feature","geometry":{"type":"Point","coordinates":[-118.386696,33.787883]},"properties":{"listingKey":"20251001212246617092000000","listingId":"PV-25221278","listPrice":3500000,"city":"Palos Verdes Estates","baths":3.5,"slug":"20251001212246617092000000","mlsSource":"CRMLS","propertyType":"A","propertySubType":"Single Family Residence","livingArea":2852,"associationFee":0,"unparsedAddress":"2457 Via Sonoma, Palos Verdes Estates, CA 90274"}},{"type":"Feature","geometry":{"type":"Point","coordinates":[-118.385333,33.790364]},"properties":{"listingKey":"20250709125522459346000000","listingId":"OC-25153371","listPrice":6880000,"city":"Palos Verdes Estates","baths":2.5,"slug":"20250709125522459346000000","mlsSource":"CRMLS","propertyType":"A","propertySubType":"Single Family Residence","livingArea":3586,"associationFee":0,"unparsedAddress":"2521 Novato Place, Palos Verdes Estates, CA 90274"}},{"type":"Feature","geometry":{"type":"Point","coordinates":[-118.383673,33.781811]},"properties":{"listingKey":"20251115191418151565000000","listingId":"PV-25260720","listPrice":6800,"city":"Rancho Palos Verdes","baths":2,"slug":"20251115191418151565000000","mlsSource":"CRMLS","propertyType":"B","propertySubType":"Single Family Residence","livingArea":2490,"associationFee":0,"unparsedAddress":"5915 Finecrest Drive, Rancho Palos Verdes, CA 90275"}},{"type":"Feature","geometry":{"type":"Point","coordinates":[-118.369761,33.780217]},"properties":{"listingKey":"20251111002905149407000000","listingId":"SB-25253886","listPrice":1880000,"city":"Rancho Palos Verdes","baths":2.5,"slug":"20251111002905149407000000","mlsSource":"CRMLS","propertyType":"A","propertySubType":"Single Family Residence","livingArea":1896,"associationFee":0,"unparsedAddress":"5044 Blackhorse Road, Rancho Palos Verdes, CA 90275"}},{"type":"Feature","geometry":{"type":"Point","coordinates":[-118.376521,33.794646]},"properties":{"listingKey":"20250702061627894287000000","listingId":"OC-25147764","listPrice":3299000,"city":"Rancho Palos Verdes","baths":3.5,"slug":"20250702061627894287000000","mlsSource":"CRMLS","propertyType":"A","propertySubType":"Single Family Residence","livingArea":3884,"associationFee":0,"unparsedAddress":"5 Yellow Brick Road, Rancho Palos Verdes, CA 90275"}},{"type":"Feature","geometry":{"type":"Point","coordinates":[-118.368193,33.786001]},"properties":{"listingKey":"20251116033717555608000000","listingId":"PV-25261324","listPrice":7000,"city":"Rolling Hills Estates","baths":3,"slug":"20251116033717555608000000","mlsSource":"CRMLS","propertyType":"B","propertySubType":"Single Family Residence","livingArea":2414,"associationFee":0,"unparsedAddress":"32 Silver Spring, Rolling Hills Estates, CA 90274"}},{"type":"Feature","geometry":{"type":"Point","coordinates":[-118.383205,33.789068]},"properties":{"listingKey":"20250914054756936754000000","listingId":"PV-25216906","listPrice":6500000,"city":"Rancho Palos Verdes","baths":4.5,"slug":"20250914054756936754000000","mlsSource":"CRMLS","propertyType":"A","propertySubType":"Single Family Residence","livingArea":5342,"associationFee":0,"unparsedAddress":"6039 Via Sonoma, Rancho Palos Verdes, CA 90275"}}]