[{"type":"Feature","geometry":{"type":"Point","coordinates":[-117.300285,34.481094]},"properties":{"listingKey":"20250711062626499571000000","listingId":"CV-25155254","listPrice":425000,"city":"Victorville","baths":3,"slug":"20250711062626499571000000","mlsSource":"CRMLS","propertyType":"A","propertySubType":"Single Family Residence","livingArea":1959,"associationFee":0,"unparsedAddress":"16657 Country Ranch Court, Victorville, CA 92395"}},{"type":"Feature","geometry":{"type":"Point","coordinates":[-117.295503,34.477697]},"properties":{"listingKey":"20250822153719467922000000","listingId":"CV-25189845","listPrice":365000,"city":"Victorville","baths":2,"slug":"20250822153719467922000000","mlsSource":"CRMLS","propertyType":"A","propertySubType":"Single Family Residence","livingArea":1257,"associationFee":0,"unparsedAddress":"16880 Glennaire Avenue, Victorville, CA 92395"}},{"type":"Feature","geometry":{"type":"Point","coordinates":[-117.298532,34.482979]},"properties":{"listingKey":"20251022214920565767000000","listingId":"OC-25243734","listPrice":439900,"city":"Victorville","baths":2,"slug":"20251022214920565767000000","mlsSource":"CRMLS","propertyType":"A","propertySubType":"Single Family Residence","livingArea":1733,"associationFee":0,"unparsedAddress":"12764 Amber Creek Circle, Victorville, CA 92395"}},{"type":"Feature","geometry":{"type":"Point","coordinates":[-117.310271,34.477061]},"properties":{"listingKey":"20251113140602962856000000","listingId":"P1-24918","listPrice":2300,"city":"Victorville","baths":2.5,"slug":"20251113140602962856000000","mlsSource":"CRMLS","propertyType":"B","propertySubType":"Single Family Residence","livingArea":1646,"unparsedAddress":"12449 Datewood Lane, Victorville, CA 92395"}},{"type":"Feature","geometry":{"type":"Point","coordinates":[-117.305865,34.481149]},"properties":{"listingKey":"20251115215622885437000000","listingId":"DW-25261246","listPrice":3000,"city":"Victorville","baths":2,"slug":"20251115215622885437000000","mlsSource":"CRMLS","propertyType":"B","propertySubType":"Single Family Residence","livingArea":2220,"associationFee":0,"unparsedAddress":"12673 Field Way, Victorville, CA 92395"}},{"type":"Feature","geometry":{"type":"Point","coordinates":[-117.307401,34.475773]},"properties":{"listingKey":"20251106222627929093000000","listingId":"IG-25255511","listPrice":385900,"city":"Victorville","baths":2,"slug":"20251106222627929093000000","mlsSource":"CRMLS","propertyType":"A","propertySubType":"Single Family Residence","livingArea":1585,"associationFee":0,"unparsedAddress":"12374 Chuckwalla, Victorville, CA 92395"}},{"type":"Feature","geometry":{"type":"Point","coordinates":[-117.302737,34.484113]},"properties":{"listingKey":"20250904082848020759000000","listingId":"DW-25198682","listPrice":399000,"city":"Victorville","baths":3,"slug":"20250904082848020759000000","mlsSource":"CRMLS","propertyType":"A","propertySubType":"Single Family Residence","livingArea":2046,"associationFee":0,"unparsedAddress":"16546 San Juan Place, Victorville, CA 92395"}}]