[{"type":"Feature","geometry":{"type":"Point","coordinates":[-116.945787,33.936098]},"properties":{"listingKey":"20250913072653901200000000","listingId":"IG-25214418","listPrice":525000,"city":"Banning","baths":2.5,"slug":"20250913072653901200000000","mlsSource":"CRMLS","propertyType":"A","propertySubType":"Single Family Residence","livingArea":1957,"associationFee":195,"unparsedAddress":"1161 Richland, Banning, CA 92220"}},{"type":"Feature","geometry":{"type":"Point","coordinates":[-116.943212,33.935292]},"properties":{"listingKey":"20250929033707621913000000","listingId":"SW-25223276","listPrice":530000,"city":"Banning","baths":2.5,"slug":"20250929033707621913000000","mlsSource":"CRMLS","propertyType":"A","propertySubType":"Single Family Residence","livingArea":1957,"associationFee":195,"unparsedAddress":"6060 Mariposa Drive, Banning, CA 92220"}},{"type":"Feature","geometry":{"type":"Point","coordinates":[-116.940008,33.936733]},"properties":{"listingKey":"20250828073546299369000000","listingId":"OC-25193636","listPrice":685000,"city":"Banning","baths":3,"slug":"20250828073546299369000000","mlsSource":"CRMLS","propertyType":"A","propertySubType":"Single Family Residence","livingArea":3293,"associationFee":202,"unparsedAddress":"5762 Verde Way, Banning, CA 92220"}},{"type":"Feature","geometry":{"type":"Point","coordinates":[-116.939805,33.941745]},"properties":{"listingKey":"20251030031051803672000000","listingId":"OC-25250176","listPrice":525000,"city":"Banning","baths":2,"slug":"20251030031051803672000000","mlsSource":"CRMLS","propertyType":"A","propertySubType":"Single Family Residence","livingArea":2142,"associationFee":202,"unparsedAddress":"5751 Falcon Way, Banning, CA 92220"}},{"type":"Feature","id":214089,"properties":{"cluster":true,"cluster_id":214089,"point_count":2,"point_count_abbreviated":2},"geometry":{"type":"Point","coordinates":[-116.94901496171951,33.936470653987996]}},{"type":"Feature","geometry":{"type":"Point","coordinates":[-116.941487,33.938053]},"properties":{"listingKey":"20251113044339855648000000","listingId":"IV-25259588","listPrice":724800,"city":"Banning","baths":3,"slug":"20251113044339855648000000","mlsSource":"CRMLS","propertyType":"A","propertySubType":"Single Family Residence","livingArea":3293,"associationFee":200,"unparsedAddress":"5903 Banbury Lane, Banning, CA 92220"}},{"type":"Feature","geometry":{"type":"Point","coordinates":[-116.941546,33.939266]},"properties":{"listingKey":"20250921034234419919000000","listingId":"CV-25219120","listPrice":629800,"city":"Banning","baths":3,"slug":"20250921034234419919000000","mlsSource":"CRMLS","propertyType":"A","propertySubType":"Single Family Residence","livingArea":2286,"associationFee":102,"unparsedAddress":"1525 Horizon, Banning, CA 92220"}}]