[{"type":"Feature","geometry":{"type":"Point","coordinates":[-122.756871,39.014315]},"properties":{"listingKey":"20250726203840458683000000","listingId":"LC-25161315","listPrice":750000,"city":"Kelseyville","baths":3.5,"slug":"20250726203840458683000000","mlsSource":"CRMLS","propertyType":"A","propertySubType":"Single Family Residence","livingArea":3192,"associationFee":211,"unparsedAddress":"1940 Westlake Drive, Kelseyville, CA 95451"}},{"type":"Feature","id":69222,"properties":{"cluster":true,"cluster_id":69222,"point_count":8,"point_count_abbreviated":8},"geometry":{"type":"Point","coordinates":[-122.78266668319702,39.00443854211639]}},{"type":"Feature","geometry":{"type":"Point","coordinates":[-122.768626,39.000975]},"properties":{"listingKey":"20250828012705133934000000","listingId":"LC-25185726","listPrice":365000,"city":"Kelseyville","baths":2,"slug":"20250828012705133934000000","mlsSource":"CRMLS","propertyType":"A","propertySubType":"Single Family Residence","livingArea":1396,"associationFee":485,"unparsedAddress":"7847 Evergreen Drive, Kelseyville, CA 95451"}},{"type":"Feature","id":193574,"properties":{"cluster":true,"cluster_id":193574,"point_count":5,"point_count_abbreviated":5},"geometry":{"type":"Point","coordinates":[-122.75603556632997,39.0002826686742]}},{"type":"Feature","id":107719,"properties":{"cluster":true,"cluster_id":107719,"point_count":4,"point_count_abbreviated":4},"geometry":{"type":"Point","coordinates":[-122.75164693593979,38.98883555842235]}},{"type":"Feature","id":255623,"properties":{"cluster":true,"cluster_id":255623,"point_count":3,"point_count_abbreviated":3},"geometry":{"type":"Point","coordinates":[-122.74110317230225,38.981168650574176]}},{"type":"Feature","geometry":{"type":"Point","coordinates":[-122.713527,38.965424]},"properties":{"listingKey":"20251003000905778492000000","listingId":"LC-25230766","listPrice":274900,"city":"Kelseyville","baths":1,"slug":"20251003000905778492000000","mlsSource":"CRMLS","propertyType":"A","propertySubType":"Single Family Residence","livingArea":900,"associationFee":140,"unparsedAddress":"4561 Lagoon, Kelseyville, CA 95451"}},{"type":"Feature","geometry":{"type":"Point","coordinates":[-122.711101,39.001123]},"properties":{"listingKey":"20250916081614406156000000","listingId":"LC-25217898","listPrice":258000,"city":"Clearlake","baths":1,"slug":"20250916081614406156000000","mlsSource":"CRMLS","propertyType":"A","propertySubType":"Single Family Residence","livingArea":624,"associationFee":0,"unparsedAddress":"10670 Lakeshore Drive, Clearlake, CA 95422"}},{"type":"Feature","id":196006,"properties":{"cluster":true,"cluster_id":196006,"point_count":2,"point_count_abbreviated":2},"geometry":{"type":"Point","coordinates":[-122.72019803524017,39.025906040556634]}}]