[{"type":"Feature","id":196486,"properties":{"cluster":true,"cluster_id":196486,"point_count":4,"point_count_abbreviated":4},"geometry":{"type":"Point","coordinates":[-122.7091272175312,38.86043554715286]}},{"type":"Feature","geometry":{"type":"Point","coordinates":[-122.782138,38.882751]},"properties":{"listingKey":"20250724113522913615000000","listingId":"LC-25164086","listPrice":455000,"city":"Kelseyville","baths":2,"slug":"20250724113522913615000000","mlsSource":"CRMLS","propertyType":"A","propertySubType":"Manufactured On Land","livingArea":1006,"associationFee":0,"unparsedAddress":"11444 Bottle Rock Road, Kelseyville, CA 95451"}},{"type":"Feature","geometry":{"type":"Point","coordinates":[-122.753613,38.860453]},"properties":{"listingKey":"20251030211726192450000000","listingId":"LC-25250465","listPrice":445000,"city":"Loch Lomond","baths":2,"slug":"20251030211726192450000000","mlsSource":"CRMLS","propertyType":"A","propertySubType":"Manufactured On Land","livingArea":1440,"associationFee":0,"unparsedAddress":"8320 Sulphur Creek Road, Loch Lomond, CA 95461"}},{"type":"Feature","geometry":{"type":"Point","coordinates":[-122.762335,38.844919]},"properties":{"listingKey":"20251008162353381081000000","listingId":"LC-25231978","listPrice":789000,"city":"Cobb","baths":2,"slug":"20251008162353381081000000","mlsSource":"CRMLS","propertyType":"A","propertySubType":"Single Family Residence","livingArea":2951,"associationFee":0,"unparsedAddress":"6850 High Valley Road, Cobb, CA 95426"}},{"type":"Feature","id":195718,"properties":{"cluster":true,"cluster_id":195718,"point_count":4,"point_count_abbreviated":4},"geometry":{"type":"Point","coordinates":[-122.7320909500122,38.83051670825097]}},{"type":"Feature","geometry":{"type":"Point","coordinates":[-122.7361,38.871252]},"properties":{"listingKey":"20250930013209928240000000","listingId":"LC-25226043","listPrice":395000,"city":"Middletown","baths":2,"slug":"20250930013209928240000000","mlsSource":"CRMLS","propertyType":"A","propertySubType":"Manufactured On Land","livingArea":1344,"associationFee":0,"unparsedAddress":"9356 Rockys Road, Middletown, CA 95461"}},{"type":"Feature","id":249990,"properties":{"cluster":true,"cluster_id":249990,"point_count":4,"point_count_abbreviated":4},"geometry":{"type":"Point","coordinates":[-122.73102343082428,38.84991462490035]}},{"type":"Feature","id":206790,"properties":{"cluster":true,"cluster_id":206790,"point_count":2,"point_count_abbreviated":2},"geometry":{"type":"Point","coordinates":[-122.73039042949677,38.84126194801624]}},{"type":"Feature","geometry":{"type":"Point","coordinates":[-122.727556,38.875993]},"properties":{"listingKey":"20250714095500329299000000","listingId":"LC-25157342","listPrice":375000,"city":"Kelseyville","baths":1,"slug":"20250714095500329299000000","mlsSource":"CRMLS","propertyType":"A","propertySubType":"Single Family Residence","livingArea":952,"associationFee":0,"unparsedAddress":"10899 Highway 175, Kelseyville, CA 95451"}}]