[{"type":"Feature","geometry":{"type":"Point","coordinates":[-117.147896,34.068885]},"properties":{"listingKey":"20251118182126040930000000","listingId":"IG-25261790","listPrice":2900,"city":"Redlands","baths":2,"slug":"20251118182126040930000000","mlsSource":"CRMLS","propertyType":"B","propertySubType":"Single Family Residence","livingArea":1200,"associationFee":0,"unparsedAddress":"1221 North Dearborn Avenue, Redlands, CA 92374"}},{"type":"Feature","geometry":{"type":"Point","coordinates":[-117.15746,34.065243]},"properties":{"listingKey":"20251106084519911681000000","listingId":"IG-25253614","listPrice":649900,"city":"Redlands","baths":2,"slug":"20251106084519911681000000","mlsSource":"CRMLS","propertyType":"A","propertySubType":"Single Family Residence","livingArea":1740,"associationFee":0,"unparsedAddress":"1326 Campus, Redlands, CA 92374"}},{"type":"Feature","geometry":{"type":"Point","coordinates":[-117.149875,34.064473]},"properties":{"listingKey":"20251106181207939533000000","listingId":"IV-25254647","listPrice":3095,"city":"Redlands","baths":1.75,"slug":"20251106181207939533000000","mlsSource":"CRMLS","propertyType":"B","propertySubType":"Single Family Residence","livingArea":1225,"associationFee":0,"unparsedAddress":"1529 Cambridge Avenue, Redlands, CA 92374"}},{"type":"Feature","geometry":{"type":"Point","coordinates":[-117.152614,34.069525]},"properties":{"listingKey":"20251118203221093994000000","listingId":"IV-25261733","listPrice":570000,"city":"Redlands","baths":2,"slug":"20251118203221093994000000","mlsSource":"CRMLS","propertyType":"A","propertySubType":"Single Family Residence","livingArea":1196,"associationFee":0,"unparsedAddress":"1459 Paiute, Redlands, CA 92374"}},{"type":"Feature","geometry":{"type":"Point","coordinates":[-117.157813,34.070578]},"properties":{"listingKey":"20251118203230805562000000","listingId":"IG-25261573","listPrice":599900,"city":"Redlands","baths":2,"slug":"20251118203230805562000000","mlsSource":"CRMLS","propertyType":"A","propertySubType":"Single Family Residence","livingArea":1335,"associationFee":0,"unparsedAddress":"1308 Julie Court, Redlands, CA 92374"}}]