[{"type":"Feature","geometry":{"type":"Point","coordinates":[-117.156972,33.54728]},"properties":{"listingKey":"20251119084408345216000000","listingId":"SW-25262038","listPrice":849900,"city":"Murrieta","baths":2.5,"slug":"20251119084408345216000000","mlsSource":"CRMLS","propertyType":"A","propertySubType":"Single Family Residence","livingArea":2527,"associationFee":0,"unparsedAddress":"26586 Weston Hills Drive, Murrieta, CA 92563"}},{"type":"Feature","geometry":{"type":"Point","coordinates":[-117.149468,33.542115]},"properties":{"listingKey":"20251030014607991896000000","listingId":"SW-25250145","listPrice":1700,"city":"Temecula","baths":1,"slug":"20251030014607991896000000","mlsSource":"CRMLS","propertyType":"B","propertySubType":"Single Family Residence","livingArea":904,"associationFee":0,"unparsedAddress":"39802 Rustic Glen, Temecula, CA 92591"}},{"type":"Feature","geometry":{"type":"Point","coordinates":[-117.151098,33.549383]},"properties":{"listingKey":"20251003000701091521000000","listingId":"PW-25195002","listPrice":595000,"city":"Murrieta","baths":2,"slug":"20251003000701091521000000","mlsSource":"CRMLS","propertyType":"A","propertySubType":"Single Family Residence","livingArea":1168,"associationFee":0,"unparsedAddress":"26738 Silver Oaks Drive, Murrieta, CA 92563"}},{"type":"Feature","geometry":{"type":"Point","coordinates":[-117.154012,33.542681]},"properties":{"listingKey":"20251021210433082080000000","listingId":"PW-25243609","listPrice":795000,"city":"Temecula","baths":3,"slug":"20251021210433082080000000","mlsSource":"CRMLS","propertyType":"A","propertySubType":"Single Family Residence","livingArea":2806,"associationFee":133,"unparsedAddress":"39794 Cambridge Place, Temecula, CA 92591"}},{"type":"Feature","geometry":{"type":"Point","coordinates":[-117.148211,33.541587]},"properties":{"listingKey":"20251007011540459512000000","listingId":"SW-25230368","listPrice":649500,"city":"Temecula","baths":2.5,"slug":"20251007011540459512000000","mlsSource":"CRMLS","propertyType":"A","propertySubType":"Single Family Residence","livingArea":1458,"associationFee":0,"unparsedAddress":"39785 Knollridge Drive, Temecula, CA 92591"}},{"type":"Feature","geometry":{"type":"Point","coordinates":[-117.153714,33.547403]},"properties":{"listingKey":"20251029234545792207000000","listingId":"SW-25249765","listPrice":3300,"city":"Murrieta","baths":2,"slug":"20251029234545792207000000","mlsSource":"CRMLS","propertyType":"B","propertySubType":"Single Family Residence","livingArea":2214,"associationFee":0,"unparsedAddress":"39723 Clements, Murrieta, CA 92563"}}]