[{"type":"Feature","geometry":{"type":"Point","coordinates":[-117.971835,33.846623]},"properties":{"listingKey":"20251110132516954830000000","listingId":"OC-25257295","listPrice":1199000,"city":"Anaheim","baths":3,"slug":"20251110132516954830000000","mlsSource":"CRMLS","propertyType":"A","propertySubType":"Single Family Residence","livingArea":2308,"associationFee":0,"unparsedAddress":"1028 North Mayflower, Anaheim, CA 92801"}},{"type":"Feature","geometry":{"type":"Point","coordinates":[-117.99294,33.851656]},"properties":{"listingKey":"20251009063925550755000000","listingId":"PW-25225496","listPrice":960000,"city":"Buena Park","baths":2,"slug":"20251009063925550755000000","mlsSource":"CRMLS","propertyType":"A","propertySubType":"Single Family Residence","livingArea":1286,"associationFee":0,"unparsedAddress":"8026 Carnation Drive, Buena Park, CA 90620"}},{"type":"Feature","geometry":{"type":"Point","coordinates":[-117.977524,33.834125]},"properties":{"listingKey":"20251013233435560663000000","listingId":"RS-25238779","listPrice":680000,"city":"Anaheim","baths":2.5,"slug":"20251013233435560663000000","mlsSource":"CRMLS","propertyType":"A","propertySubType":"Condominium","livingArea":1222,"associationFee":355,"unparsedAddress":"199 North Magnolia, B, Anaheim, CA 92801"}},{"type":"Feature","geometry":{"type":"Point","coordinates":[-117.977349,33.839051]},"properties":{"listingKey":"20251111234350028539000000","listingId":"CV-25258432","listPrice":640000,"city":"Anaheim","baths":2,"slug":"20251111234350028539000000","mlsSource":"CRMLS","propertyType":"A","propertySubType":"Condominium","livingArea":1138,"associationFee":320,"unparsedAddress":"2625 West Cameron Court, Anaheim, CA 92801"}},{"type":"Feature","geometry":{"type":"Point","coordinates":[-117.985077,33.835463]},"properties":{"listingKey":"20250920064522647671000000","listingId":"TR-25221591","listPrice":1650,"city":"Anaheim","baths":1,"slug":"20250920064522647671000000","mlsSource":"CRMLS","propertyType":"B","propertySubType":"Room for Rent","livingArea":475,"associationFee":0,"unparsedAddress":"317 North Dale Avenue, Anaheim, CA 92801"}},{"type":"Feature","geometry":{"type":"Point","coordinates":[-117.979441,33.845526]},"properties":{"listingKey":"20251114201648985944000000","listingId":"IG-25260197","listPrice":559900,"city":"Buena Park","baths":1,"slug":"20251114201648985944000000","mlsSource":"CRMLS","propertyType":"A","propertySubType":"Condominium","livingArea":926,"associationFee":350,"unparsedAddress":"8213 Woodland, 40, Buena Park, CA 90620"}},{"type":"Feature","geometry":{"type":"Point","coordinates":[-117.982506,33.845106]},"properties":{"listingKey":"20251118214223981736000000","listingId":"NP-25262446","listPrice":879000,"city":"Buena Park","baths":2,"slug":"20251118214223981736000000","mlsSource":"CRMLS","propertyType":"A","propertySubType":"Single Family Residence","livingArea":1856,"associationFee":0,"unparsedAddress":"8612 Tamarack, Buena Park, CA 90620"}}]