[{"type":"Feature","geometry":{"type":"Point","coordinates":[-117.971344,33.704188]},"properties":{"listingKey":"20251023035812043512000000","listingId":"OC-25240897","listPrice":1649000,"city":"Fountain Valley","baths":2.5,"slug":"20251023035812043512000000","mlsSource":"CRMLS","propertyType":"A","propertySubType":"Single Family Residence","livingArea":2346,"associationFee":0,"unparsedAddress":"17807 Joshua Circle, Fountain Valley, CA 92708"}},{"type":"Feature","geometry":{"type":"Point","coordinates":[-117.990026,33.703953]},"properties":{"listingKey":"20251118182014255023000000","listingId":"OC-25258530","listPrice":2700,"city":"Huntington Beach","baths":1,"slug":"20251118182014255023000000","mlsSource":"CRMLS","propertyType":"B","propertySubType":"Apartment","livingArea":950,"associationFee":0,"unparsedAddress":"7941 Ronald Drive, A, Huntington Beach, CA 92647"}},{"type":"Feature","id":1045897,"properties":{"cluster":true,"cluster_id":1045897,"point_count":2,"point_count_abbreviated":2},"geometry":{"type":"Point","coordinates":[-117.9858711361885,33.6910222595575]}},{"type":"Feature","geometry":{"type":"Point","coordinates":[-117.986577,33.696343]},"properties":{"listingKey":"20251106231001787790000000","listingId":"OC-25255525","listPrice":4500,"city":"Huntington Beach","baths":2,"slug":"20251106231001787790000000","mlsSource":"CRMLS","propertyType":"B","propertySubType":"Single Family Residence","livingArea":1431,"associationFee":0,"unparsedAddress":"18322 Thomas, Huntington Beach, CA 92646"}},{"type":"Feature","id":237512,"properties":{"cluster":true,"cluster_id":237512,"point_count":3,"point_count_abbreviated":3},"geometry":{"type":"Point","coordinates":[-117.98209726810455,33.69953208471483]}},{"type":"Feature","geometry":{"type":"Point","coordinates":[-117.982629,33.694809]},"properties":{"listingKey":"20251114181745903586000000","listingId":"OC-25258226","listPrice":1249900,"city":"Huntington Beach","baths":2,"slug":"20251114181745903586000000","mlsSource":"CRMLS","propertyType":"A","propertySubType":"Single Family Residence","livingArea":1084,"associationFee":310,"unparsedAddress":"18446 Gina Lane, Huntington Beach, CA 92646"}},{"type":"Feature","id":196008,"properties":{"cluster":true,"cluster_id":196008,"point_count":4,"point_count_abbreviated":4},"geometry":{"type":"Point","coordinates":[-117.98647865653038,33.705480279295514]}},{"type":"Feature","geometry":{"type":"Point","coordinates":[-117.98778,33.694422]},"properties":{"listingKey":"20251029155251213086000000","listingId":"OC-25249471","listPrice":1699000,"city":"Huntington Beach","baths":0,"slug":"20251029155251213086000000","mlsSource":"CRMLS","propertyType":"C","propertySubType":"Apartment","livingArea":2640,"unparsedAddress":"18441 Patterson, Huntington Beach, CA 92646"}},{"type":"Feature","id":144873,"properties":{"cluster":true,"cluster_id":144873,"point_count":2,"point_count_abbreviated":2},"geometry":{"type":"Point","coordinates":[-117.9886257648468,33.69927025650786]}},{"type":"Feature","id":238632,"properties":{"cluster":true,"cluster_id":238632,"point_count":2,"point_count_abbreviated":2},"geometry":{"type":"Point","coordinates":[-117.98164933919907,33.70159544158233]}},{"type":"Feature","id":1005737,"properties":{"cluster":true,"cluster_id":1005737,"point_count":2,"point_count_abbreviated":2},"geometry":{"type":"Point","coordinates":[-117.97535687685013,33.69310218625104]}}]