[{"type":"Feature","geometry":{"type":"Point","coordinates":[-117.873306,33.6377]},"properties":{"listingKey":"20251031023755577309000000","listingId":"OC-25251066","listPrice":21500,"city":"Newport Beach","baths":4.5,"slug":"20251031023755577309000000","mlsSource":"CRMLS","propertyType":"B","propertySubType":"Single Family Residence","livingArea":3943,"unparsedAddress":"2507 Alta Vista Drive, Newport Beach, CA 92660"}},{"type":"Feature","geometry":{"type":"Point","coordinates":[-117.879295,33.638408]},"properties":{"listingKey":"20250926085015439705000000","listingId":"OC-25221146","listPrice":1829000,"city":"Newport Beach","baths":1.75,"slug":"20250926085015439705000000","mlsSource":"CRMLS","propertyType":"A","propertySubType":"Single Family Residence","livingArea":1649,"associationFee":595,"unparsedAddress":"558 Vista Flora, Newport Beach, CA 92660"}},{"type":"Feature","id":1054569,"properties":{"cluster":true,"cluster_id":1054569,"point_count":2,"point_count_abbreviated":2},"geometry":{"type":"Point","coordinates":[-117.88047909736633,33.63775721441566]}},{"type":"Feature","id":1063753,"properties":{"cluster":true,"cluster_id":1063753,"point_count":2,"point_count_abbreviated":2},"geometry":{"type":"Point","coordinates":[-117.8822574019432,33.64028056940623]}},{"type":"Feature","geometry":{"type":"Point","coordinates":[-117.876357,33.63875]},"properties":{"listingKey":"20251009033750329594000000","listingId":"NP-25235833","listPrice":1425000,"city":"Newport Beach","baths":1.5,"slug":"20251009033750329594000000","mlsSource":"CRMLS","propertyType":"A","propertySubType":"Townhouse","livingArea":1372,"associationFee":435,"unparsedAddress":"2428 Vista Hogar, Newport Beach, CA 92660"}},{"type":"Feature","geometry":{"type":"Point","coordinates":[-117.880955,33.639601]},"properties":{"listingKey":"20251026200459696344000000","listingId":"NP-25247595","listPrice":2350000,"city":"Newport Beach","baths":2,"slug":"20251026200459696344000000","mlsSource":"CRMLS","propertyType":"A","propertySubType":"Single Family Residence","livingArea":1808,"associationFee":595,"unparsedAddress":"503 Vista Grande, Newport Beach, CA 92660"}},{"type":"Feature","id":979561,"properties":{"cluster":true,"cluster_id":979561,"point_count":2,"point_count_abbreviated":2},"geometry":{"type":"Point","coordinates":[-117.87727653980255,33.63654687100413]}},{"type":"Feature","geometry":{"type":"Point","coordinates":[-117.880623,33.63346]},"properties":{"listingKey":"20250630145712767327000000","listingId":"OC-25144500","listPrice":5550,"city":"Newport Beach","baths":2,"slug":"20250630145712767327000000","mlsSource":"CRMLS","propertyType":"B","propertySubType":"Single Family Residence","livingArea":1342,"associationFee":595,"unparsedAddress":"2002 Barranca, Newport Beach, CA 92660"}}]