[{"type":"Feature","id":52840,"properties":{"cluster":true,"cluster_id":52840,"point_count":2,"point_count_abbreviated":2},"geometry":{"type":"Point","coordinates":[-116.47935211658478,33.95608675961056]}},{"type":"Feature","id":69096,"properties":{"cluster":true,"cluster_id":69096,"point_count":2,"point_count_abbreviated":2},"geometry":{"type":"Point","coordinates":[-116.47760331630707,33.95187733210183]}},{"type":"Feature","geometry":{"type":"Point","coordinates":[-116.478395,33.949576]},"properties":{"listingKey":"20250928072238283194000000","listingId":"IV-25225992","listPrice":1100000,"city":"Desert Hot Springs","baths":0,"slug":"20250928072238283194000000","mlsSource":"CRMLS","propertyType":"C","propertySubType":"Single Family Residence","livingArea":3790,"associationFee":0,"unparsedAddress":"13627 Hermano Way, Desert Hot Springs, CA 92240"}},{"type":"Feature","geometry":{"type":"Point","coordinates":[-116.495657,33.958944]},"properties":{"listingKey":"20251121081036800234000000","listingId":"219139068","listPrice":300000,"city":"Desert Hot Springs","baths":1.75,"slug":"20251121081036800234000000","mlsSource":"GPS","propertyType":"A","propertySubType":"Single Family Residence","livingArea":1386,"associationFee":0,"unparsedAddress":"66822 Cahuilla Avenue, Desert Hot Springs, CA 92240"}},{"type":"Feature","geometry":{"type":"Point","coordinates":[-116.497424,33.961127]},"properties":{"listingKey":"20251007203124234649000000","listingId":"219136546","listPrice":1100000,"city":"Desert Hot Springs","baths":0,"slug":"20251007203124234649000000","mlsSource":"GPS","propertyType":"F","propertySubType":"Business","livingArea":3000,"associationFee":0,"unparsedAddress":"66735 Pierson Boulevard, Desert Hot Springs, CA 92240"}},{"type":"Feature","geometry":{"type":"Point","coordinates":[-116.494841,33.956253]},"properties":{"listingKey":"20251023045235558501000000","listingId":"219137510","listPrice":308000,"city":"Desert Hot Springs","baths":2,"slug":"20251023045235558501000000","mlsSource":"GPS","propertyType":"A","propertySubType":"Single Family Residence","livingArea":1012,"associationFee":0,"unparsedAddress":"66876 Flora Avenue, Desert Hot Springs, CA 92240"}},{"type":"Feature","id":55624,"properties":{"cluster":true,"cluster_id":55624,"point_count":2,"point_count_abbreviated":2},"geometry":{"type":"Point","coordinates":[-116.49880349636078,33.948620000049445]}},{"type":"Feature","id":66152,"properties":{"cluster":true,"cluster_id":66152,"point_count":2,"point_count_abbreviated":2},"geometry":{"type":"Point","coordinates":[-116.49233669042587,33.96152844869394]}},{"type":"Feature","id":52648,"properties":{"cluster":true,"cluster_id":52648,"point_count":3,"point_count_abbreviated":3},"geometry":{"type":"Point","coordinates":[-116.4877223968506,33.95967009687345]}},{"type":"Feature","geometry":{"type":"Point","coordinates":[-116.486082,33.956447]},"properties":{"listingKey":"20251106202823222642000000","listingId":"IV-25255366","listPrice":530000,"city":"Desert Hot Springs","baths":0,"slug":"20251106202823222642000000","mlsSource":"CRMLS","propertyType":"C","propertySubType":"Triplex","livingArea":2336,"unparsedAddress":"12700 Parma, Desert Hot Springs, CA 92240"}},{"type":"Feature","geometry":{"type":"Point","coordinates":[-116.483475,33.956796]},"properties":{"listingKey":"20251105233956905892000000","listingId":"219138370","listPrice":1499000,"city":"Desert Hot Springs","baths":5.5,"slug":"20251105233956905892000000","mlsSource":"GPS","propertyType":"A","propertySubType":"Single Family Residence","livingArea":3500,"associationFee":0,"unparsedAddress":"12622 Miracle Hill Road, Desert Hot Springs, CA 92240"}}]