[{"type":"Feature","geometry":{"type":"Point","coordinates":[-116.492409,33.820849]},"properties":{"listingKey":"20250901043135523654000000","listingId":"IV-25196104","listPrice":325000,"city":"Cathedral City","baths":1,"slug":"20250901043135523654000000","mlsSource":"CRMLS","propertyType":"A","propertySubType":"Single Family Residence","livingArea":984,"associationFee":0,"unparsedAddress":"31319 San Antonio Drive, Cathedral City, CA 92234"}},{"type":"Feature","geometry":{"type":"Point","coordinates":[-116.487415,33.818194]},"properties":{"listingKey":"20250625233326006602000000","listingId":"219131929","listPrice":260000,"city":"Cathedral City","baths":2,"slug":"20250625233326006602000000","mlsSource":"GPS","propertyType":"A","propertySubType":"Condominium","livingArea":1152,"associationFee":450,"unparsedAddress":"44 Lakeview Circle, Cathedral City, CA 92234"}},{"type":"Feature","geometry":{"type":"Point","coordinates":[-116.496334,33.833698]},"properties":{"listingKey":"20251022172245555010000000","listingId":"219137524","listPrice":997000,"city":"Palm Springs","baths":2,"slug":"20251022172245555010000000","mlsSource":"GPS","propertyType":"A","propertySubType":"Single Family Residence","livingArea":1940,"associationFee":240,"unparsedAddress":"730 Equinox Way, Palm Springs, CA 92262"}},{"type":"Feature","geometry":{"type":"Point","coordinates":[-116.492587,33.824373]},"properties":{"listingKey":"20250722112316349992000000","listingId":"8P-2505529","listPrice":599998,"city":"Cathedral City","baths":2,"slug":"20250722112316349992000000","mlsSource":"CRMLS","propertyType":"A","propertySubType":"Single Family Residence","livingArea":1668,"associationFee":0,"unparsedAddress":"67039 San Jose Drive, Cathedral City, CA 92234"}},{"type":"Feature","id":99432,"properties":{"cluster":true,"cluster_id":99432,"point_count":7,"point_count_abbreviated":7},"geometry":{"type":"Point","coordinates":[-116.49258920124599,33.832098074744295]}},{"type":"Feature","id":71048,"properties":{"cluster":true,"cluster_id":71048,"point_count":2,"point_count_abbreviated":2},"geometry":{"type":"Point","coordinates":[-116.47911071777344,33.82823393331353]}},{"type":"Feature","id":46729,"properties":{"cluster":true,"cluster_id":46729,"point_count":2,"point_count_abbreviated":2},"geometry":{"type":"Point","coordinates":[-116.48204237222672,33.83215091105254]}}]