[{"type":"Feature","geometry":{"type":"Point","coordinates":[-117.327591,34.168848]},"properties":{"listingKey":"20250807145148563105000000","listingId":"CV-25177360","listPrice":585000,"city":"San Bernardino","baths":2,"slug":"20250807145148563105000000","mlsSource":"CRMLS","propertyType":"A","propertySubType":"Single Family Residence","livingArea":1466,"associationFee":0,"unparsedAddress":"1594 Morgan Road, San Bernardino, CA 92407"}},{"type":"Feature","geometry":{"type":"Point","coordinates":[-117.313288,34.165377]},"properties":{"listingKey":"20250913031819470034000000","listingId":"IG-25216514","listPrice":1900,"city":"San Bernardino","baths":1,"slug":"20250913031819470034000000","mlsSource":"CRMLS","propertyType":"B","propertySubType":"Condominium","livingArea":727,"unparsedAddress":"1265 kendall dr, San Bernardino, CA 92407"}},{"type":"Feature","geometry":{"type":"Point","coordinates":[-117.321713,34.172223]},"properties":{"listingKey":"20251029111700684964000000","listingId":"IG-25249441","listPrice":500000,"city":"San Bernardino","baths":2,"slug":"20251029111700684964000000","mlsSource":"CRMLS","propertyType":"A","propertySubType":"Single Family Residence","livingArea":1408,"associationFee":0,"unparsedAddress":"1503 Indian Trail, San Bernardino, CA 92407"}},{"type":"Feature","id":476649,"properties":{"cluster":true,"cluster_id":476649,"point_count":2,"point_count_abbreviated":2},"geometry":{"type":"Point","coordinates":[-117.31391340494156,34.172648173442596]}},{"type":"Feature","geometry":{"type":"Point","coordinates":[-117.319703,34.175547]},"properties":{"listingKey":"20251016171439132627000000","listingId":"IG-25236933","listPrice":559000,"city":"San Bernardino","baths":2,"slug":"20251016171439132627000000","mlsSource":"CRMLS","propertyType":"A","propertySubType":"Single Family Residence","livingArea":1455,"associationFee":0,"unparsedAddress":"5205 N Mammoth, San Bernardino, CA 92407"}},{"type":"Feature","geometry":{"type":"Point","coordinates":[-117.314429,34.176619]},"properties":{"listingKey":"20251008004750805441000000","listingId":"CV-25229352","listPrice":510000,"city":"San Bernardino","baths":2,"slug":"20251008004750805441000000","mlsSource":"CRMLS","propertyType":"A","propertySubType":"Single Family Residence","livingArea":1388,"associationFee":65,"unparsedAddress":"5294 Sundance, San Bernardino, CA 92407"}},{"type":"Feature","geometry":{"type":"Point","coordinates":[-117.330718,34.174426]},"properties":{"listingKey":"20251120145146775997000000","listingId":"IG-25259790","listPrice":477000,"city":"San Bernardino","baths":1,"slug":"20251120145146775997000000","mlsSource":"CRMLS","propertyType":"A","propertySubType":"Single Family Residence","livingArea":1012,"associationFee":0,"unparsedAddress":"4981 North State, San Bernardino, CA 92407"}}]