[{"type":"Feature","geometry":{"type":"Point","coordinates":[-117.326811,34.087347]},"properties":{"listingKey":"20250917160047766219000000","listingId":"IG-25218245","listPrice":415000,"city":"Colton","baths":2,"slug":"20250917160047766219000000","mlsSource":"CRMLS","propertyType":"A","propertySubType":"Single Family Residence","livingArea":1205,"associationFee":0,"unparsedAddress":"1736 Pennsylvania Avenue, Colton, CA 92324"}},{"type":"Feature","geometry":{"type":"Point","coordinates":[-117.314704,34.080354]},"properties":{"listingKey":"20251113012003703094000000","listingId":"CV-25257922","listPrice":1700,"city":"Colton","baths":1,"slug":"20251113012003703094000000","mlsSource":"CRMLS","propertyType":"B","propertySubType":"Single Family Residence","livingArea":800,"associationFee":0,"unparsedAddress":"1318 North Rialto, Colton, CA 92324"}},{"type":"Feature","geometry":{"type":"Point","coordinates":[-117.323014,34.078704]},"properties":{"listingKey":"20250806084644696988000000","listingId":"IG-25176689","listPrice":2395,"city":"Colton","baths":2,"slug":"20250806084644696988000000","mlsSource":"CRMLS","propertyType":"B","propertySubType":"Single Family Residence","livingArea":850,"associationFee":0,"unparsedAddress":"1166 North 7th Street, Colton, CA 92324"}},{"type":"Feature","geometry":{"type":"Point","coordinates":[-117.323037,34.086953]},"properties":{"listingKey":"20250925050158170537000000","listingId":"IG-25224905","listPrice":2500,"city":"Colton","baths":2,"slug":"20250925050158170537000000","mlsSource":"CRMLS","propertyType":"B","propertySubType":"Single Family Residence","livingArea":1400,"associationFee":0,"unparsedAddress":"141 Pleasant View Avenue, Colton, CA 92324"}},{"type":"Feature","id":394632,"properties":{"cluster":true,"cluster_id":394632,"point_count":2,"point_count_abbreviated":2},"geometry":{"type":"Point","coordinates":[-117.33327358961105,34.075176940434005]}},{"type":"Feature","geometry":{"type":"Point","coordinates":[-117.331245,34.078426]},"properties":{"listingKey":"20251113201805461536000000","listingId":"IV-25258538","listPrice":595000,"city":"Colton","baths":3,"slug":"20251113201805461536000000","mlsSource":"CRMLS","propertyType":"A","propertySubType":"Single Family Residence","livingArea":1637,"associationFee":0,"unparsedAddress":"1145 Bonita Drive, Colton, CA 92342"}},{"type":"Feature","geometry":{"type":"Point","coordinates":[-117.320965,34.073748]},"properties":{"listingKey":"20250816071648631355000000","listingId":"IV-25183308","listPrice":675000,"city":"Colton","baths":2.5,"slug":"20250816071648631355000000","mlsSource":"CRMLS","propertyType":"A","propertySubType":"Single Family Residence","livingArea":1026,"associationFee":0,"unparsedAddress":"854 North 9th Street, Colton, CA 92324"}},{"type":"Feature","id":156520,"properties":{"cluster":true,"cluster_id":156520,"point_count":2,"point_count_abbreviated":2},"geometry":{"type":"Point","coordinates":[-117.31767386198044,34.086435677326236]}},{"type":"Feature","geometry":{"type":"Point","coordinates":[-117.312929,34.084045]},"properties":{"listingKey":"20251014190049746503000000","listingId":"IV-25239199","listPrice":978000,"city":"Colton","baths":4.25,"slug":"20251014190049746503000000","mlsSource":"CRMLS","propertyType":"A","propertySubType":"Triplex","livingArea":2372,"associationFee":0,"unparsedAddress":"1475 Holly Avenue, Colton, CA 92324"}}]