[{"type":"Feature","geometry":{"type":"Point","coordinates":[-117.333766,33.899515]},"properties":{"listingKey":"20251030224729531199000000","listingId":"OC-25250825","listPrice":3500,"city":"Riverside","baths":2,"slug":"20251030224729531199000000","mlsSource":"CRMLS","propertyType":"B","propertySubType":"Single Family Residence","livingArea":2216,"associationFee":0,"unparsedAddress":"18825 18825 Roberts Rd., Riverside, CA 92508"}},{"type":"Feature","geometry":{"type":"Point","coordinates":[-117.328357,33.906573]},"properties":{"listingKey":"20250829140648564338000000","listingId":"CV-25193119","listPrice":950000,"city":"Riverside","baths":4.5,"slug":"20250829140648564338000000","mlsSource":"CRMLS","propertyType":"A","propertySubType":"Single Family Residence","livingArea":3783,"associationFee":0,"unparsedAddress":"8004 Palm View Ln, Riverside, CA 92508"}},{"type":"Feature","geometry":{"type":"Point","coordinates":[-117.312118,33.892611]},"properties":{"listingKey":"20250714031320051829000000","listingId":"IG-25156644","listPrice":667000,"city":"Riverside","baths":2,"slug":"20250714031320051829000000","mlsSource":"CRMLS","propertyType":"A","propertySubType":"Single Family Residence","livingArea":1678,"associationFee":0,"unparsedAddress":"8751 Rosebay Court, Riverside, CA 92508"}},{"type":"Feature","geometry":{"type":"Point","coordinates":[-117.315944,33.889467]},"properties":{"listingKey":"20251023231256289315000000","listingId":"IV-25245794","listPrice":695000,"city":"Riverside","baths":2,"slug":"20251023231256289315000000","mlsSource":"CRMLS","propertyType":"A","propertySubType":"Single Family Residence","livingArea":1557,"associationFee":0,"unparsedAddress":"19966 Westerly, Riverside, CA 92508"}},{"type":"Feature","id":172009,"properties":{"cluster":true,"cluster_id":172009,"point_count":2,"point_count_abbreviated":2},"geometry":{"type":"Point","coordinates":[-117.32905179262161,33.891271445612816]}}]