[{"type":"Feature","id":707369,"properties":{"cluster":true,"cluster_id":707369,"point_count":3,"point_count_abbreviated":3},"geometry":{"type":"Point","coordinates":[-117.33006298542023,33.877711017547995]}},{"type":"Feature","id":719689,"properties":{"cluster":true,"cluster_id":719689,"point_count":2,"point_count_abbreviated":2},"geometry":{"type":"Point","coordinates":[-117.32297390699387,33.87590279762932]}},{"type":"Feature","id":184488,"properties":{"cluster":true,"cluster_id":184488,"point_count":2,"point_count_abbreviated":2},"geometry":{"type":"Point","coordinates":[-117.31747806072235,33.87228178887436]}},{"type":"Feature","geometry":{"type":"Point","coordinates":[-117.317329,33.880784]},"properties":{"listingKey":"20250913150306570978000000","listingId":"IG-25216587","listPrice":919500,"city":"Riverside","baths":2.75,"slug":"20250913150306570978000000","mlsSource":"CRMLS","propertyType":"A","propertySubType":"Single Family Residence","livingArea":3198,"associationFee":30,"unparsedAddress":"19791 Paso Robles Drive, Riverside, CA 92508"}},{"type":"Feature","id":518856,"properties":{"cluster":true,"cluster_id":518856,"point_count":7,"point_count_abbreviated":7},"geometry":{"type":"Point","coordinates":[-117.3248870883669,33.87414544092752]}},{"type":"Feature","geometry":{"type":"Point","coordinates":[-117.33264,33.879814]},"properties":{"listingKey":"20251031024943768289000000","listingId":"IG-25250362","listPrice":899999,"city":"Riverside","baths":3,"slug":"20251031024943768289000000","mlsSource":"CRMLS","propertyType":"A","propertySubType":"Single Family Residence","livingArea":3186,"associationFee":37,"unparsedAddress":"9406 Kentfield Court, Riverside, CA 92508"}},{"type":"Feature","id":469768,"properties":{"cluster":true,"cluster_id":469768,"point_count":3,"point_count_abbreviated":3},"geometry":{"type":"Point","coordinates":[-117.33125030994417,33.87488435805041]}},{"type":"Feature","geometry":{"type":"Point","coordinates":[-117.315216,33.882361]},"properties":{"listingKey":"20251105210530242590000000","listingId":"IV-25254465","listPrice":834880,"city":"Riverside","baths":3,"slug":"20251105210530242590000000","mlsSource":"CRMLS","propertyType":"A","propertySubType":"Single Family Residence","livingArea":3186,"associationFee":37,"unparsedAddress":"19883 San Juan Capistrano Court, Riverside, CA 92508"}},{"type":"Feature","geometry":{"type":"Point","coordinates":[-117.313026,33.888273]},"properties":{"listingKey":"20250716012214774996000000","listingId":"MB-25157724","listPrice":888888,"city":"Riverside","baths":3,"slug":"20250716012214774996000000","mlsSource":"CRMLS","propertyType":"A","propertySubType":"Single Family Residence","livingArea":2283,"associationFee":0,"unparsedAddress":"20101 SEDONA Drive, Riverside, CA 92508"}},{"type":"Feature","id":196040,"properties":{"cluster":true,"cluster_id":196040,"point_count":2,"point_count_abbreviated":2},"geometry":{"type":"Point","coordinates":[-117.32367396354675,33.883505079922884]}}]