[{"type":"Feature","id":208712,"properties":{"cluster":true,"cluster_id":208712,"point_count":2,"point_count_abbreviated":2},"geometry":{"type":"Point","coordinates":[-117.51768350601196,34.115353193337356]}},{"type":"Feature","geometry":{"type":"Point","coordinates":[-117.509861,34.107393]},"properties":{"listingKey":"20251016044039752284000000","listingId":"CV-25235818","listPrice":709999,"city":"Fontana","baths":2.5,"slug":"20251016044039752284000000","mlsSource":"CRMLS","propertyType":"A","propertySubType":"Single Family Residence","livingArea":1649,"associationFee":0,"unparsedAddress":"8051 Mcgregor Court, Fontana, CA 92336"}},{"type":"Feature","geometry":{"type":"Point","coordinates":[-117.513923,34.123293]},"properties":{"listingKey":"20251025233205091657000000","listingId":"AR-25247279","listPrice":3450,"city":"Rancho Cucamonga","baths":2.5,"slug":"20251025233205091657000000","mlsSource":"CRMLS","propertyType":"B","propertySubType":"Condominium","livingArea":1611,"unparsedAddress":"7161 East Avenue, 104, Rancho Cucamonga, CA 91739"}},{"type":"Feature","id":156552,"properties":{"cluster":true,"cluster_id":156552,"point_count":5,"point_count_abbreviated":5},"geometry":{"type":"Point","coordinates":[-117.51899456977843,34.12051111044818]}},{"type":"Feature","id":144968,"properties":{"cluster":true,"cluster_id":144968,"point_count":4,"point_count_abbreviated":4},"geometry":{"type":"Point","coordinates":[-117.53090143203735,34.12306064141957]}},{"type":"Feature","geometry":{"type":"Point","coordinates":[-117.529661,34.116087]},"properties":{"listingKey":"20250606201920762184000000","listingId":"IV-25127071","listPrice":1119900,"city":"Rancho Cucamonga","baths":3,"slug":"20250606201920762184000000","mlsSource":"CRMLS","propertyType":"A","propertySubType":"Single Family Residence","livingArea":3000,"associationFee":0,"unparsedAddress":"12632 Chimney Rock Drive, Rancho Cucamonga, CA 91739"}},{"type":"Feature","geometry":{"type":"Point","coordinates":[-117.525414,34.125254]},"properties":{"listingKey":"20251111193812884214000000","listingId":"OC-25258265","listPrice":1495000,"city":"Rancho Cucamonga","baths":3,"slug":"20251111193812884214000000","mlsSource":"CRMLS","propertyType":"A","propertySubType":"Single Family Residence","livingArea":3333,"associationFee":0,"unparsedAddress":"7064 Isle Court, Rancho Cucamonga, CA 91739"}},{"type":"Feature","geometry":{"type":"Point","coordinates":[-117.52657,34.11791]},"properties":{"listingKey":"20251013171821385458000000","listingId":"CV-25238386","listPrice":5500,"city":"Rancho Cucamonga","baths":4,"slug":"20251013171821385458000000","mlsSource":"CRMLS","propertyType":"B","propertySubType":"Single Family Residence","livingArea":3808,"associationFee":0,"unparsedAddress":"12772 Wine Cellar Court, Rancho Cucamonga, CA 91739"}}]