[{"type":"Feature","geometry":{"type":"Point","coordinates":[-121.814346,37.269396]},"properties":{"listingKey":"20250726091048468775000000","listingId":"01-41106088","listPrice":1699888,"city":"San Jose","baths":3.5,"slug":"20250726091048468775000000","mlsSource":"CRMLS","propertyType":"A","propertySubType":"Single Family Residence","livingArea":2279,"unparsedAddress":"4996 Eberly Dr, San Jose, CA 95111"}},{"type":"Feature","id":318950,"properties":{"cluster":true,"cluster_id":318950,"point_count":2,"point_count_abbreviated":2},"geometry":{"type":"Point","coordinates":[-121.76268428564072,37.23845177628843]}},{"type":"Feature","geometry":{"type":"Point","coordinates":[-121.751108,37.283837]},"properties":{"listingKey":"20251017183447207519000000","listingId":"01-41115074","listPrice":868000,"city":"San Jose","baths":2,"slug":"20251017183447207519000000","mlsSource":"CRMLS","propertyType":"A","propertySubType":"Condominium","livingArea":1646,"associationFee":1516,"unparsedAddress":"8366 Riesling Way, San Jose, CA 95135"}},{"type":"Feature","geometry":{"type":"Point","coordinates":[-121.774081,37.297297]},"properties":{"listingKey":"20250923200700395222000000","listingId":"01-41112452","listPrice":3888888,"city":"San Jose","baths":4,"slug":"20250923200700395222000000","mlsSource":"CRMLS","propertyType":"A","propertySubType":"Single Family Residence","livingArea":3242,"associationFee":950,"unparsedAddress":"2197 Wynfair Ridge Way, San Jose, CA 95138"}},{"type":"Feature","geometry":{"type":"Point","coordinates":[-121.752693,37.295686]},"properties":{"listingKey":"20251120192211965672000000","listingId":"CV-25263579","listPrice":618767,"city":"San Jose","baths":2,"slug":"20251120192211965672000000","mlsSource":"CRMLS","propertyType":"A","propertySubType":"Condominium","livingArea":1240,"associationFee":1243,"unparsedAddress":"5155 Cribari, San Jose, CA 95135"}},{"type":"Feature","geometry":{"type":"Point","coordinates":[-121.799034,37.242813]},"properties":{"listingKey":"20251108040757067137000000","listingId":"01-41117019","listPrice":849000,"city":"San Jose","baths":2,"slug":"20251108040757067137000000","mlsSource":"CRMLS","propertyType":"A","propertySubType":"Condominium","livingArea":1338,"associationFee":772,"unparsedAddress":"5925 Charlotte Dr, 334, San Jose, CA 95123"}},{"type":"Feature","geometry":{"type":"Point","coordinates":[-121.815376,37.235315]},"properties":{"listingKey":"20251007011541062825000000","listingId":"01-41113922","listPrice":1779000,"city":"San Jose","baths":2.5,"slug":"20251007011541062825000000","mlsSource":"CRMLS","propertyType":"A","propertySubType":"Single Family Residence","livingArea":2360,"unparsedAddress":"406 Madison Drive, San Jose, CA 95123"}},{"type":"Feature","geometry":{"type":"Point","coordinates":[-121.807199,37.254078]},"properties":{"listingKey":"20250903041327551073000000","listingId":"01-41110072","listPrice":499000,"city":"San Jose","baths":1,"slug":"20250903041327551073000000","mlsSource":"CRMLS","propertyType":"A","propertySubType":"Condominium","livingArea":903,"associationFee":397,"unparsedAddress":"341 Blossom Hill Rd, 3, San Jose, CA 95123"}}]