[{"type":"Feature","geometry":{"type":"Point","coordinates":[-121.708163,37.918598]},"properties":{"listingKey":"20250801071211769311000000","listingId":"01-41106720","listPrice":850000,"city":"Brentwood","baths":4,"slug":"20250801071211769311000000","mlsSource":"CRMLS","propertyType":"A","propertySubType":"Single Family Residence","livingArea":3971,"unparsedAddress":"787 Armstrong Way, Brentwood, CA 94513"}},{"type":"Feature","geometry":{"type":"Point","coordinates":[-121.685898,37.918874]},"properties":{"listingKey":"20250930181704966576000000","listingId":"01-41113044","listPrice":649999,"city":"Brentwood","baths":2.5,"slug":"20250930181704966576000000","mlsSource":"CRMLS","propertyType":"A","propertySubType":"Single Family Residence","livingArea":2016,"associationFee":100,"unparsedAddress":"397 Baja Ct, Brentwood, CA 94513"}},{"type":"Feature","id":253286,"properties":{"cluster":true,"cluster_id":253286,"point_count":8,"point_count_abbreviated":8},"geometry":{"type":"Point","coordinates":[-121.72664478421211,37.922444565022914]}},{"type":"Feature","geometry":{"type":"Point","coordinates":[-121.723916,37.896357]},"properties":{"listingKey":"20250905210841629342000000","listingId":"01-41110589","listPrice":1275000,"city":"Brentwood","baths":2.5,"slug":"20250905210841629342000000","mlsSource":"CRMLS","propertyType":"A","propertySubType":"Single Family Residence","livingArea":2753,"associationFee":445,"unparsedAddress":"2062 Reserva Ct, Brentwood, CA 94513"}},{"type":"Feature","id":303910,"properties":{"cluster":true,"cluster_id":303910,"point_count":8,"point_count_abbreviated":8},"geometry":{"type":"Point","coordinates":[-121.72193616628647,37.90340268863922]}},{"type":"Feature","geometry":{"type":"Point","coordinates":[-121.718067,37.916074]},"properties":{"listingKey":"20250912233715724789000000","listingId":"01-41111373","listPrice":679000,"city":"Brentwood","baths":2,"slug":"20250912233715724789000000","mlsSource":"CRMLS","propertyType":"A","propertySubType":"Single Family Residence","livingArea":1961,"associationFee":175,"unparsedAddress":"625 Pomona Dr, Brentwood, CA 94513"}}]