[{"type":"Feature","id":104422,"properties":{"cluster":true,"cluster_id":104422,"point_count":7,"point_count_abbreviated":7},"geometry":{"type":"Point","coordinates":[-117.3522149665015,34.167147106688674]}},{"type":"Feature","geometry":{"type":"Point","coordinates":[-117.340378,34.194842]},"properties":{"listingKey":"20251016014348646595000000","listingId":"TR-25240656","listPrice":540000,"city":"San Bernardino","baths":2,"slug":"20251016014348646595000000","mlsSource":"CRMLS","propertyType":"A","propertySubType":"Single Family Residence","livingArea":1314,"associationFee":0,"unparsedAddress":"2265 Cincinnati Court, San Bernardino, CA 92407"}},{"type":"Feature","geometry":{"type":"Point","coordinates":[-117.335041,34.172074]},"properties":{"listingKey":"20250828210240360044000000","listingId":"CV-25194067","listPrice":519000,"city":"San Bernardino","baths":2,"slug":"20250828210240360044000000","mlsSource":"CRMLS","propertyType":"A","propertySubType":"Single Family Residence","livingArea":1408,"associationFee":0,"unparsedAddress":"4872 Cambridge Avenue, San Bernardino, CA 92407"}},{"type":"Feature","id":411719,"properties":{"cluster":true,"cluster_id":411719,"point_count":2,"point_count_abbreviated":2},"geometry":{"type":"Point","coordinates":[-117.34916031360626,34.18464833421288]}},{"type":"Feature","geometry":{"type":"Point","coordinates":[-117.406129,34.226787]},"properties":{"listingKey":"20250910232529731986000000","listingId":"CV-25210722","listPrice":875000,"city":"Devore","baths":2.5,"slug":"20250910232529731986000000","mlsSource":"CRMLS","propertyType":"A","propertySubType":"Single Family Residence","livingArea":2876,"associationFee":0,"unparsedAddress":"18330 Grandview Avenue, Devore, CA 92407"}},{"type":"Feature","geometry":{"type":"Point","coordinates":[-117.417902,34.219848]},"properties":{"listingKey":"20251007090417799972000000","listingId":"IV-25234065","listPrice":699000,"city":"San Bernardino","baths":3,"slug":"20251007090417799972000000","mlsSource":"CRMLS","propertyType":"A","propertySubType":"Single Family Residence","livingArea":3042,"associationFee":0,"unparsedAddress":"1781 East Forest Lane, San Bernardino, CA 92404"}},{"type":"Feature","geometry":{"type":"Point","coordinates":[-117.385149,34.216765]},"properties":{"listingKey":"20250709164713304643000000","listingId":"IV-25152595","listPrice":1895,"city":"San Bernardino","baths":1,"slug":"20250709164713304643000000","mlsSource":"CRMLS","propertyType":"B","propertySubType":"Apartment","livingArea":800,"associationFee":0,"unparsedAddress":"4261 Cedar, 10, San Bernardino, CA 92407"}},{"type":"Feature","id":515431,"properties":{"cluster":true,"cluster_id":515431,"point_count":3,"point_count_abbreviated":3},"geometry":{"type":"Point","coordinates":[-117.36550390720366,34.20840397166059]}},{"type":"Feature","id":142185,"properties":{"cluster":true,"cluster_id":142185,"point_count":2,"point_count_abbreviated":2},"geometry":{"type":"Point","coordinates":[-117.3854398727417,34.2080046979882]}},{"type":"Feature","id":414599,"properties":{"cluster":true,"cluster_id":414599,"point_count":4,"point_count_abbreviated":4},"geometry":{"type":"Point","coordinates":[-117.40898966789246,34.185262941469006]}},{"type":"Feature","geometry":{"type":"Point","coordinates":[-117.412548,34.19384]},"properties":{"listingKey":"20251113182936360430000000","listingId":"CV-25259800","listPrice":695000,"city":"San Bernardino","baths":3,"slug":"20251113182936360430000000","mlsSource":"CRMLS","propertyType":"A","propertySubType":"Single Family Residence","livingArea":2467,"associationFee":75,"unparsedAddress":"17920 Pokeroot, San Bernardino, CA 92407"}},{"type":"Feature","id":519720,"properties":{"cluster":true,"cluster_id":519720,"point_count":2,"point_count_abbreviated":2},"geometry":{"type":"Point","coordinates":[-117.35703527927399,34.20264093829164]}},{"type":"Feature","id":145766,"properties":{"cluster":true,"cluster_id":145766,"point_count":11,"point_count_abbreviated":11},"geometry":{"type":"Point","coordinates":[-117.4205753478137,34.18794824056816]}}]