[{"type":"Feature","geometry":{"type":"Point","coordinates":[-117.545092,34.11815]},"properties":{"listingKey":"20251119190824765920000000","listingId":"IV-25263039","listPrice":1800,"city":"Rancho Cucamonga","baths":1,"slug":"20251119190824765920000000","mlsSource":"CRMLS","propertyType":"B","propertySubType":"Single Family Residence","livingArea":552,"associationFee":0,"unparsedAddress":"7474 Henbane Street, 2, Rancho Cucamonga, CA 91739"}},{"type":"Feature","geometry":{"type":"Point","coordinates":[-117.552276,34.117998]},"properties":{"listingKey":"20251023031503151075000000","listingId":"TR-25245555","listPrice":3600,"city":"Rancho Cucamonga","baths":3,"slug":"20251023031503151075000000","mlsSource":"CRMLS","propertyType":"B","propertySubType":"Single Family Residence","livingArea":2005,"associationFee":0,"unparsedAddress":"7487 Holloway, Rancho Cucamonga, CA 91730"}},{"type":"Feature","geometry":{"type":"Point","coordinates":[-117.549101,34.120395]},"properties":{"listingKey":"20250930045750835134000000","listingId":"TR-25227906","listPrice":918000,"city":"Rancho Cucamonga","baths":3,"slug":"20250930045750835134000000","mlsSource":"CRMLS","propertyType":"A","propertySubType":"Single Family Residence","livingArea":2268,"associationFee":86,"unparsedAddress":"7358 Freedom, Rancho Cucamonga, CA 91730"}},{"type":"Feature","geometry":{"type":"Point","coordinates":[-117.551832,34.121125]},"properties":{"listingKey":"20250911021043507021000000","listingId":"IV-25214552","listPrice":3395,"city":"Rancho Cucamonga","baths":2.5,"slug":"20250911021043507021000000","mlsSource":"CRMLS","propertyType":"B","propertySubType":"Condominium","livingArea":1300,"unparsedAddress":"11560 Stoneridge Drive, Rancho Cucamonga, CA 91730"}},{"type":"Feature","geometry":{"type":"Point","coordinates":[-117.548228,34.124353]},"properties":{"listingKey":"20250924202829604211000000","listingId":"IG-25222660","listPrice":769000,"city":"Rancho Cucamonga","baths":2.5,"slug":"20250924202829604211000000","mlsSource":"CRMLS","propertyType":"A","propertySubType":"Single Family Residence","livingArea":1494,"associationFee":0,"unparsedAddress":"7139 Scalea Place, Rancho Cucamonga, CA 91701"}},{"type":"Feature","geometry":{"type":"Point","coordinates":[-117.553357,34.124674]},"properties":{"listingKey":"20250715151147363822000000","listingId":"SB-25158505","listPrice":925888,"city":"Rancho Cucamonga","baths":3,"slug":"20250715151147363822000000","mlsSource":"CRMLS","propertyType":"A","propertySubType":"Single Family Residence","livingArea":2657,"associationFee":0,"unparsedAddress":"7116 Sapri Place, Rancho Cucamonga, CA 91701"}},{"type":"Feature","geometry":{"type":"Point","coordinates":[-117.544133,34.121812]},"properties":{"listingKey":"20251021204743376559000000","listingId":"CV-25242816","listPrice":1068888,"city":"Rancho Cucamonga","baths":3,"slug":"20251021204743376559000000","mlsSource":"CRMLS","propertyType":"A","propertySubType":"Single Family Residence","livingArea":2516,"associationFee":0,"unparsedAddress":"11959 HUNTLEY, Rancho Cucamonga, CA 91739"}}]