[{"type":"Feature","geometry":{"type":"Point","coordinates":[-117.548955,33.867857]},"properties":{"listingKey":"20251016205212353610000000","listingId":"PW-25241184","listPrice":669000,"city":"Corona","baths":2,"slug":"20251016205212353610000000","mlsSource":"CRMLS","propertyType":"A","propertySubType":"Single Family Residence","livingArea":1474,"associationFee":0,"unparsedAddress":"1138 Acacia Street, Corona, CA 92879"}},{"type":"Feature","geometry":{"type":"Point","coordinates":[-117.54808,33.864803]},"properties":{"listingKey":"20251002043137956794000000","listingId":"PW-25229832","listPrice":498000,"city":"Corona","baths":2,"slug":"20251002043137956794000000","mlsSource":"CRMLS","propertyType":"A","propertySubType":"Condominium","livingArea":1024,"associationFee":239,"unparsedAddress":"1171 Stone Pine Lane, C, Corona, CA 92879"}},{"type":"Feature","geometry":{"type":"Point","coordinates":[-117.550404,33.86197]},"properties":{"listingKey":"20250828034052967433000000","listingId":"RS-25141562","listPrice":479000,"city":"Corona","baths":2,"slug":"20250828034052967433000000","mlsSource":"CRMLS","propertyType":"A","propertySubType":"Condominium","livingArea":1014,"associationFee":240,"unparsedAddress":"1632 Windmill Lane, D, Corona, CA 92879"}},{"type":"Feature","geometry":{"type":"Point","coordinates":[-117.548076,33.863527]},"properties":{"listingKey":"20251118233915016929000000","listingId":"IV-25251678","listPrice":2500,"city":"Corona","baths":2.5,"slug":"20251118233915016929000000","mlsSource":"CRMLS","propertyType":"B","propertySubType":"Condominium","livingArea":1138,"unparsedAddress":"1637 English, B, Corona, CA 92879"}},{"type":"Feature","geometry":{"type":"Point","coordinates":[-117.545713,33.863449]},"properties":{"listingKey":"20250705052028069414000000","listingId":"TR-25150388","listPrice":174900,"city":"Corona","baths":2,"slug":"20250705052028069414000000","mlsSource":"CRMLS","propertyType":"A","propertySubType":"Manufactured On Land","livingArea":1440,"associationFee":0,"unparsedAddress":"1550 Rimpau Avenue, 159, Corona, CA 92881"}}]