[{"type":"Feature","geometry":{"type":"Point","coordinates":[-117.773924,33.694302]},"properties":{"listingKey":"20251120234132335637000000","listingId":"OC-25263757","listPrice":3900,"city":"Irvine","baths":2,"slug":"20251120234132335637000000","mlsSource":"CRMLS","propertyType":"B","propertySubType":"Townhouse","livingArea":1091,"unparsedAddress":"32 Kazan, Irvine, CA 92604"}},{"type":"Feature","geometry":{"type":"Point","coordinates":[-117.780146,33.688741]},"properties":{"listingKey":"20250803060555557202000000","listingId":"OC-25174026","listPrice":1590000,"city":"Irvine","baths":2,"slug":"20250803060555557202000000","mlsSource":"CRMLS","propertyType":"A","propertySubType":"Single Family Residence","livingArea":1480,"associationFee":0,"unparsedAddress":"15071 Talley Street, Irvine, CA 92604"}},{"type":"Feature","geometry":{"type":"Point","coordinates":[-117.7785,33.696831]},"properties":{"listingKey":"20251120181345300601000000","listingId":"OC-25262993","listPrice":2450,"city":"Irvine","baths":1,"slug":"20251120181345300601000000","mlsSource":"CRMLS","propertyType":"B","propertySubType":"Single Family Residence","livingArea":600,"associationFee":0,"unparsedAddress":"14584 Highcrest Circle, Irvine, CA 92604"}},{"type":"Feature","geometry":{"type":"Point","coordinates":[-117.778952,33.690377]},"properties":{"listingKey":"20251029022242155774000000","listingId":"PW-25248577","listPrice":1748000,"city":"Irvine","baths":3,"slug":"20251029022242155774000000","mlsSource":"CRMLS","propertyType":"A","propertySubType":"Single Family Residence","livingArea":1946,"associationFee":0,"unparsedAddress":"5011 Yearling Avenue, Irvine, CA 92604"}},{"type":"Feature","id":182953,"properties":{"cluster":true,"cluster_id":182953,"point_count":2,"point_count_abbreviated":2},"geometry":{"type":"Point","coordinates":[-117.78157532215118,33.69162035522241]}}]