[{"type":"Feature","id":148649,"properties":{"cluster":true,"cluster_id":148649,"point_count":3,"point_count_abbreviated":3},"geometry":{"type":"Point","coordinates":[-117.77740359306337,33.717126301444964]}},{"type":"Feature","geometry":{"type":"Point","coordinates":[-117.782319,33.72062]},"properties":{"listingKey":"20250903210948173792000000","listingId":"OC-25198038","listPrice":5600,"city":"Irvine","baths":3.5,"slug":"20250903210948173792000000","mlsSource":"CRMLS","propertyType":"B","propertySubType":"Single Family Residence","livingArea":2850,"unparsedAddress":"8 RIVEROAKS, Irvine, CA 92602"}},{"type":"Feature","geometry":{"type":"Point","coordinates":[-117.784075,33.721567]},"properties":{"listingKey":"20250715182752539368000000","listingId":"OC-25158639","listPrice":6750,"city":"Irvine","baths":4,"slug":"20250715182752539368000000","mlsSource":"CRMLS","propertyType":"B","propertySubType":"Single Family Residence","livingArea":3620,"unparsedAddress":"44 Whitford, Irvine, CA 92602"}},{"type":"Feature","geometry":{"type":"Point","coordinates":[-117.779504,33.719389]},"properties":{"listingKey":"20251109064053078380000000","listingId":"PW-25247754","listPrice":2499000,"city":"Irvine","baths":3.5,"slug":"20251109064053078380000000","mlsSource":"CRMLS","propertyType":"A","propertySubType":"Single Family Residence","livingArea":2849,"associationFee":112,"unparsedAddress":"10 Rutherford, Irvine, CA 92602"}},{"type":"Feature","geometry":{"type":"Point","coordinates":[-117.778329,33.718242]},"properties":{"listingKey":"20251026232231254833000000","listingId":"OC-25227952","listPrice":1100000,"city":"Irvine","baths":2,"slug":"20251026232231254833000000","mlsSource":"CRMLS","propertyType":"A","propertySubType":"Condominium","livingArea":1663,"associationFee":273,"unparsedAddress":"30 Taquitz, Irvine, CA 92602"}},{"type":"Feature","id":279817,"properties":{"cluster":true,"cluster_id":279817,"point_count":2,"point_count_abbreviated":2},"geometry":{"type":"Point","coordinates":[-117.77589708566666,33.71874006457669]}},{"type":"Feature","geometry":{"type":"Point","coordinates":[-117.773672,33.715692]},"properties":{"listingKey":"20250831185926657876000000","listingId":"OC-25188956","listPrice":1849000,"city":"Irvine","baths":2.5,"slug":"20250831185926657876000000","mlsSource":"CRMLS","propertyType":"A","propertySubType":"Single Family Residence","livingArea":2391,"associationFee":0,"unparsedAddress":"15 Colonial, Irvine, CA 92620"}},{"type":"Feature","geometry":{"type":"Point","coordinates":[-117.773619,33.717164]},"properties":{"listingKey":"20251027180726913410000000","listingId":"PW-25247738","listPrice":3700,"city":"Irvine","baths":2,"slug":"20251027180726913410000000","mlsSource":"CRMLS","propertyType":"B","propertySubType":"Single Family Residence","livingArea":1054,"unparsedAddress":"17 Filare, Irvine, CA 92620"}}]