[{"type":"Feature","geometry":{"type":"Point","coordinates":[-117.940515,33.996342]},"properties":{"listingKey":"20251103230144037210000000","listingId":"CV-25252971","listPrice":1859000,"city":"Hacienda Heights","baths":4,"slug":"20251103230144037210000000","mlsSource":"CRMLS","propertyType":"A","propertySubType":"Single Family Residence","livingArea":2835,"associationFee":0,"unparsedAddress":"1507 Eagle Park, Hacienda Heights, CA 91745"}},{"type":"Feature","geometry":{"type":"Point","coordinates":[-117.944665,33.989008]},"properties":{"listingKey":"20250703121308825603000000","listingId":"TR-25147849","listPrice":4500,"city":"Hacienda Heights","baths":2,"slug":"20250703121308825603000000","mlsSource":"CRMLS","propertyType":"B","propertySubType":"Single Family Residence","livingArea":1646,"associationFee":0,"unparsedAddress":"16851 Dawn Haven Road, Hacienda Heights, CA 91745"}},{"type":"Feature","geometry":{"type":"Point","coordinates":[-117.93553,33.99764]},"properties":{"listingKey":"20250827004536460735000000","listingId":"DW-25192583","listPrice":1395000,"city":"Hacienda Heights","baths":4,"slug":"20250827004536460735000000","mlsSource":"CRMLS","propertyType":"A","propertySubType":"Single Family Residence","livingArea":2657,"associationFee":0,"unparsedAddress":"16907 Ridge Park Drive, Hacienda Heights, CA 91745"}},{"type":"Feature","geometry":{"type":"Point","coordinates":[-117.94264,33.991779]},"properties":{"listingKey":"20251025154408907496000000","listingId":"TR-25247244","listPrice":3950,"city":"Hacienda Heights","baths":3,"slug":"20251025154408907496000000","mlsSource":"CRMLS","propertyType":"B","propertySubType":"Townhouse","livingArea":1589,"unparsedAddress":"1707 Landau, Hacienda Heights, CA 91745"}},{"type":"Feature","geometry":{"type":"Point","coordinates":[-117.946959,33.990289]},"properties":{"listingKey":"20251107025946677016000000","listingId":"WS-25255805","listPrice":4500,"city":"Hacienda Heights","baths":3,"slug":"20251107025946677016000000","mlsSource":"CRMLS","propertyType":"B","propertySubType":"Single Family Residence","livingArea":2289,"associationFee":0,"unparsedAddress":"16352 Ranmore, Hacienda Heights, CA 91745"}},{"type":"Feature","geometry":{"type":"Point","coordinates":[-117.942124,33.985906]},"properties":{"listingKey":"20250915225420440313000000","listingId":"TR-25217208","listPrice":1389888,"city":"Hacienda Heights","baths":3,"slug":"20250915225420440313000000","mlsSource":"CRMLS","propertyType":"A","propertySubType":"Single Family Residence","livingArea":2497,"associationFee":0,"unparsedAddress":"2367 Mountain Brook Dr., Hacienda Heights, CA 91745"}},{"type":"Feature","geometry":{"type":"Point","coordinates":[-117.940156,33.989022]},"properties":{"listingKey":"20251114012558510980000000","listingId":"WS-25260264","listPrice":858888,"city":"Hacienda Heights","baths":2,"slug":"20251114012558510980000000","mlsSource":"CRMLS","propertyType":"A","propertySubType":"Single Family Residence","livingArea":1573,"associationFee":330,"unparsedAddress":"1910 PEWTER CT, Hacienda Heights, CA 91745"}},{"type":"Feature","id":130216,"properties":{"cluster":true,"cluster_id":130216,"point_count":4,"point_count_abbreviated":4},"geometry":{"type":"Point","coordinates":[-117.93680280447006,33.98901411321856]}},{"type":"Feature","id":148680,"properties":{"cluster":true,"cluster_id":148680,"point_count":2,"point_count_abbreviated":2},"geometry":{"type":"Point","coordinates":[-117.9473277926445,33.99400671093899]}}]