[{"type":"Feature","id":178473,"properties":{"cluster":true,"cluster_id":178473,"point_count":2,"point_count_abbreviated":2},"geometry":{"type":"Point","coordinates":[-117.94350564479828,33.914259126933416]}},{"type":"Feature","id":508488,"properties":{"cluster":true,"cluster_id":508488,"point_count":2,"point_count_abbreviated":2},"geometry":{"type":"Point","coordinates":[-117.9383772611618,33.91526522510934]}},{"type":"Feature","geometry":{"type":"Point","coordinates":[-117.928042,33.914892]},"properties":{"listingKey":"20251101232926796680000000","listingId":"PW-25251892","listPrice":2399000,"city":"Fullerton","baths":1.75,"slug":"20251101232926796680000000","mlsSource":"CRMLS","propertyType":"A","propertySubType":"Single Family Residence","livingArea":2628,"associationFee":0,"unparsedAddress":"3821 Potrero, Fullerton, CA 92835"}},{"type":"Feature","geometry":{"type":"Point","coordinates":[-117.943229,33.925128]},"properties":{"listingKey":"20250808104219342377000000","listingId":"PW-25178800","listPrice":859000,"city":"La Habra","baths":1.75,"slug":"20250808104219342377000000","mlsSource":"CRMLS","propertyType":"A","propertySubType":"Single Family Residence","livingArea":1260,"associationFee":0,"unparsedAddress":"621 South Olive Avenue, La Habra, CA 90631"}},{"type":"Feature","geometry":{"type":"Point","coordinates":[-117.948011,33.917772]},"properties":{"listingKey":"20251026025621738128000000","listingId":"PW-25245446","listPrice":949900,"city":"La Habra","baths":3.5,"slug":"20251026025621738128000000","mlsSource":"CRMLS","propertyType":"A","propertySubType":"Townhouse","livingArea":1690,"associationFee":340,"unparsedAddress":"287 Vista Drive, 69, La Habra, CA 90631"}},{"type":"Feature","geometry":{"type":"Point","coordinates":[-117.949177,33.92046]},"properties":{"listingKey":"20251031171133629586000000","listingId":"DW-25251248","listPrice":875000,"city":"La Habra","baths":2,"slug":"20251031171133629586000000","mlsSource":"CRMLS","propertyType":"A","propertySubType":"Single Family Residence","livingArea":1169,"associationFee":0,"unparsedAddress":"401 Buena Vista, La Habra, CA 90631"}}]