[{"type":"Feature","geometry":{"type":"Point","coordinates":[-117.931988,33.860136]},"properties":{"listingKey":"20251022211821366461000000","listingId":"OC-25243491","listPrice":925000,"city":"Fullerton","baths":2,"slug":"20251022211821366461000000","mlsSource":"CRMLS","propertyType":"A","propertySubType":"Single Family Residence","livingArea":1517,"associationFee":0,"unparsedAddress":"442 West Porter, Fullerton, CA 92832"}},{"type":"Feature","geometry":{"type":"Point","coordinates":[-117.935829,33.864565]},"properties":{"listingKey":"20251016023638471582000000","listingId":"PW-25237684","listPrice":1050000,"city":"Fullerton","baths":3,"slug":"20251016023638471582000000","mlsSource":"CRMLS","propertyType":"A","propertySubType":"Single Family Residence","livingArea":1645,"associationFee":0,"unparsedAddress":"616 West Ash Avenue, Fullerton, CA 92832"}},{"type":"Feature","geometry":{"type":"Point","coordinates":[-117.935946,33.860123]},"properties":{"listingKey":"20251120145150024476000000","listingId":"PW-25261519","listPrice":849000,"city":"Fullerton","baths":1,"slug":"20251120145150024476000000","mlsSource":"CRMLS","propertyType":"A","propertySubType":"Single Family Residence","livingArea":1107,"associationFee":0,"unparsedAddress":"616 West Porter, Fullerton, CA 92832"}},{"type":"Feature","geometry":{"type":"Point","coordinates":[-117.947508,33.865288]},"properties":{"listingKey":"20251110234401681106000000","listingId":"PW-25257818","listPrice":1050000,"city":"Fullerton","baths":2,"slug":"20251110234401681106000000","mlsSource":"CRMLS","propertyType":"A","propertySubType":"Single Family Residence","livingArea":1887,"associationFee":0,"unparsedAddress":"618 South Lee, Fullerton, CA 92833"}},{"type":"Feature","geometry":{"type":"Point","coordinates":[-117.943174,33.868843]},"properties":{"listingKey":"20251107234021971487000000","listingId":"PW-25255982","listPrice":1100000,"city":"Fullerton","baths":3,"slug":"20251107234021971487000000","mlsSource":"CRMLS","propertyType":"A","propertySubType":"Single Family Residence","livingArea":1864,"associationFee":0,"unparsedAddress":"1104 Williamson, Fullerton, CA 92833"}},{"type":"Feature","geometry":{"type":"Point","coordinates":[-117.931388,33.862746]},"properties":{"listingKey":"20251014014338291274000000","listingId":"OC-25238730","listPrice":867500,"city":"Fullerton","baths":1,"slug":"20251014014338291274000000","mlsSource":"CRMLS","propertyType":"A","propertySubType":"Single Family Residence","livingArea":1148,"associationFee":0,"unparsedAddress":"425 West Knepp, Fullerton, CA 92832"}},{"type":"Feature","id":132136,"properties":{"cluster":true,"cluster_id":132136,"point_count":3,"point_count_abbreviated":3},"geometry":{"type":"Point","coordinates":[-117.9451221227646,33.86021510485607]}},{"type":"Feature","id":747145,"properties":{"cluster":true,"cluster_id":747145,"point_count":2,"point_count_abbreviated":2},"geometry":{"type":"Point","coordinates":[-117.94525176286697,33.855818292236606]}},{"type":"Feature","id":124584,"properties":{"cluster":true,"cluster_id":124584,"point_count":4,"point_count_abbreviated":4},"geometry":{"type":"Point","coordinates":[-117.92817011475563,33.86238224480722]}}]