[{"type":"Feature","id":695561,"properties":{"cluster":true,"cluster_id":695561,"point_count":2,"point_count_abbreviated":2},"geometry":{"type":"Point","coordinates":[-117.93654531240463,33.74406250390436]}},{"type":"Feature","geometry":{"type":"Point","coordinates":[-117.942142,33.749158]},"properties":{"listingKey":"20251115211051257520000000","listingId":"OC-25257559","listPrice":3500,"city":"Santa Ana","baths":1,"slug":"20251115211051257520000000","mlsSource":"CRMLS","propertyType":"B","propertySubType":"Single Family Residence","livingArea":1098,"associationFee":0,"unparsedAddress":"5522 Silver, Santa Ana, CA 92703"}},{"type":"Feature","geometry":{"type":"Point","coordinates":[-117.932438,33.754529]},"properties":{"listingKey":"20251118182121543296000000","listingId":"OC-25261775","listPrice":2000,"city":"Santa Ana","baths":1,"slug":"20251118182121543296000000","mlsSource":"CRMLS","propertyType":"B","propertySubType":"Single Family Residence","livingArea":500,"associationFee":0,"unparsedAddress":"4721 West Oakfield Avenue, 2, Santa Ana, CA 92703"}},{"type":"Feature","geometry":{"type":"Point","coordinates":[-117.932046,33.760806]},"properties":{"listingKey":"20251008231117465610000000","listingId":"CV-25235636","listPrice":599999,"city":"Garden Grove","baths":1.5,"slug":"20251008231117465610000000","mlsSource":"CRMLS","propertyType":"A","propertySubType":"Townhouse","livingArea":1108,"associationFee":395,"unparsedAddress":"11321 Parkgreen, 102, Garden Grove, CA 92843"}},{"type":"Feature","geometry":{"type":"Point","coordinates":[-117.933788,33.747812]},"properties":{"listingKey":"20251009013209367047000000","listingId":"OC-25235778","listPrice":384890,"city":"Santa Ana","baths":1,"slug":"20251009013209367047000000","mlsSource":"CRMLS","propertyType":"A","propertySubType":"Condominium","livingArea":664,"associationFee":489,"unparsedAddress":"4832 West 5th, B, Santa Ana, CA 92703"}}]