[{"type":"Feature","geometry":{"type":"Point","coordinates":[-118.234262,34.154877]},"properties":{"listingKey":"20250707230038811251000000","listingId":"GD-25150933","listPrice":949500,"city":"Glendale","baths":1,"slug":"20250707230038811251000000","mlsSource":"CRMLS","propertyType":"A","propertySubType":"Single Family Residence","livingArea":908,"associationFee":0,"unparsedAddress":"641 Canyon Drive, Glendale, CA 91206"}},{"type":"Feature","geometry":{"type":"Point","coordinates":[-118.22937,34.154146]},"properties":{"listingKey":"20251105220323173089000000","listingId":"GD-25254516","listPrice":1350000,"city":"Glendale","baths":2,"slug":"20251105220323173089000000","mlsSource":"CRMLS","propertyType":"A","propertySubType":"Single Family Residence","livingArea":1404,"associationFee":0,"unparsedAddress":"1594 Trenton, Glendale, CA 91206"}},{"type":"Feature","geometry":{"type":"Point","coordinates":[-118.224152,34.15965]},"properties":{"listingKey":"20250909192724245910000000","listingId":"GD-25206917","listPrice":3639000,"city":"Glendale","baths":5,"slug":"20250909192724245910000000","mlsSource":"CRMLS","propertyType":"A","propertySubType":"Single Family Residence","livingArea":5750,"associationFee":0,"unparsedAddress":"759 Foxkirk Road, Glendale, CA 91206"}},{"type":"Feature","geometry":{"type":"Point","coordinates":[-118.233193,34.156735]},"properties":{"listingKey":"20250801142743320750000000","listingId":"GD-25172142","listPrice":6750,"city":"Glendale","baths":4,"slug":"20250801142743320750000000","mlsSource":"CRMLS","propertyType":"B","propertySubType":"Single Family Residence","livingArea":3031,"associationFee":0,"unparsedAddress":"703 Luton Drive, Glendale, CA 91206"}},{"type":"Feature","geometry":{"type":"Point","coordinates":[-118.228477,34.157398]},"properties":{"listingKey":"20251120184816183599000000","listingId":"GD-25263519","listPrice":1399990,"city":"Glendale","baths":2,"slug":"20251120184816183599000000","mlsSource":"CRMLS","propertyType":"A","propertySubType":"Single Family Residence","livingArea":1735,"associationFee":0,"unparsedAddress":"695 Glenmore Boulevard, Glendale, CA 91206"}},{"type":"Feature","geometry":{"type":"Point","coordinates":[-118.227653,34.154421]},"properties":{"listingKey":"20251008164543490508000000","listingId":"PF-25234344","listPrice":1418000,"city":"Glendale","baths":0,"slug":"20251008164543490508000000","mlsSource":"CRMLS","propertyType":"C","propertySubType":"Triplex","livingArea":1723,"associationFee":0,"unparsedAddress":"1717 East Chevy Chase, Glendale, CA 91206"}}]