[{"type":"Feature","geometry":{"type":"Point","coordinates":[-116.807877,32.999507]},"properties":{"listingKey":"20250707230000624030000000","listingId":"8P-2505067","listPrice":1225000,"city":"Ramona","baths":3.75,"slug":"20250707230000624030000000","mlsSource":"CRMLS","propertyType":"A","propertySubType":"Single Family Residence","livingArea":4064,"associationFee":175,"unparsedAddress":"15548 INDIAN HEAD CT, Ramona, CA 92065"}},{"type":"Feature","geometry":{"type":"Point","coordinates":[-116.810503,32.99797]},"properties":{"listingKey":"20250801065433030361000000","listingId":"8P-2505808","listPrice":949000,"city":"San Diego","baths":3,"slug":"20250801065433030361000000","mlsSource":"CRMLS","propertyType":"A","propertySubType":"Single Family Residence","livingArea":2629,"associationFee":175,"unparsedAddress":"15425 Vista Vicente Dr, San Diego, CA 92065"}},{"type":"Feature","id":597320,"properties":{"cluster":true,"cluster_id":597320,"point_count":2,"point_count_abbreviated":2},"geometry":{"type":"Point","coordinates":[-116.81462824344635,32.998622186953625]}},{"type":"Feature","id":215048,"properties":{"cluster":true,"cluster_id":215048,"point_count":2,"point_count_abbreviated":2},"geometry":{"type":"Point","coordinates":[-116.81346148252487,33.00440327650196]}},{"type":"Feature","geometry":{"type":"Point","coordinates":[-116.819459,32.995227]},"properties":{"listingKey":"20251027150621015388000000","listingId":"8N-2510302","listPrice":849000,"city":"Ramona","baths":3,"slug":"20251027150621015388000000","mlsSource":"CRMLS","propertyType":"A","propertySubType":"Single Family Residence","livingArea":2567,"associationFee":175,"unparsedAddress":"23509 Barona Mesa Road, Ramona, CA 92065"}},{"type":"Feature","geometry":{"type":"Point","coordinates":[-116.824148,32.99438]},"properties":{"listingKey":"20251016001037452387000000","listingId":"8N-2509729","listPrice":774900,"city":"Ramona","baths":2,"slug":"20251016001037452387000000","mlsSource":"CRMLS","propertyType":"A","propertySubType":"Single Family Residence","livingArea":1805,"associationFee":175,"unparsedAddress":"23316 Barona Mesa Road, Ramona, CA 92065"}}]