[{"type":"Feature","geometry":{"type":"Point","coordinates":[-121.76414,37.691353]},"properties":{"listingKey":"20251024211120382978000000","listingId":"01-41115754","listPrice":1149000,"city":"Livermore","baths":2,"slug":"20251024211120382978000000","mlsSource":"CRMLS","propertyType":"A","propertySubType":"Single Family Residence","livingArea":1553,"unparsedAddress":"2845 Briarwood Dr, Livermore, CA 94551"}},{"type":"Feature","geometry":{"type":"Point","coordinates":[-121.73824,37.691254]},"properties":{"listingKey":"20251113233909150491000000","listingId":"01-41117394","listPrice":978990,"city":"Livermore","baths":2.5,"slug":"20251113233909150491000000","mlsSource":"CRMLS","propertyType":"A","propertySubType":"Single Family Residence","livingArea":1769,"associationFee":185,"unparsedAddress":"4674 Kimberley Cmn, Livermore, CA 94550"}},{"type":"Feature","geometry":{"type":"Point","coordinates":[-121.754508,37.690493]},"properties":{"listingKey":"20251002043522653750000000","listingId":"01-41113452","listPrice":949999,"city":"Livermore","baths":3.5,"slug":"20251002043522653750000000","mlsSource":"CRMLS","propertyType":"A","propertySubType":"Condominium","livingArea":2056,"associationFee":274,"unparsedAddress":"3971 Portola Cmn, 1, Livermore, CA 94551"}},{"type":"Feature","geometry":{"type":"Point","coordinates":[-121.747977,37.689265]},"properties":{"listingKey":"20250905214742481481000000","listingId":"01-41110566","listPrice":1644277,"city":"Livermore","baths":2,"slug":"20250905214742481481000000","mlsSource":"CRMLS","propertyType":"A","propertySubType":"Single Family Residence","livingArea":2061,"unparsedAddress":"202 Sonia Way, Livermore, CA 94550"}},{"type":"Feature","geometry":{"type":"Point","coordinates":[-121.769741,37.68515]},"properties":{"listingKey":"20251003142336248471000000","listingId":"01-41113642","listPrice":2495,"city":"Livermore","baths":2,"slug":"20251003142336248471000000","mlsSource":"CRMLS","propertyType":"B","propertySubType":"Condominium","livingArea":850,"unparsedAddress":"2255 Chestnut St, Livermore, CA"}},{"type":"Feature","id":700968,"properties":{"cluster":true,"cluster_id":700968,"point_count":3,"point_count_abbreviated":3},"geometry":{"type":"Point","coordinates":[-121.74326777458191,37.684457130958535]}},{"type":"Feature","geometry":{"type":"Point","coordinates":[-121.733107,37.714182]},"properties":{"listingKey":"20251115000251773260000000","listingId":"01-41117523","listPrice":1999999,"city":"Livermore","baths":2.5,"slug":"20251115000251773260000000","mlsSource":"CRMLS","propertyType":"A","propertySubType":"Single Family Residence","livingArea":3122,"unparsedAddress":"1414 Columbine Way, Livermore, CA 94551"}},{"type":"Feature","id":497959,"properties":{"cluster":true,"cluster_id":497959,"point_count":2,"point_count_abbreviated":2},"geometry":{"type":"Point","coordinates":[-121.74666076898575,37.71855637846704]}},{"type":"Feature","geometry":{"type":"Point","coordinates":[-121.751489,37.713311]},"properties":{"listingKey":"20251119231053728205000000","listingId":"01-41117834","listPrice":845000,"city":"Livermore","baths":2,"slug":"20251119231053728205000000","mlsSource":"CRMLS","propertyType":"A","propertySubType":"Single Family Residence","livingArea":1110,"associationFee":78,"unparsedAddress":"1946 Ponderosa Dr, Livermore, CA 94551"}},{"type":"Feature","geometry":{"type":"Point","coordinates":[-121.730567,37.708487]},"properties":{"listingKey":"20250905210737212523000000","listingId":"01-41110552","listPrice":1099888,"city":"Livermore","baths":2.5,"slug":"20250905210737212523000000","mlsSource":"CRMLS","propertyType":"A","propertySubType":"Single Family Residence","livingArea":1567,"unparsedAddress":"5473 Rainflower Dr, Livermore, CA 94551"}},{"type":"Feature","geometry":{"type":"Point","coordinates":[-121.74642,37.696237]},"properties":{"listingKey":"20251023191757786090000000","listingId":"01-41115607","listPrice":1575000,"city":"Livermore","baths":2.5,"slug":"20251023191757786090000000","mlsSource":"CRMLS","propertyType":"A","propertySubType":"Single Family Residence","livingArea":2223,"unparsedAddress":"713 Tennyson Dr, Livermore, CA 94551"}},{"type":"Feature","geometry":{"type":"Point","coordinates":[-121.73838,37.696199]},"properties":{"listingKey":"20250719060937958387000000","listingId":"01-41105347","listPrice":755470,"city":"Livermore","baths":2.5,"slug":"20250719060937958387000000","mlsSource":"CRMLS","propertyType":"A","propertySubType":"Townhouse","livingArea":1187,"associationFee":297,"unparsedAddress":"4898 Las Positas Road, Livermore, CA 94551"}},{"type":"Feature","geometry":{"type":"Point","coordinates":[-121.742831,37.705848]},"properties":{"listingKey":"20250731044055419965000000","listingId":"01-41106560","listPrice":560000,"city":"Livermore","baths":1,"slug":"20250731044055419965000000","mlsSource":"CRMLS","propertyType":"A","propertySubType":"Townhouse","livingArea":900,"associationFee":540,"unparsedAddress":"1031 Spring Valley CMN, Livermore, CA 94551"}}]