[{"type":"Feature","geometry":{"type":"Point","coordinates":[-118.445465,34.221264]},"properties":{"listingKey":"20250809121235958452000000","listingId":"GD-25178462","listPrice":1950000,"city":"Panorama City","baths":0,"slug":"20250809121235958452000000","mlsSource":"CRMLS","propertyType":"C","propertySubType":"Apartment","livingArea":6058,"unparsedAddress":"14324 Roscoe Boulevard, Panorama City, CA 91402"}},{"type":"Feature","geometry":{"type":"Point","coordinates":[-118.442324,34.223404]},"properties":{"listingKey":"20250822140145823321000000","listingId":"PW-25189272","listPrice":850000,"city":"Panorama City","baths":1,"slug":"20250822140145823321000000","mlsSource":"CRMLS","propertyType":"A","propertySubType":"Single Family Residence","livingArea":1014,"associationFee":0,"unparsedAddress":"8360 Katherine Avenue North, 1, Panorama City, CA 91402"}},{"type":"Feature","id":394921,"properties":{"cluster":true,"cluster_id":394921,"point_count":2,"point_count_abbreviated":2},"geometry":{"type":"Point","coordinates":[-118.45301806926727,34.22994419990032]}},{"type":"Feature","id":187849,"properties":{"cluster":true,"cluster_id":187849,"point_count":2,"point_count_abbreviated":2},"geometry":{"type":"Point","coordinates":[-118.44825446605682,34.228795467626725]}},{"type":"Feature","geometry":{"type":"Point","coordinates":[-118.445848,34.230852]},"properties":{"listingKey":"20250906034710166392000000","listingId":"GD-25198872","listPrice":849000,"city":"Panorama City","baths":2,"slug":"20250906034710166392000000","mlsSource":"CRMLS","propertyType":"A","propertySubType":"Single Family Residence","livingArea":1374,"associationFee":0,"unparsedAddress":"8827 Sylmar Avenue, Panorama City, CA 91402"}},{"type":"Feature","geometry":{"type":"Point","coordinates":[-118.444722,34.225383]},"properties":{"listingKey":"20251021203405781632000000","listingId":"PW-25243040","listPrice":1950,"city":"Panorama City","baths":1,"slug":"20251021203405781632000000","mlsSource":"CRMLS","propertyType":"B","propertySubType":"Single Family Residence","livingArea":530,"associationFee":0,"unparsedAddress":"8525 Wakefield, Panorama City, CA 91402"}},{"type":"Feature","geometry":{"type":"Point","coordinates":[-118.454035,34.233691]},"properties":{"listingKey":"20250920035007021643000000","listingId":"GD-25220682","listPrice":424000,"city":"Panorama City","baths":1.5,"slug":"20250920035007021643000000","mlsSource":"CRMLS","propertyType":"A","propertySubType":"Townhouse","livingArea":986,"associationFee":300,"unparsedAddress":"9019 Cedros Avenue, 2, Panorama City, CA 91402"}},{"type":"Feature","geometry":{"type":"Point","coordinates":[-118.453277,34.217759]},"properties":{"listingKey":"20250726081321923987000000","listingId":"SB-25167676","listPrice":1249000,"city":"Panorama City","baths":3,"slug":"20250726081321923987000000","mlsSource":"CRMLS","propertyType":"A","propertySubType":"Single Family Residence","livingArea":2365,"associationFee":0,"unparsedAddress":"8054 Cedros Avenue, Panorama City, CA 91402"}}]