[{"type":"Feature","geometry":{"type":"Point","coordinates":[-118.384432,33.850887]},"properties":{"listingKey":"20250916032055978191000000","listingId":"PV-25171664","listPrice":6995,"city":"Redondo Beach","baths":3.5,"slug":"20250916032055978191000000","mlsSource":"CRMLS","propertyType":"B","propertySubType":"Townhouse","livingArea":2343,"unparsedAddress":"612 North Juanita Avenue, B, Redondo Beach, CA 90277"}},{"type":"Feature","geometry":{"type":"Point","coordinates":[-118.3796,33.844529]},"properties":{"listingKey":"20251101014923989646000000","listingId":"PV-25251228","listPrice":1639000,"city":"Redondo Beach","baths":2.5,"slug":"20251101014923989646000000","mlsSource":"CRMLS","propertyType":"A","propertySubType":"Townhouse","livingArea":2075,"associationFee":0,"unparsedAddress":"222 South Juanita Avenue, A, Redondo Beach, CA 90277"}},{"type":"Feature","geometry":{"type":"Point","coordinates":[-118.378054,33.849297]},"properties":{"listingKey":"20251119003157965946000000","listingId":"SB-25262736","listPrice":3295,"city":"Redondo Beach","baths":2,"slug":"20251119003157965946000000","mlsSource":"CRMLS","propertyType":"B","propertySubType":"Apartment","livingArea":1131,"associationFee":0,"unparsedAddress":"415 South Prospect Avenue, 204, Redondo Beach, CA 90277"}},{"type":"Feature","geometry":{"type":"Point","coordinates":[-118.384578,33.843539]},"properties":{"listingKey":"20250920033030857845000000","listingId":"SB-25220734","listPrice":3795000,"city":"Redondo Beach","baths":6.5,"slug":"20250920033030857845000000","mlsSource":"CRMLS","propertyType":"A","propertySubType":"Single Family Residence","livingArea":4319,"associationFee":0,"unparsedAddress":"810 El Redondo Avenue, Redondo Beach, CA 90277"}},{"type":"Feature","geometry":{"type":"Point","coordinates":[-118.383163,33.850524]},"properties":{"listingKey":"20250925162402448923000000","listingId":"PV-25189494","listPrice":5990,"city":"Redondo Beach","baths":2.5,"slug":"20250925162402448923000000","mlsSource":"CRMLS","propertyType":"B","propertySubType":"Townhouse","livingArea":2970,"associationFee":0,"unparsedAddress":"908 Cardelian Street, Redondo Beach, CA 90277"}},{"type":"Feature","geometry":{"type":"Point","coordinates":[-118.384933,33.847471]},"properties":{"listingKey":"20251111005104834617000000","listingId":"SB-25240356","listPrice":2995000,"city":"Redondo Beach","baths":0,"slug":"20251111005104834617000000","mlsSource":"CRMLS","propertyType":"C","propertySubType":"Duplex","livingArea":2956,"unparsedAddress":"507 North Helberta, Redondo Beach, CA 90277"}},{"type":"Feature","geometry":{"type":"Point","coordinates":[-118.381459,33.844031]},"properties":{"listingKey":"20251108004540324634000000","listingId":"SB-25254754","listPrice":2599000,"city":"Redondo Beach","baths":4.5,"slug":"20251108004540324634000000","mlsSource":"CRMLS","propertyType":"A","propertySubType":"Townhouse","livingArea":3005,"associationFee":0,"unparsedAddress":"223 South Irena Avenue, B, Redondo Beach, CA 90277"}},{"type":"Feature","geometry":{"type":"Point","coordinates":[-118.380708,33.845145]},"properties":{"listingKey":"20250909193418744675000000","listingId":"SB-25207061","listPrice":3995,"city":"Redondo Beach","baths":3,"slug":"20250909193418744675000000","mlsSource":"CRMLS","propertyType":"B","propertySubType":"Townhouse","livingArea":1320,"unparsedAddress":"239 North Juanita Avenue, D, Redondo Beach, CA 90277"}},{"type":"Feature","id":342889,"properties":{"cluster":true,"cluster_id":342889,"point_count":2,"point_count_abbreviated":2},"geometry":{"type":"Point","coordinates":[-118.37996542453766,33.84325026772122]}}]