[{"type":"Feature","geometry":{"type":"Point","coordinates":[-116.910016,34.234981]},"properties":{"listingKey":"20251021223250298286000000","listingId":"IG-25243238","listPrice":330000,"city":"Big Bear Lake","baths":1,"slug":"20251021223250298286000000","mlsSource":"CRMLS","propertyType":"A","propertySubType":"Single Family Residence","livingArea":600,"associationFee":0,"unparsedAddress":"967 Knickerbocker Road, Big Bear Lake, CA 92315"}},{"type":"Feature","geometry":{"type":"Point","coordinates":[-116.913431,34.235808]},"properties":{"listingKey":"20251118203214385190000000","listingId":"IG-25261697","listPrice":749500,"city":"Big Bear Lake","baths":2.5,"slug":"20251118203214385190000000","mlsSource":"CRMLS","propertyType":"A","propertySubType":"Single Family Residence","livingArea":1531,"associationFee":0,"unparsedAddress":"929 Andrew Lane, Big Bear Lake, CA 92315"}},{"type":"Feature","geometry":{"type":"Point","coordinates":[-116.915131,34.239281]},"properties":{"listingKey":"20250627074815826201000000","listingId":"IG-25140853","listPrice":7000,"city":"Big Bear","baths":3,"slug":"20250627074815826201000000","mlsSource":"CRMLS","propertyType":"A","propertySubType":"Timeshare","livingArea":2045,"associationFee":2541.61,"unparsedAddress":"40671 Village, 13B, Big Bear, CA 92315"}},{"type":"Feature","id":256489,"properties":{"cluster":true,"cluster_id":256489,"point_count":2,"point_count_abbreviated":2},"geometry":{"type":"Point","coordinates":[-116.91094905138016,34.23719105304839]}},{"type":"Feature","geometry":{"type":"Point","coordinates":[-116.91398,34.238413]},"properties":{"listingKey":"20251120204644321787000000","listingId":"IV-25263848","listPrice":774888,"city":"Big Bear Lake","baths":2,"slug":"20251120204644321787000000","mlsSource":"CRMLS","propertyType":"A","propertySubType":"Single Family Residence","livingArea":1368,"associationFee":0,"unparsedAddress":"777 Cameron, Big Bear Lake, CA 92315"}},{"type":"Feature","geometry":{"type":"Point","coordinates":[-116.905831,34.240292]},"properties":{"listingKey":"20250921223548486120000000","listingId":"IG-25222153","listPrice":335000,"city":"Big Bear Lake","baths":1,"slug":"20250921223548486120000000","mlsSource":"CRMLS","propertyType":"A","propertySubType":"Single Family Residence","livingArea":864,"associationFee":0,"unparsedAddress":"681 Main Street, Big Bear Lake, CA 92315"}},{"type":"Feature","geometry":{"type":"Point","coordinates":[-116.906262,34.238963]},"properties":{"listingKey":"20251025011029085267000000","listingId":"OC-25245747","listPrice":400000,"city":"Big Bear Lake","baths":1,"slug":"20251025011029085267000000","mlsSource":"CRMLS","propertyType":"A","propertySubType":"Single Family Residence","livingArea":964,"associationFee":0,"unparsedAddress":"41063 Pennsylvania, Big Bear Lake, CA 92315"}},{"type":"Feature","geometry":{"type":"Point","coordinates":[-116.914702,34.241796]},"properties":{"listingKey":"20250905214552806663000000","listingId":"TR-25200216","listPrice":499000,"city":"Big Bear Lake","baths":1,"slug":"20250905214552806663000000","mlsSource":"CRMLS","propertyType":"A","propertySubType":"Single Family Residence","livingArea":884,"associationFee":0,"unparsedAddress":"593 Lynn Road, Big Bear Lake, CA 92315"}}]