[{"type":"Feature","geometry":{"type":"Point","coordinates":[-118.180356,33.924594]},"properties":{"listingKey":"20251006233637275171000000","listingId":"MB-25232316","listPrice":4999,"city":"Lynwood","baths":2,"slug":"20251006233637275171000000","mlsSource":"CRMLS","propertyType":"B","propertySubType":"Single Family Residence","livingArea":1650,"associationFee":0,"unparsedAddress":"11160 Louise Avenue, Lynwood, CA 90262"}},{"type":"Feature","id":186503,"properties":{"cluster":true,"cluster_id":186503,"point_count":2,"point_count_abbreviated":2},"geometry":{"type":"Point","coordinates":[-118.18611681461334,33.90917948531134]}},{"type":"Feature","geometry":{"type":"Point","coordinates":[-118.192551,33.919564]},"properties":{"listingKey":"20251107054553872469000000","listingId":"DW-25255865","listPrice":615000,"city":"Lynwood","baths":2,"slug":"20251107054553872469000000","mlsSource":"CRMLS","propertyType":"A","propertySubType":"Single Family Residence","livingArea":893,"associationFee":0,"unparsedAddress":"4236 Cortland Street, Lynwood, CA 90262"}},{"type":"Feature","geometry":{"type":"Point","coordinates":[-118.18652,33.921454]},"properties":{"listingKey":"20250926094805603651000000","listingId":"DW-25225828","listPrice":959999,"city":"Lynwood","baths":0,"slug":"20250926094805603651000000","mlsSource":"CRMLS","propertyType":"C","propertySubType":"Duplex","livingArea":2324,"unparsedAddress":"11363 Virginia Avenue, Lynwood, CA 90262"}},{"type":"Feature","id":100935,"properties":{"cluster":true,"cluster_id":100935,"point_count":5,"point_count_abbreviated":5},"geometry":{"type":"Point","coordinates":[-118.19991624355315,33.9082935220687]}},{"type":"Feature","geometry":{"type":"Point","coordinates":[-118.194027,33.933402]},"properties":{"listingKey":"20250728012021373017000000","listingId":"DW-25168778","listPrice":799999,"city":"Lynwood","baths":2,"slug":"20250728012021373017000000","mlsSource":"CRMLS","propertyType":"A","propertySubType":"Single Family Residence","livingArea":1665,"associationFee":0,"unparsedAddress":"10891 Standard Avenue, Lynwood, CA 90262"}},{"type":"Feature","id":433959,"properties":{"cluster":true,"cluster_id":433959,"point_count":4,"point_count_abbreviated":4},"geometry":{"type":"Point","coordinates":[-118.19503784179688,33.91332869813728]}},{"type":"Feature","geometry":{"type":"Point","coordinates":[-118.204523,33.909735]},"properties":{"listingKey":"20251012001310994353000000","listingId":"PW-25237884","listPrice":680000,"city":"Compton","baths":2,"slug":"20251012001310994353000000","mlsSource":"CRMLS","propertyType":"A","propertySubType":"Single Family Residence","livingArea":1462,"associationFee":0,"unparsedAddress":"1612 East Stockton, Compton, CA 90221"}},{"type":"Feature","id":454119,"properties":{"cluster":true,"cluster_id":454119,"point_count":2,"point_count_abbreviated":2},"geometry":{"type":"Point","coordinates":[-118.19846034049988,33.91954323559379]}},{"type":"Feature","id":419303,"properties":{"cluster":true,"cluster_id":419303,"point_count":2,"point_count_abbreviated":2},"geometry":{"type":"Point","coordinates":[-118.2052356004715,33.92760009144318]}},{"type":"Feature","id":126663,"properties":{"cluster":true,"cluster_id":126663,"point_count":2,"point_count_abbreviated":2},"geometry":{"type":"Point","coordinates":[-118.19876879453659,33.930947246163754]}},{"type":"Feature","id":114855,"properties":{"cluster":true,"cluster_id":114855,"point_count":2,"point_count_abbreviated":2},"geometry":{"type":"Point","coordinates":[-118.18254679441452,33.93978185644171]}},{"type":"Feature","geometry":{"type":"Point","coordinates":[-118.209092,33.918897]},"properties":{"listingKey":"20251116024531934235000000","listingId":"OC-25261318","listPrice":999999,"city":"Lynwood","baths":0,"slug":"20251116024531934235000000","mlsSource":"CRMLS","propertyType":"C","propertySubType":"Commercial/Residential","livingArea":3016,"associationFee":0,"unparsedAddress":"12008 Long Beach Boulevard, Lynwood, CA 90262"}},{"type":"Feature","geometry":{"type":"Point","coordinates":[-118.172421,33.923973]},"properties":{"listingKey":"20251121054226132383000000","listingId":"DW-25264222","listPrice":784000,"city":"South Gate","baths":2,"slug":"20251121054226132383000000","mlsSource":"CRMLS","propertyType":"A","propertySubType":"Single Family Residence","livingArea":1637,"associationFee":0,"unparsedAddress":"11313 Pennsylvania, South Gate, CA 90280"}},{"type":"Feature","geometry":{"type":"Point","coordinates":[-118.207219,33.931958]},"properties":{"listingKey":"20251120012653626126000000","listingId":"PW-25263435","listPrice":1075000,"city":"Lynwood","baths":0,"slug":"20251120012653626126000000","mlsSource":"CRMLS","propertyType":"C","propertySubType":"Apartment","livingArea":3617,"unparsedAddress":"3535 Los Flores, Lynwood, CA 90262"}}]