[{"type":"Feature","id":644808,"properties":{"cluster":true,"cluster_id":644808,"point_count":2,"point_count_abbreviated":2},"geometry":{"type":"Point","coordinates":[-117.81215518712997,33.85162173108189]}},{"type":"Feature","geometry":{"type":"Point","coordinates":[-117.801797,33.837907]},"properties":{"listingKey":"20250824022107482324000000","listingId":"PW-25190680","listPrice":5800,"city":"Orange","baths":3,"slug":"20250824022107482324000000","mlsSource":"CRMLS","propertyType":"B","propertySubType":"Single Family Residence","livingArea":2655,"associationFee":0,"unparsedAddress":"2946 North Weston Street, Orange, CA 92867"}},{"type":"Feature","geometry":{"type":"Point","coordinates":[-117.806425,33.836235]},"properties":{"listingKey":"20250622153751836427000000","listingId":"NP-25135906","listPrice":1774995,"city":"Orange","baths":3,"slug":"20250622153751836427000000","mlsSource":"CRMLS","propertyType":"A","propertySubType":"Single Family Residence","livingArea":3303,"associationFee":159,"unparsedAddress":"2811 North Roxbury Street, Orange, CA 92867"}},{"type":"Feature","geometry":{"type":"Point","coordinates":[-117.798715,33.843579]},"properties":{"listingKey":"20250912032741439887000000","listingId":"PW-25214686","listPrice":1648000,"city":"Anaheim Hills","baths":3,"slug":"20250912032741439887000000","mlsSource":"CRMLS","propertyType":"A","propertySubType":"Single Family Residence","livingArea":2666,"associationFee":32,"unparsedAddress":"5353 Rural Ridge Circle East, Anaheim Hills, CA 92707"}},{"type":"Feature","id":789768,"properties":{"cluster":true,"cluster_id":789768,"point_count":2,"point_count_abbreviated":2},"geometry":{"type":"Point","coordinates":[-117.80193597078323,33.84346413117258]}}]