[{"type":"Feature","geometry":{"type":"Point","coordinates":[-122.197926,39.746067]},"properties":{"listingKey":"20251028141242794508000000","listingId":"SN-25248396","listPrice":350000,"city":"Orland","baths":1.5,"slug":"20251028141242794508000000","mlsSource":"CRMLS","propertyType":"A","propertySubType":"Single Family Residence","livingArea":1392,"associationFee":0,"unparsedAddress":"621 Colusa Street, Orland, CA 95963"}},{"type":"Feature","id":361800,"properties":{"cluster":true,"cluster_id":361800,"point_count":2,"point_count_abbreviated":2},"geometry":{"type":"Point","coordinates":[-122.19247877597809,39.74571748653432]}},{"type":"Feature","geometry":{"type":"Point","coordinates":[-122.178698,39.745643]},"properties":{"listingKey":"20250912185219423202000000","listingId":"SN-25215841","listPrice":305000,"city":"Orland","baths":2,"slug":"20250912185219423202000000","mlsSource":"CRMLS","propertyType":"A","propertySubType":"Single Family Residence","livingArea":1668,"associationFee":0,"unparsedAddress":"248 East Mill Street, Orland, CA 95963"}},{"type":"Feature","geometry":{"type":"Point","coordinates":[-122.172321,39.743832]},"properties":{"listingKey":"20250710054152500345000000","listingId":"SN-25153642","listPrice":489999,"city":"Orland","baths":2,"slug":"20250710054152500345000000","mlsSource":"CRMLS","propertyType":"A","propertySubType":"Single Family Residence","livingArea":1611,"associationFee":0,"unparsedAddress":"1682 Almondwood Drive, Orland, CA 95963"}},{"type":"Feature","id":361864,"properties":{"cluster":true,"cluster_id":361864,"point_count":2,"point_count_abbreviated":2},"geometry":{"type":"Point","coordinates":[-122.1791535615921,39.75246507590978]}},{"type":"Feature","geometry":{"type":"Point","coordinates":[-122.198065,39.758549]},"properties":{"listingKey":"20251118203140329972000000","listingId":"SN-25260882","listPrice":475000,"city":"Orland","baths":2.5,"slug":"20251118203140329972000000","mlsSource":"CRMLS","propertyType":"A","propertySubType":"Single Family Residence","livingArea":1762,"associationFee":0,"unparsedAddress":"634 Salomon Dr, Orland, CA 95963"}},{"type":"Feature","id":364072,"properties":{"cluster":true,"cluster_id":364072,"point_count":2,"point_count_abbreviated":2},"geometry":{"type":"Point","coordinates":[-122.19928085803986,39.75188767969374]}},{"type":"Feature","geometry":{"type":"Point","coordinates":[-122.207933,39.751644]},"properties":{"listingKey":"20250927042702979236000000","listingId":"SN-25225990","listPrice":3100000,"city":"Orland","baths":2,"slug":"20250927042702979236000000","mlsSource":"CRMLS","propertyType":"A","propertySubType":"Single Family Residence","livingArea":2000,"associationFee":0,"unparsedAddress":"18850 County Road 200, Orland, CA 95963"}},{"type":"Feature","geometry":{"type":"Point","coordinates":[-122.169478,39.751058]},"properties":{"listingKey":"20251114164351350551000000","listingId":"SN-25259104","listPrice":349000,"city":"Orland","baths":2,"slug":"20251114164351350551000000","mlsSource":"CRMLS","propertyType":"A","propertySubType":"Single Family Residence","livingArea":1673,"associationFee":0,"unparsedAddress":"4465 County Road Mm, Orland, CA 95963"}},{"type":"Feature","id":257223,"properties":{"cluster":true,"cluster_id":257223,"point_count":2,"point_count_abbreviated":2},"geometry":{"type":"Point","coordinates":[-122.1856552362442,39.7486871671947]}}]