[{"type":"Feature","id":274279,"properties":{"cluster":true,"cluster_id":274279,"point_count":3,"point_count_abbreviated":3},"geometry":{"type":"Point","coordinates":[-122.18028366565703,37.743438272649556]}},{"type":"Feature","id":361191,"properties":{"cluster":true,"cluster_id":361191,"point_count":4,"point_count_abbreviated":4},"geometry":{"type":"Point","coordinates":[-122.181745916605,37.72750939263932]}},{"type":"Feature","geometry":{"type":"Point","coordinates":[-122.178144,37.723185]},"properties":{"listingKey":"20251027025052146937000000","listingId":"01-41115897","listPrice":725000,"city":"San Leandro","baths":1,"slug":"20251027025052146937000000","mlsSource":"CRMLS","propertyType":"A","propertySubType":"Single Family Residence","livingArea":1081,"unparsedAddress":"808 Martin Blvd, San Leandro, CA 94577"}},{"type":"Feature","geometry":{"type":"Point","coordinates":[-122.190892,37.731693]},"properties":{"listingKey":"20251121022005053367000000","listingId":"01-41117935","listPrice":599000,"city":"Oakland","baths":1,"slug":"20251121022005053367000000","mlsSource":"CRMLS","propertyType":"A","propertySubType":"Single Family Residence","livingArea":988,"unparsedAddress":"9709 Coral Rd, Oakland, CA 94603"}},{"type":"Feature","geometry":{"type":"Point","coordinates":[-122.174975,37.728039]},"properties":{"listingKey":"20251003055241798867000000","listingId":"01-41113626","listPrice":629000,"city":"Oakland","baths":1,"slug":"20251003055241798867000000","mlsSource":"CRMLS","propertyType":"A","propertySubType":"Single Family Residence","livingArea":1139,"unparsedAddress":"10906 Reposo Dr, Oakland, CA 94603"}},{"type":"Feature","id":385415,"properties":{"cluster":true,"cluster_id":385415,"point_count":3,"point_count_abbreviated":3},"geometry":{"type":"Point","coordinates":[-122.17162549495696,37.73417889687853]}},{"type":"Feature","id":694729,"properties":{"cluster":true,"cluster_id":694729,"point_count":2,"point_count_abbreviated":2},"geometry":{"type":"Point","coordinates":[-122.1851134300232,37.75277566362931]}},{"type":"Feature","id":329127,"properties":{"cluster":true,"cluster_id":329127,"point_count":2,"point_count_abbreviated":2},"geometry":{"type":"Point","coordinates":[-122.17636674642563,37.7510875551135]}}]