[{"type":"Feature","geometry":{"type":"Point","coordinates":[-121.087181,35.56246]},"properties":{"listingKey":"20251107091319770972000000","listingId":"SC-25255934","listPrice":1875000,"city":"Cambria","baths":5,"slug":"20251107091319770972000000","mlsSource":"CRMLS","propertyType":"A","propertySubType":"Single Family Residence","livingArea":3319,"associationFee":0,"unparsedAddress":"1550 Main St, Cambria, CA 93428"}},{"type":"Feature","geometry":{"type":"Point","coordinates":[-121.082618,35.556848]},"properties":{"listingKey":"20251011204804957577000000","listingId":"SC-25237814","listPrice":595000,"city":"Cambria","baths":1,"slug":"20251011204804957577000000","mlsSource":"CRMLS","propertyType":"A","propertySubType":"Single Family Residence","livingArea":480,"associationFee":0,"unparsedAddress":"2299 Yorkshire Drive, Cambria, CA 93428"}},{"type":"Feature","geometry":{"type":"Point","coordinates":[-121.074823,35.550593]},"properties":{"listingKey":"20251024195700147021000000","listingId":"NS-25239359","listPrice":798900,"city":"Cambria","baths":2.5,"slug":"20251024195700147021000000","mlsSource":"CRMLS","propertyType":"A","propertySubType":"Single Family Residence","livingArea":1210,"associationFee":0,"unparsedAddress":"2155 Spencer Street, Cambria, CA 93428"}},{"type":"Feature","geometry":{"type":"Point","coordinates":[-121.08482,35.553079]},"properties":{"listingKey":"20251029225559861981000000","listingId":"SC-25248781","listPrice":779000,"city":"Cambria","baths":1.75,"slug":"20251029225559861981000000","mlsSource":"CRMLS","propertyType":"A","propertySubType":"Single Family Residence","livingArea":1000,"associationFee":0,"unparsedAddress":"2550 Emerson Road, Cambria, CA 93428"}},{"type":"Feature","geometry":{"type":"Point","coordinates":[-121.076864,35.55266]},"properties":{"listingKey":"20251112021826568646000000","listingId":"SC-25258659","listPrice":569000,"city":"Cambria","baths":1.5,"slug":"20251112021826568646000000","mlsSource":"CRMLS","propertyType":"A","propertySubType":"Single Family Residence","livingArea":1132,"associationFee":0,"unparsedAddress":"2387 Marjorie, Cambria, CA 93428"}}]