[{"type":"Feature","geometry":{"type":"Point","coordinates":[-118.318106,33.837805]},"properties":{"listingKey":"20251031214333984673000000","listingId":"SB-25237879","listPrice":2400000,"city":"Torrance","baths":0,"slug":"20251031214333984673000000","mlsSource":"CRMLS","propertyType":"C","propertySubType":"Apartment","livingArea":5394,"associationFee":0,"unparsedAddress":"906 Sartori, Torrance, CA 90501"}},{"type":"Feature","geometry":{"type":"Point","coordinates":[-118.316702,33.836593]},"properties":{"listingKey":"20251101002656034986000000","listingId":"SB-25251645","listPrice":1500,"city":"Torrance","baths":1,"slug":"20251101002656034986000000","mlsSource":"CRMLS","propertyType":"B","propertySubType":"Apartment","livingArea":400,"associationFee":0,"unparsedAddress":"1116 Sartori Avenue, 105, Torrance, CA 90501"}},{"type":"Feature","geometry":{"type":"Point","coordinates":[-118.319671,33.837548]},"properties":{"listingKey":"20251009212834694484000000","listingId":"SB-25236371","listPrice":979000,"city":"Torrance","baths":2.5,"slug":"20251009212834694484000000","mlsSource":"CRMLS","propertyType":"A","propertySubType":"Townhouse","livingArea":1664,"associationFee":300,"unparsedAddress":"1021 Cravens, 9, Torrance, CA 90501"}},{"type":"Feature","id":169641,"properties":{"cluster":true,"cluster_id":169641,"point_count":2,"point_count_abbreviated":2},"geometry":{"type":"Point","coordinates":[-118.31973373889923,33.839979872436516]}},{"type":"Feature","geometry":{"type":"Point","coordinates":[-118.319387,33.840676]},"properties":{"listingKey":"20250904221314306615000000","listingId":"OC-25198998","listPrice":3200,"city":"Torrance","baths":1,"slug":"20250904221314306615000000","mlsSource":"CRMLS","propertyType":"B","propertySubType":"Duplex","livingArea":816,"associationFee":0,"unparsedAddress":"707 Columbia Place, Torrance, CA 90501"}},{"type":"Feature","geometry":{"type":"Point","coordinates":[-118.319238,33.838833]},"properties":{"listingKey":"20251110212117027184000000","listingId":"PV-25252649","listPrice":848000,"city":"Torrance","baths":2.25,"slug":"20251110212117027184000000","mlsSource":"CRMLS","propertyType":"A","propertySubType":"Townhouse","livingArea":1456,"associationFee":275,"unparsedAddress":"838 Arlington Avenue, Torrance, CA 90501"}}]