[{"type":"Feature","geometry":{"type":"Point","coordinates":[-118.313489,33.757461]},"properties":{"listingKey":"20251106025911603012000000","listingId":"SB-25254426","listPrice":999000,"city":"Rancho Palos Verdes","baths":2.5,"slug":"20251106025911603012000000","mlsSource":"CRMLS","propertyType":"A","propertySubType":"Townhouse","livingArea":1633,"associationFee":656,"unparsedAddress":"1825 Caddington Drive, 25, Rancho Palos Verdes, CA 90275"}},{"type":"Feature","geometry":{"type":"Point","coordinates":[-118.314238,33.758577]},"properties":{"listingKey":"20251119202215941495000000","listingId":"PV-25256497","listPrice":4250,"city":"Rancho Palos Verdes","baths":2.5,"slug":"20251119202215941495000000","mlsSource":"CRMLS","propertyType":"B","propertySubType":"Townhouse","livingArea":1398,"unparsedAddress":"28647 Vista Madera Street, Rancho Palos Verdes, CA 90275"}},{"type":"Feature","geometry":{"type":"Point","coordinates":[-118.317704,33.759907]},"properties":{"listingKey":"20251106194655723903000000","listingId":"SB-25254659","listPrice":5500,"city":"Rancho Palos Verdes","baths":3,"slug":"20251106194655723903000000","mlsSource":"CRMLS","propertyType":"B","propertySubType":"Single Family Residence","livingArea":2348,"associationFee":0,"unparsedAddress":"2140 West Toscanini, Rancho Palos Verdes, CA 90275"}},{"type":"Feature","geometry":{"type":"Point","coordinates":[-118.317675,33.758251]},"properties":{"listingKey":"20250923093313521261000000","listingId":"SB-25221893","listPrice":6300,"city":"Rancho Palos Verdes","baths":2,"slug":"20250923093313521261000000","mlsSource":"CRMLS","propertyType":"B","propertySubType":"Single Family Residence","livingArea":1864,"associationFee":0,"unparsedAddress":"2142 Van Karajan Drive, Rancho Palos Verdes, CA 90275"}},{"type":"Feature","geometry":{"type":"Point","coordinates":[-118.322178,33.754426]},"properties":{"listingKey":"20250828073615229697000000","listingId":"PV-25191706","listPrice":2075000,"city":"Rancho Palos Verdes","baths":2.25,"slug":"20250828073615229697000000","mlsSource":"CRMLS","propertyType":"A","propertySubType":"Single Family Residence","livingArea":2225,"associationFee":0,"unparsedAddress":"6441 Via De Anzar, Rancho Palos Verdes, CA 90275"}},{"type":"Feature","geometry":{"type":"Point","coordinates":[-118.316426,33.757443]},"properties":{"listingKey":"20251113182109529382000000","listingId":"SB-25259789","listPrice":5800,"city":"Rancho Palos Verdes","baths":3,"slug":"20251113182109529382000000","mlsSource":"CRMLS","propertyType":"B","propertySubType":"Single Family Residence","livingArea":2046,"associationFee":0,"unparsedAddress":"28617 Stokowski, Rancho Palos Verdes, CA 90275"}}]