[{"type":"Feature","id":790632,"properties":{"cluster":true,"cluster_id":790632,"point_count":2,"point_count_abbreviated":2},"geometry":{"type":"Point","coordinates":[-118.60433757305145,34.147253155436516]}},{"type":"Feature","geometry":{"type":"Point","coordinates":[-118.599598,34.151096]},"properties":{"listingKey":"20251119201648437101000000","listingId":"OC-25262294","listPrice":1995000,"city":"Woodland Hills","baths":5.5,"slug":"20251119201648437101000000","mlsSource":"CRMLS","propertyType":"A","propertySubType":"Single Family Residence","livingArea":4225,"associationFee":0,"unparsedAddress":"4630 Esparto Road North, Woodland Hills, CA 91364"}},{"type":"Feature","geometry":{"type":"Point","coordinates":[-118.594734,34.149342]},"properties":{"listingKey":"20250706072218904198000000","listingId":"OC-25147097","listPrice":1699000,"city":"Woodland Hills","baths":4,"slug":"20250706072218904198000000","mlsSource":"CRMLS","propertyType":"A","propertySubType":"Single Family Residence","livingArea":3764,"associationFee":0,"unparsedAddress":"4377 Saltillo Street, Woodland Hills, CA 91364"}},{"type":"Feature","geometry":{"type":"Point","coordinates":[-118.591564,34.158941]},"properties":{"listingKey":"20250820043814674032000000","listingId":"OC-25186928","listPrice":1699999,"city":"Woodland Hills","baths":5,"slug":"20250820043814674032000000","mlsSource":"CRMLS","propertyType":"A","propertySubType":"Single Family Residence","livingArea":3154,"associationFee":0,"unparsedAddress":"21047 Dumetz Road, Woodland Hills, CA 91364"}},{"type":"Feature","geometry":{"type":"Point","coordinates":[-118.588648,34.147897]},"properties":{"listingKey":"20250920041739675440000000","listingId":"SB-25219749","listPrice":1275000,"city":"Woodland Hills","baths":2.5,"slug":"20250920041739675440000000","mlsSource":"CRMLS","propertyType":"A","propertySubType":"Single Family Residence","livingArea":2801,"associationFee":0,"unparsedAddress":"20906 Almazan, Woodland Hills, CA 91364"}},{"type":"Feature","geometry":{"type":"Point","coordinates":[-118.595544,34.161656]},"properties":{"listingKey":"20251015171437270655000000","listingId":"OC-25240069","listPrice":6495,"city":"Woodland Hills","baths":3,"slug":"20251015171437270655000000","mlsSource":"CRMLS","propertyType":"B","propertySubType":"Single Family Residence","livingArea":2270,"associationFee":0,"unparsedAddress":"21321 Velicata Street, Woodland Hills, CA 91364"}},{"type":"Feature","geometry":{"type":"Point","coordinates":[-118.59772,34.137958]},"properties":{"listingKey":"20250930202124718287000000","listingId":"OC-25227530","listPrice":4500,"city":"Topanga","baths":2,"slug":"20250930202124718287000000","mlsSource":"CRMLS","propertyType":"B","propertySubType":"Condominium","livingArea":1410,"associationFee":0,"unparsedAddress":"1188 Aztec, Topanga, CA 90290"}},{"type":"Feature","geometry":{"type":"Point","coordinates":[-118.565424,34.138518]},"properties":{"listingKey":"20250927042049819362000000","listingId":"BB-25226225","listPrice":2799000,"city":"Tarzana","baths":3,"slug":"20250927042049819362000000","mlsSource":"CRMLS","propertyType":"A","propertySubType":"Single Family Residence","livingArea":3489,"associationFee":0,"unparsedAddress":"20101 Greenbriar Drive, Tarzana, CA 91356"}}]