[{"type":"Feature","geometry":{"type":"Point","coordinates":[-122.052674,37.936268]},"properties":{"listingKey":"20250802104240221090000000","listingId":"01-41106843","listPrice":1749000,"city":"Walnut Creek","baths":3,"slug":"20250802104240221090000000","mlsSource":"CRMLS","propertyType":"A","propertySubType":"Single Family Residence","livingArea":2704,"unparsedAddress":"192 Mayhew Way, Walnut Creek, CA 94597"}},{"type":"Feature","geometry":{"type":"Point","coordinates":[-122.056503,37.942336]},"properties":{"listingKey":"20251016172231587100000000","listingId":"01-41114895","listPrice":750000,"city":"Pleasant Hill","baths":1,"slug":"20251016172231587100000000","mlsSource":"CRMLS","propertyType":"A","propertySubType":"Single Family Residence","livingArea":1087,"unparsedAddress":"2442 Geraldine Dr, Pleasant Hill, CA 94523"}},{"type":"Feature","geometry":{"type":"Point","coordinates":[-122.055312,37.939521]},"properties":{"listingKey":"20250709162657452125000000","listingId":"01-41104047","listPrice":898000,"city":"Pleasant Hill","baths":2.5,"slug":"20250709162657452125000000","mlsSource":"CRMLS","propertyType":"A","propertySubType":"Single Family Residence","livingArea":1690,"associationFee":265,"unparsedAddress":"54 Village Square Pl, Pleasant Hill, CA 94523"}},{"type":"Feature","geometry":{"type":"Point","coordinates":[-122.051148,37.938057]},"properties":{"listingKey":"20251025000212628326000000","listingId":"01-41115793","listPrice":2250,"city":"Concord","baths":1.5,"slug":"20251025000212628326000000","mlsSource":"CRMLS","propertyType":"B","propertySubType":"Condominium","livingArea":861,"unparsedAddress":"951 Bancroft Rd, Concord, CA 94518"}},{"type":"Feature","id":533129,"properties":{"cluster":true,"cluster_id":533129,"point_count":2,"point_count_abbreviated":2},"geometry":{"type":"Point","coordinates":[-122.05065965652466,37.939806179392974]}}]