[{"type":"Feature","geometry":{"type":"Point","coordinates":[-116.920494,33.731024]},"properties":{"listingKey":"20250801065513109483000000","listingId":"PW-25170329","listPrice":990000,"city":"Hemet","baths":2,"slug":"20250801065513109483000000","mlsSource":"CRMLS","propertyType":"A","propertySubType":"Single Family Residence","livingArea":1460,"associationFee":0,"unparsedAddress":"42370 Stetson Avenue, Hemet, CA 92544"}},{"type":"Feature","geometry":{"type":"Point","coordinates":[-116.937485,33.728643]},"properties":{"listingKey":"20250909192051699946000000","listingId":"IV-25207006","listPrice":398900,"city":"Hemet","baths":2,"slug":"20250909192051699946000000","mlsSource":"CRMLS","propertyType":"A","propertySubType":"Single Family Residence","livingArea":1032,"associationFee":0,"unparsedAddress":"41471 Vicky Lane, Hemet, CA 92544"}},{"type":"Feature","geometry":{"type":"Point","coordinates":[-116.931067,33.734849]},"properties":{"listingKey":"20250623235730830574000000","listingId":"8P-2504677","listPrice":515000,"city":"Hemet","baths":2,"slug":"20250623235730830574000000","mlsSource":"CRMLS","propertyType":"A","propertySubType":"Single Family Residence","livingArea":1715,"associationFee":0,"unparsedAddress":"41826 El Camino Drive, Hemet, CA 92544"}},{"type":"Feature","geometry":{"type":"Point","coordinates":[-116.924816,33.740259]},"properties":{"listingKey":"20251101014943639313000000","listingId":"SW-25251747","listPrice":460000,"city":"Hemet","baths":2,"slug":"20251101014943639313000000","mlsSource":"CRMLS","propertyType":"A","propertySubType":"Single Family Residence","livingArea":2019,"associationFee":0,"unparsedAddress":"42191 Mayberry, Hemet, CA 92544"}},{"type":"Feature","geometry":{"type":"Point","coordinates":[-116.936595,33.742145]},"properties":{"listingKey":"20251013215253330160000000","listingId":"IV-25238316","listPrice":450000,"city":"Hemet","baths":2,"slug":"20251013215253330160000000","mlsSource":"CRMLS","propertyType":"A","propertySubType":"Single Family Residence","livingArea":1595,"associationFee":0,"unparsedAddress":"26136 Dartmouth, Hemet, CA 92544"}},{"type":"Feature","geometry":{"type":"Point","coordinates":[-116.931088,33.725734]},"properties":{"listingKey":"20250814060908408432000000","listingId":"SW-25182969","listPrice":539900,"city":"Hemet","baths":2,"slug":"20250814060908408432000000","mlsSource":"CRMLS","propertyType":"A","propertySubType":"Single Family Residence","livingArea":2454,"associationFee":0,"unparsedAddress":"41825 Thornton Avenue, Hemet, CA 92544"}}]