[{"type":"Feature","id":636744,"properties":{"cluster":true,"cluster_id":636744,"point_count":2,"point_count_abbreviated":2},"geometry":{"type":"Point","coordinates":[-117.27941483259201,33.677023847129576]}},{"type":"Feature","geometry":{"type":"Point","coordinates":[-117.286911,33.676592]},"properties":{"listingKey":"20251028212634364187000000","listingId":"SW-25248720","listPrice":749900,"city":"Lake Elsinore","baths":3,"slug":"20251028212634364187000000","mlsSource":"CRMLS","propertyType":"A","propertySubType":"Single Family Residence","livingArea":2670,"associationFee":205,"unparsedAddress":"37 Corte Madera, Lake Elsinore, CA 92532"}},{"type":"Feature","geometry":{"type":"Point","coordinates":[-117.279462,33.681876]},"properties":{"listingKey":"20250918172815554864000000","listingId":"IG-25217620","listPrice":1950000,"city":"Canyon Lake","baths":7,"slug":"20250918172815554864000000","mlsSource":"CRMLS","propertyType":"A","propertySubType":"Single Family Residence","livingArea":3892,"associationFee":335,"unparsedAddress":"30420 Longhorn, Canyon Lake, CA 92587"}},{"type":"Feature","geometry":{"type":"Point","coordinates":[-117.287061,33.683684]},"properties":{"listingKey":"20251114043220833036000000","listingId":"SW-25260358","listPrice":2995,"city":"Lake Elsinore","baths":2.5,"slug":"20251114043220833036000000","mlsSource":"CRMLS","propertyType":"B","propertySubType":"Single Family Residence","livingArea":2313,"unparsedAddress":"29 Villa Roma, Lake Elsinore, CA 92532"}},{"type":"Feature","geometry":{"type":"Point","coordinates":[-117.283637,33.674456]},"properties":{"listingKey":"20251021223324729464000000","listingId":"IV-25244006","listPrice":599000,"city":"Lake Elsinore","baths":2.5,"slug":"20251021223324729464000000","mlsSource":"CRMLS","propertyType":"A","propertySubType":"Single Family Residence","livingArea":2062,"associationFee":203,"unparsedAddress":"24 Bella Firenze, Lake Elsinore, CA 92532"}},{"type":"Feature","geometry":{"type":"Point","coordinates":[-117.284929,33.679258]},"properties":{"listingKey":"20250829190047570784000000","listingId":"SW-25194883","listPrice":1600,"city":"Lake Elsinore","baths":1,"slug":"20250829190047570784000000","mlsSource":"CRMLS","propertyType":"B","propertySubType":"Room for Rent","livingArea":362,"unparsedAddress":"22 Villa Valtelena, Lake Elsinore, CA 92532"}},{"type":"Feature","id":802889,"properties":{"cluster":true,"cluster_id":802889,"point_count":2,"point_count_abbreviated":2},"geometry":{"type":"Point","coordinates":[-117.28216141462326,33.679349634127746]}},{"type":"Feature","geometry":{"type":"Point","coordinates":[-117.278373,33.679238]},"properties":{"listingKey":"20251121004909879315000000","listingId":"SW-25263517","listPrice":909000,"city":"Lake Elsinore","baths":4.5,"slug":"20251121004909879315000000","mlsSource":"CRMLS","propertyType":"A","propertySubType":"Single Family Residence","livingArea":4021,"associationFee":203,"unparsedAddress":"63 Volta Del Tintori Street, Lake Elsinore, CA 92532"}},{"type":"Feature","id":540136,"properties":{"cluster":true,"cluster_id":540136,"point_count":2,"point_count_abbreviated":2},"geometry":{"type":"Point","coordinates":[-117.27935582399368,33.68368409037434]}},{"type":"Feature","geometry":{"type":"Point","coordinates":[-117.26827,33.679211]},"properties":{"listingKey":"20251021224938179701000000","listingId":"IV-25243996","listPrice":1450000,"city":"Canyon Lake","baths":3.5,"slug":"20251021224938179701000000","mlsSource":"CRMLS","propertyType":"A","propertySubType":"Single Family Residence","livingArea":3023,"associationFee":365,"unparsedAddress":"30391 Sparkle Drive, Canyon Lake, CA 92587"}},{"type":"Feature","id":497000,"properties":{"cluster":true,"cluster_id":497000,"point_count":2,"point_count_abbreviated":2},"geometry":{"type":"Point","coordinates":[-117.27336645126343,33.68439383118255]}},{"type":"Feature","id":554120,"properties":{"cluster":true,"cluster_id":554120,"point_count":3,"point_count_abbreviated":3},"geometry":{"type":"Point","coordinates":[-117.27131009101866,33.678898766708045]}}]