[{"type":"Feature","geometry":{"type":"Point","coordinates":[-122.230711,37.793075]},"properties":{"listingKey":"20250930181907319353000000","listingId":"01-41113055","listPrice":628000,"city":"Oakland","baths":2,"slug":"20250930181907319353000000","mlsSource":"CRMLS","propertyType":"A","propertySubType":"Single Family Residence","livingArea":1222,"unparsedAddress":"2122 East 25Th St, Oakland, CA 94606"}},{"type":"Feature","geometry":{"type":"Point","coordinates":[-122.226961,37.791617]},"properties":{"listingKey":"20250905125532782027000000","listingId":"01-41110509","listPrice":799999,"city":"Oakland","baths":0,"slug":"20250905125532782027000000","mlsSource":"CRMLS","propertyType":"C","propertySubType":"Duplex","associationFee":0,"unparsedAddress":"2539 Grande Vista Ave, Oakland, CA 94601"}},{"type":"Feature","geometry":{"type":"Point","coordinates":[-122.229215,37.794108]},"properties":{"listingKey":"20251027211938855635000000","listingId":"01-41115931","listPrice":725000,"city":"Oakland","baths":2,"slug":"20251027211938855635000000","mlsSource":"CRMLS","propertyType":"A","propertySubType":"Single Family Residence","livingArea":1196,"unparsedAddress":"2137 East 27th ave, Oakland, CA 94606"}},{"type":"Feature","geometry":{"type":"Point","coordinates":[-122.231716,37.791526]},"properties":{"listingKey":"20251027171947018587000000","listingId":"01-41115907","listPrice":550000,"city":"Oakland","baths":1,"slug":"20251027171947018587000000","mlsSource":"CRMLS","propertyType":"A","propertySubType":"Single Family Residence","livingArea":1312,"unparsedAddress":"2134 East 23rd, Oakland, CA"}},{"type":"Feature","id":793033,"properties":{"cluster":true,"cluster_id":793033,"point_count":2,"point_count_abbreviated":2},"geometry":{"type":"Point","coordinates":[-122.22761571407318,37.79257501746835]}},{"type":"Feature","geometry":{"type":"Point","coordinates":[-122.229247,37.789101]},"properties":{"listingKey":"20250930045559621354000000","listingId":"01-41113086","listPrice":749888,"city":"Oakland","baths":2,"slug":"20250930045559621354000000","mlsSource":"CRMLS","propertyType":"A","propertySubType":"Single Family Residence","livingArea":2566,"unparsedAddress":"2222 Inyo Ave, Oakland, CA 94601"}},{"type":"Feature","geometry":{"type":"Point","coordinates":[-122.227122,37.796565]},"properties":{"listingKey":"20250628095706700375000000","listingId":"01-41103042","listPrice":784888,"city":"Oakland","baths":2,"slug":"20250628095706700375000000","mlsSource":"CRMLS","propertyType":"A","propertySubType":"Single Family Residence","livingArea":1260,"unparsedAddress":"2133 East 30Th St, Oakland, CA 94606"}}]