[{"type":"Feature","geometry":{"type":"Point","coordinates":[-118.270622,33.945874]},"properties":{"listingKey":"20250819232150652877000000","listingId":"DW-25187175","listPrice":599000,"city":"Los Angeles","baths":1,"slug":"20250819232150652877000000","mlsSource":"CRMLS","propertyType":"A","propertySubType":"Single Family Residence","livingArea":756,"associationFee":0,"unparsedAddress":"231 East Century Boulevard, Los Angeles, CA 90003"}},{"type":"Feature","geometry":{"type":"Point","coordinates":[-118.274566,33.948558]},"properties":{"listingKey":"20251022002049354312000000","listingId":"OC-25244589","listPrice":1900,"city":"Los Angeles","baths":1,"slug":"20251022002049354312000000","mlsSource":"CRMLS","propertyType":"B","propertySubType":"Apartment","livingArea":380,"associationFee":0,"unparsedAddress":"113 West 97th, Los Angeles, CA 90003"}},{"type":"Feature","geometry":{"type":"Point","coordinates":[-118.269212,33.952132]},"properties":{"listingKey":"20250826000826075401000000","listingId":"RS-25190976","listPrice":875000,"city":"Los Angeles","baths":0,"slug":"20250826000826075401000000","mlsSource":"CRMLS","propertyType":"C","propertySubType":"Apartment","livingArea":3520,"unparsedAddress":"9222 South San Pedro Street, Los Angeles, CA 90003"}},{"type":"Feature","geometry":{"type":"Point","coordinates":[-118.272108,33.95044]},"properties":{"listingKey":"20250809121236837676000000","listingId":"RS-25175710","listPrice":599000,"city":"Los Angeles","baths":0,"slug":"20250809121236837676000000","mlsSource":"CRMLS","propertyType":"C","propertySubType":"Duplex","livingArea":1440,"unparsedAddress":"147 East 95th Street, Los Angeles, CA 90003"}},{"type":"Feature","geometry":{"type":"Point","coordinates":[-118.270091,33.948571]},"properties":{"listingKey":"20251016163613292075000000","listingId":"PW-25240195","listPrice":549000,"city":"Los Angeles","baths":2,"slug":"20251016163613292075000000","mlsSource":"CRMLS","propertyType":"A","propertySubType":"Single Family Residence","livingArea":852,"associationFee":0,"unparsedAddress":"247 East 97th, Los Angeles, CA 90003"}},{"type":"Feature","id":263977,"properties":{"cluster":true,"cluster_id":263977,"point_count":3,"point_count_abbreviated":3},"geometry":{"type":"Point","coordinates":[-118.26850712299346,33.944279663527624]}},{"type":"Feature","geometry":{"type":"Point","coordinates":[-118.26922,33.943474]},"properties":{"listingKey":"20251104230831393163000000","listingId":"CV-25253783","listPrice":609000,"city":"Los Angeles","baths":2,"slug":"20251104230831393163000000","mlsSource":"CRMLS","propertyType":"A","propertySubType":"Single Family Residence","livingArea":1008,"associationFee":0,"unparsedAddress":"10208 South San Pedro, Los Angeles, CA 90003"}},{"type":"Feature","geometry":{"type":"Point","coordinates":[-118.278706,33.951584]},"properties":{"listingKey":"20250909144512747096000000","listingId":"OC-25204864","listPrice":495000,"city":"Los Angeles","baths":0,"slug":"20250909144512747096000000","mlsSource":"CRMLS","propertyType":"C","propertySubType":"Duplex","livingArea":960,"unparsedAddress":"9311 South Broadway, Los Angeles, CA 90003"}},{"type":"Feature","geometry":{"type":"Point","coordinates":[-118.272638,33.946737]},"properties":{"listingKey":"20251120143239995843000000","listingId":"IN-25262302","listPrice":610000,"city":"Los Angeles","baths":2,"slug":"20251120143239995843000000","mlsSource":"CRMLS","propertyType":"A","propertySubType":"Single Family Residence","livingArea":1166,"associationFee":0,"unparsedAddress":"131 East 99th, Los Angeles, CA 90003"}},{"type":"Feature","geometry":{"type":"Point","coordinates":[-118.275343,33.944384]},"properties":{"listingKey":"20251030192754499140000000","listingId":"P1-24935","listPrice":3400,"city":"Los Angeles","baths":2,"slug":"20251030192754499140000000","mlsSource":"CRMLS","propertyType":"B","propertySubType":"Duplex","livingArea":1328,"unparsedAddress":"140 East 101st Street, Los Angeles, CA 90003"}}]