[{"type":"Feature","geometry":{"type":"Point","coordinates":[-116.938237,33.92183]},"properties":{"listingKey":"20251108214415109483000000","listingId":"IG-25256757","listPrice":360000,"city":"Banning","baths":1.5,"slug":"20251108214415109483000000","mlsSource":"CRMLS","propertyType":"A","propertySubType":"Single Family Residence","livingArea":1505,"associationFee":385,"unparsedAddress":"5609 Riviera, Banning, CA 92220"}},{"type":"Feature","geometry":{"type":"Point","coordinates":[-116.932128,33.919963]},"properties":{"listingKey":"20250822063755557262000000","listingId":"IG-25188529","listPrice":429500,"city":"Banning","baths":2,"slug":"20250822063755557262000000","mlsSource":"CRMLS","propertyType":"A","propertySubType":"Single Family Residence","livingArea":1504,"associationFee":385,"unparsedAddress":"840 Twin Hills Drive, Banning, CA 92220"}},{"type":"Feature","id":401993,"properties":{"cluster":true,"cluster_id":401993,"point_count":2,"point_count_abbreviated":2},"geometry":{"type":"Point","coordinates":[-116.93042725324631,33.917758160557526]}},{"type":"Feature","geometry":{"type":"Point","coordinates":[-116.936963,33.920562]},"properties":{"listingKey":"20250624214155676645000000","listingId":"IG-25134022","listPrice":399900,"city":"Banning","baths":3,"slug":"20250624214155676645000000","mlsSource":"CRMLS","propertyType":"A","propertySubType":"Single Family Residence","livingArea":1923,"associationFee":385,"unparsedAddress":"518 South Seminole Circle, Banning, CA 92220"}},{"type":"Feature","geometry":{"type":"Point","coordinates":[-116.935453,33.917446]},"properties":{"listingKey":"20251119005913469722000000","listingId":"IG-25262743","listPrice":335000,"city":"Banning","baths":2,"slug":"20251119005913469722000000","mlsSource":"CRMLS","propertyType":"A","propertySubType":"Condominium","livingArea":985,"associationFee":395,"unparsedAddress":"5223 West Palmer Drive, Banning, CA 92220"}},{"type":"Feature","id":392713,"properties":{"cluster":true,"cluster_id":392713,"point_count":2,"point_count_abbreviated":2},"geometry":{"type":"Point","coordinates":[-116.93708717823029,33.9163336349462]}},{"type":"Feature","id":389161,"properties":{"cluster":true,"cluster_id":389161,"point_count":2,"point_count_abbreviated":2},"geometry":{"type":"Point","coordinates":[-116.93651586771011,33.91742428950408]}},{"type":"Feature","geometry":{"type":"Point","coordinates":[-116.934125,33.916857]},"properties":{"listingKey":"20250729122938087430000000","listingId":"IG-25168979","listPrice":379900,"city":"Banning","baths":2.5,"slug":"20250729122938087430000000","mlsSource":"CRMLS","propertyType":"A","propertySubType":"Single Family Residence","livingArea":1837,"associationFee":385,"unparsedAddress":"926 Olympic Avenue, Banning, CA 92220"}},{"type":"Feature","geometry":{"type":"Point","coordinates":[-116.933943,33.918671]},"properties":{"listingKey":"20251114233944651983000000","listingId":"IG-25260877","listPrice":2300,"city":"Banning","baths":2,"slug":"20251114233944651983000000","mlsSource":"CRMLS","propertyType":"B","propertySubType":"Single Family Residence","livingArea":1505,"unparsedAddress":"5062 RIVIERA Avenue, Banning, CA 92220"}}]