[{"type":"Feature","id":1021705,"properties":{"cluster":true,"cluster_id":1021705,"point_count":2,"point_count_abbreviated":2},"geometry":{"type":"Point","coordinates":[-117.62793034315109,33.52734063344735]}},{"type":"Feature","geometry":{"type":"Point","coordinates":[-117.624802,33.523809]},"properties":{"listingKey":"20251113024439008818000000","listingId":"OC-25258232","listPrice":1199000,"city":"Rancho Mission Viejo","baths":2,"slug":"20251113024439008818000000","mlsSource":"CRMLS","propertyType":"A","propertySubType":"Condominium","livingArea":1549,"associationFee":514,"unparsedAddress":"90 Galan, Rancho Mission Viejo, CA 92694"}},{"type":"Feature","geometry":{"type":"Point","coordinates":[-117.62081,33.525345]},"properties":{"listingKey":"20251118182022627496000000","listingId":"OC-25261230","listPrice":4350,"city":"Rancho Mission Viejo","baths":2.5,"slug":"20251118182022627496000000","mlsSource":"CRMLS","propertyType":"B","propertySubType":"Townhouse","livingArea":1430,"unparsedAddress":"6 Fenix Street, Rancho Mission Viejo, CA 92694"}},{"type":"Feature","geometry":{"type":"Point","coordinates":[-117.623595,33.52743]},"properties":{"listingKey":"20251009160002618421000000","listingId":"OC-25195995","listPrice":1735000,"city":"Rancho Mission Viejo","baths":3,"slug":"20251009160002618421000000","mlsSource":"CRMLS","propertyType":"A","propertySubType":"Single Family Residence","livingArea":2507,"associationFee":349,"unparsedAddress":"10 Alza Street, Rancho Mission Viejo, CA 92694"}},{"type":"Feature","geometry":{"type":"Point","coordinates":[-117.623429,33.529323]},"properties":{"listingKey":"20250807043510692252000000","listingId":"OC-25171638","listPrice":1699000,"city":"Rancho Mission Viejo","baths":4,"slug":"20250807043510692252000000","mlsSource":"CRMLS","propertyType":"A","propertySubType":"Single Family Residence","livingArea":2391,"associationFee":299,"unparsedAddress":"33 Lucido Street, Rancho Mission Viejo, CA 92694"}}]