[{"type":"Feature","geometry":{"type":"Point","coordinates":[-116.989929,33.756681]},"properties":{"listingKey":"20250805113237743883000000","listingId":"CV-25175404","listPrice":240000,"city":"Hemet","baths":1,"slug":"20250805113237743883000000","mlsSource":"CRMLS","propertyType":"A","propertySubType":"Single Family Residence","livingArea":820,"associationFee":36,"unparsedAddress":"1748 Amigo Drive, Hemet, CA 92545"}},{"type":"Feature","id":377545,"properties":{"cluster":true,"cluster_id":377545,"point_count":2,"point_count_abbreviated":2},"geometry":{"type":"Point","coordinates":[-116.98842465877533,33.755775395558416]}},{"type":"Feature","geometry":{"type":"Point","coordinates":[-116.992403,33.755965]},"properties":{"listingKey":"20251112002437295675000000","listingId":"WS-25258553","listPrice":275000,"city":"Hemet","baths":2,"slug":"20251112002437295675000000","mlsSource":"CRMLS","propertyType":"A","propertySubType":"Single Family Residence","livingArea":922,"associationFee":78,"unparsedAddress":"2024 Ortega Court, Hemet, CA 92545"}},{"type":"Feature","geometry":{"type":"Point","coordinates":[-116.990127,33.75258]},"properties":{"listingKey":"20251104220132767540000000","listingId":"OC-25253716","listPrice":1800,"city":"Hemet","baths":1,"slug":"20251104220132767540000000","mlsSource":"CRMLS","propertyType":"B","propertySubType":"Single Family Residence","livingArea":827,"unparsedAddress":"1861 Calle Diablo, Hemet, CA 92545"}},{"type":"Feature","geometry":{"type":"Point","coordinates":[-116.990771,33.75529]},"properties":{"listingKey":"20250913012426238867000000","listingId":"SW-25216233","listPrice":1600,"city":"Hemet","baths":1,"slug":"20250913012426238867000000","mlsSource":"CRMLS","propertyType":"B","propertySubType":"Duplex","livingArea":820,"unparsedAddress":"589 Solano Drive, Hemet, CA 92545"}},{"type":"Feature","geometry":{"type":"Point","coordinates":[-116.985029,33.755296]},"properties":{"listingKey":"20251021205947990488000000","listingId":"SW-25243161","listPrice":285000,"city":"Hemet","baths":2,"slug":"20251021205947990488000000","mlsSource":"CRMLS","propertyType":"A","propertySubType":"Manufactured On Land","livingArea":1776,"associationFee":60,"unparsedAddress":"1370 Cabrillo Drive, Hemet, CA 92543"}},{"type":"Feature","geometry":{"type":"Point","coordinates":[-116.98323,33.756359]},"properties":{"listingKey":"20251007005706605917000000","listingId":"IV-25233411","listPrice":275000,"city":"Hemet","baths":2,"slug":"20251007005706605917000000","mlsSource":"CRMLS","propertyType":"A","propertySubType":"Manufactured On Land","livingArea":1464,"associationFee":40,"unparsedAddress":"585 De Soto, Hemet, CA 92543"}},{"type":"Feature","geometry":{"type":"Point","coordinates":[-116.988265,33.756931]},"properties":{"listingKey":"20251105004011355747000000","listingId":"SW-25251854","listPrice":220000,"city":"Hemet","baths":2,"slug":"20251105004011355747000000","mlsSource":"CRMLS","propertyType":"A","propertySubType":"Manufactured On Land","livingArea":1440,"associationFee":0,"unparsedAddress":"1645 Sonora, Hemet, CA 92543"}},{"type":"Feature","geometry":{"type":"Point","coordinates":[-116.983503,33.758616]},"properties":{"listingKey":"20251021210346548901000000","listingId":"PW-25243544","listPrice":575000,"city":"Hemet","baths":2.5,"slug":"20251021210346548901000000","mlsSource":"CRMLS","propertyType":"A","propertySubType":"Single Family Residence","livingArea":1879,"associationFee":0,"unparsedAddress":"1145 Viento, Hemet, CA 92543"}},{"type":"Feature","geometry":{"type":"Point","coordinates":[-116.985707,33.758099]},"properties":{"listingKey":"20251025011026941347000000","listingId":"SW-25243698","listPrice":199000,"city":"Hemet","baths":2,"slug":"20251025011026941347000000","mlsSource":"CRMLS","propertyType":"A","propertySubType":"Manufactured On Land","livingArea":1440,"associationFee":65,"unparsedAddress":"1450 Carlotta, Hemet, CA 92543"}},{"type":"Feature","geometry":{"type":"Point","coordinates":[-116.992282,33.7573]},"properties":{"listingKey":"20251012172437518371000000","listingId":"SW-25237312","listPrice":1650,"city":"Riverside","baths":1,"slug":"20251012172437518371000000","mlsSource":"CRMLS","propertyType":"B","propertySubType":"Single Family Residence","livingArea":827,"associationFee":0,"unparsedAddress":"1994 Flores, Riverside, CA 92545"}}]