[{"type":"Feature","geometry":{"type":"Point","coordinates":[-121.740671,37.923509]},"properties":{"listingKey":"20251013211055681648000000","listingId":"01-41114603","listPrice":815000,"city":"Brentwood","baths":2.5,"slug":"20251013211055681648000000","mlsSource":"CRMLS","propertyType":"A","propertySubType":"Single Family Residence","livingArea":2571,"unparsedAddress":"2387 Fernwood Ln, Brentwood, CA 94513"}},{"type":"Feature","geometry":{"type":"Point","coordinates":[-121.74096,37.925644]},"properties":{"listingKey":"20250816045406278046000000","listingId":"01-41108260","listPrice":725000,"city":"Brentwood","baths":3,"slug":"20250816045406278046000000","mlsSource":"CRMLS","propertyType":"A","propertySubType":"Single Family Residence","livingArea":2194,"unparsedAddress":"2450 Palm Ct, Brentwood, CA 94513"}},{"type":"Feature","geometry":{"type":"Point","coordinates":[-121.731193,37.920248]},"properties":{"listingKey":"20251008221123447118000000","listingId":"01-41114141","listPrice":599900,"city":"Brentwood","baths":2,"slug":"20251008221123447118000000","mlsSource":"CRMLS","propertyType":"A","propertySubType":"Single Family Residence","livingArea":1566,"associationFee":130,"unparsedAddress":"281 Black Amber Way, Brentwood, CA 94513"}},{"type":"Feature","geometry":{"type":"Point","coordinates":[-121.728867,37.925643]},"properties":{"listingKey":"20250925041529602920000000","listingId":"01-41112645","listPrice":469950,"city":"Brentwood","baths":2,"slug":"20250925041529602920000000","mlsSource":"CRMLS","propertyType":"A","livingArea":994,"associationFee":175,"unparsedAddress":"1740 Jubilee Dr, Brentwood, CA 94513"}},{"type":"Feature","id":465672,"properties":{"cluster":true,"cluster_id":465672,"point_count":2,"point_count_abbreviated":2},"geometry":{"type":"Point","coordinates":[-121.73013031482697,37.91696115386371]}}]