[{"type":"Feature","geometry":{"type":"Point","coordinates":[-118.412233,33.981466]},"properties":{"listingKey":"20251028223731308075000000","listingId":"OC-25249043","listPrice":4500,"city":"Los Angeles","baths":1,"slug":"20251028223731308075000000","mlsSource":"CRMLS","propertyType":"B","propertySubType":"Single Family Residence","livingArea":1081,"associationFee":0,"unparsedAddress":"12456 Beatrice, Los Angeles, CA 90066"}},{"type":"Feature","geometry":{"type":"Point","coordinates":[-118.39593,34.015762]},"properties":{"listingKey":"20251014190425658482000000","listingId":"PV-25239293","listPrice":3500,"city":"Culver City","baths":1,"slug":"20251014190425658482000000","mlsSource":"CRMLS","propertyType":"B","propertySubType":"Duplex","livingArea":1373,"associationFee":0,"unparsedAddress":"4139 Jackson, A, Culver City, CA 90232"}},{"type":"Feature","id":197417,"properties":{"cluster":true,"cluster_id":197417,"point_count":3,"point_count_abbreviated":3},"geometry":{"type":"Point","coordinates":[-118.41402590274812,34.014282463180706]}},{"type":"Feature","id":92999,"properties":{"cluster":true,"cluster_id":92999,"point_count":4,"point_count_abbreviated":4},"geometry":{"type":"Point","coordinates":[-118.42041179537773,34.011590771827116]}},{"type":"Feature","id":118152,"properties":{"cluster":true,"cluster_id":118152,"point_count":5,"point_count_abbreviated":5},"geometry":{"type":"Point","coordinates":[-118.3909925222397,34.004554026670846]}},{"type":"Feature","geometry":{"type":"Point","coordinates":[-118.407317,33.993002]},"properties":{"listingKey":"20251104003922916832000000","listingId":"BB-25252416","listPrice":2299,"city":"Culver City","baths":1,"slug":"20251104003922916832000000","mlsSource":"CRMLS","propertyType":"B","propertySubType":"Apartment","livingArea":800,"associationFee":0,"unparsedAddress":"11525 Bradson Place, 4, Culver City, CA 90230"}},{"type":"Feature","geometry":{"type":"Point","coordinates":[-118.395263,34.010986]},"properties":{"listingKey":"20250926085957006522000000","listingId":"SB-25225567","listPrice":2795000,"city":"Culver City","baths":2,"slug":"20250926085957006522000000","mlsSource":"CRMLS","propertyType":"A","propertySubType":"Single Family Residence","livingArea":1928,"associationFee":0,"unparsedAddress":"4360 Le Bourget, Culver City, CA 90232"}},{"type":"Feature","id":147047,"properties":{"cluster":true,"cluster_id":147047,"point_count":2,"point_count_abbreviated":2},"geometry":{"type":"Point","coordinates":[-118.41235309839249,33.987637483458954]}},{"type":"Feature","geometry":{"type":"Point","coordinates":[-118.398903,33.990911]},"properties":{"listingKey":"20250924041304111103000000","listingId":"SB-25223952","listPrice":1875000,"city":"Culver City","baths":3.5,"slug":"20250924041304111103000000","mlsSource":"CRMLS","propertyType":"A","propertySubType":"Single Family Residence","livingArea":1950,"associationFee":0,"unparsedAddress":"11462 Patom Drive, Culver City, CA 90230"}},{"type":"Feature","id":121319,"properties":{"cluster":true,"cluster_id":121319,"point_count":7,"point_count_abbreviated":7},"geometry":{"type":"Point","coordinates":[-118.41856930937085,33.998438964205945]}},{"type":"Feature","id":698089,"properties":{"cluster":true,"cluster_id":698089,"point_count":2,"point_count_abbreviated":2},"geometry":{"type":"Point","coordinates":[-118.38999152183533,34.008931605280324]}},{"type":"Feature","geometry":{"type":"Point","coordinates":[-118.420248,33.98892]},"properties":{"listingKey":"20251111205400042442000000","listingId":"CV-25254583","listPrice":1050000,"city":"Marina del Rey","baths":0,"slug":"20251111205400042442000000","mlsSource":"CRMLS","propertyType":"C","propertySubType":"Single Family Residence","livingArea":950,"unparsedAddress":"12441 West Verdi, Marina del Rey, CA 90066"}},{"type":"Feature","geometry":{"type":"Point","coordinates":[-118.425405,34.014281]},"properties":{"listingKey":"20251115040130955509000000","listingId":"OC-25261024","listPrice":2380000,"city":"Los Angeles","baths":3,"slug":"20251115040130955509000000","mlsSource":"CRMLS","propertyType":"A","propertySubType":"Single Family Residence","livingArea":2368,"associationFee":0,"unparsedAddress":"3552 Butler, Los Angeles, CA 90066"}},{"type":"Feature","id":129607,"properties":{"cluster":true,"cluster_id":129607,"point_count":5,"point_count_abbreviated":5},"geometry":{"type":"Point","coordinates":[-118.42427659034729,34.00283566311688]}},{"type":"Feature","geometry":{"type":"Point","coordinates":[-118.432337,33.985608]},"properties":{"listingKey":"20250624223345557541000000","listingId":"SB-25141579","listPrice":5950,"city":"Marina del Rey","baths":3,"slug":"20250624223345557541000000","mlsSource":"CRMLS","propertyType":"B","propertySubType":"Townhouse","livingArea":1646,"unparsedAddress":"4640 Glencoe Avenue, 7, Marina del Rey, CA 90292"}},{"type":"Feature","geometry":{"type":"Point","coordinates":[-118.421071,34.005173]},"properties":{"listingKey":"20251021211828676085000000","listingId":"PW-25242547","listPrice":8250,"city":"Los Angeles","baths":2,"slug":"20251021211828676085000000","mlsSource":"CRMLS","propertyType":"B","propertySubType":"Single Family Residence","livingArea":1161,"associationFee":0,"unparsedAddress":"3989 Coolidge, Los Angeles, CA 90066"}}]