[{"type":"Feature","geometry":{"type":"Point","coordinates":[-118.353118,34.093737]},"properties":{"listingKey":"20251113215557871301000000","listingId":"DW-25260004","listPrice":820000,"city":"West Hollywood","baths":2,"slug":"20251113215557871301000000","mlsSource":"CRMLS","propertyType":"A","propertySubType":"Condominium","livingArea":1645,"associationFee":500,"unparsedAddress":"7505 Hampton Avenue, 4, West Hollywood, CA 90046"}},{"type":"Feature","id":633801,"properties":{"cluster":true,"cluster_id":633801,"point_count":2,"point_count_abbreviated":2},"geometry":{"type":"Point","coordinates":[-118.34754556417465,34.10336539472769]}},{"type":"Feature","geometry":{"type":"Point","coordinates":[-118.350524,34.102952]},"properties":{"listingKey":"20250805113302430165000000","listingId":"PW-25175694","listPrice":444000,"city":"Los Angeles","baths":1,"slug":"20250805113302430165000000","mlsSource":"CRMLS","propertyType":"A","propertySubType":"Condominium","livingArea":733,"associationFee":693,"unparsedAddress":"1745 Camino Palmero Street, 440, Los Angeles, CA 90046"}},{"type":"Feature","id":193929,"properties":{"cluster":true,"cluster_id":193929,"point_count":2,"point_count_abbreviated":2},"geometry":{"type":"Point","coordinates":[-118.36379706859589,34.092100024260674]}},{"type":"Feature","geometry":{"type":"Point","coordinates":[-118.366491,34.095791]},"properties":{"listingKey":"20251001030803160896000000","listingId":"OC-25228082","listPrice":948000,"city":"West Hollywood","baths":2,"slug":"20251001030803160896000000","mlsSource":"CRMLS","propertyType":"A","propertySubType":"Condominium","livingArea":1202,"associationFee":618,"unparsedAddress":"1351 North Crescent Heights Boulevard, 313, West Hollywood, CA 90046"}},{"type":"Feature","geometry":{"type":"Point","coordinates":[-118.36389,34.09926]},"properties":{"listingKey":"20251119201312683012000000","listingId":"WS-25262410","listPrice":968000,"city":"Los Angeles","baths":2,"slug":"20251119201312683012000000","mlsSource":"CRMLS","propertyType":"A","propertySubType":"Condominium","livingArea":990,"associationFee":675,"unparsedAddress":"1550 North Laurel Avenue North, 203, Los Angeles, CA 90046"}},{"type":"Feature","id":207913,"properties":{"cluster":true,"cluster_id":207913,"point_count":2,"point_count_abbreviated":2},"geometry":{"type":"Point","coordinates":[-118.36259543895721,34.09607150501324]}},{"type":"Feature","geometry":{"type":"Point","coordinates":[-118.360697,34.094607]},"properties":{"listingKey":"20250829182912004550000000","listingId":"IV-25194742","listPrice":2050000,"city":"West Hollywood","baths":3,"slug":"20250829182912004550000000","mlsSource":"CRMLS","propertyType":"A","propertySubType":"Single Family Residence","livingArea":2109,"associationFee":0,"unparsedAddress":"1301 North Orange Grove Avenue, West Hollywood, CA 90046"}}]