[{"type":"Feature","id":175945,"properties":{"cluster":true,"cluster_id":175945,"point_count":2,"point_count_abbreviated":2},"geometry":{"type":"Point","coordinates":[-118.35232257843018,34.047023550723054]}},{"type":"Feature","id":146440,"properties":{"cluster":true,"cluster_id":146440,"point_count":5,"point_count_abbreviated":5},"geometry":{"type":"Point","coordinates":[-118.34995579719543,34.0437414168576]}},{"type":"Feature","id":228552,"properties":{"cluster":true,"cluster_id":228552,"point_count":2,"point_count_abbreviated":2},"geometry":{"type":"Point","coordinates":[-118.35313528776169,34.043209791671714]}},{"type":"Feature","geometry":{"type":"Point","coordinates":[-118.360683,34.043357]},"properties":{"listingKey":"20250801142429803676000000","listingId":"OC-25172352","listPrice":1190000,"city":"Los Angeles","baths":0,"slug":"20250801142429803676000000","mlsSource":"CRMLS","propertyType":"C","propertySubType":"Commercial/Residential","livingArea":2400,"unparsedAddress":"5618 Venice Boulevard, Los Angeles, CA 90019"}},{"type":"Feature","geometry":{"type":"Point","coordinates":[-118.366009,34.037982]},"properties":{"listingKey":"20251031233631482605000000","listingId":"BB-25251577","listPrice":3595000,"city":"Los Angeles","baths":0,"slug":"20251031233631482605000000","mlsSource":"CRMLS","propertyType":"C","propertySubType":"Quadruplex","livingArea":8202,"unparsedAddress":"2202 Thurman Avenue, Los Angeles, CA 90016"}},{"type":"Feature","geometry":{"type":"Point","coordinates":[-118.35813,34.038057]},"properties":{"listingKey":"20251118191443249342000000","listingId":"DW-25261271","listPrice":895000,"city":"Los Angeles","baths":0,"slug":"20251118191443249342000000","mlsSource":"CRMLS","propertyType":"C","propertySubType":"Duplex","livingArea":1398,"unparsedAddress":"2112 South Burnside Avenue, Los Angeles, CA 90016"}},{"type":"Feature","id":265513,"properties":{"cluster":true,"cluster_id":265513,"point_count":2,"point_count_abbreviated":2},"geometry":{"type":"Point","coordinates":[-118.35627615451813,34.03575513103543]}},{"type":"Feature","id":230856,"properties":{"cluster":true,"cluster_id":230856,"point_count":3,"point_count_abbreviated":3},"geometry":{"type":"Point","coordinates":[-118.36169958114624,34.035984811339645]}},{"type":"Feature","id":241128,"properties":{"cluster":true,"cluster_id":241128,"point_count":2,"point_count_abbreviated":2},"geometry":{"type":"Point","coordinates":[-118.3532264828682,34.039146927276036]}},{"type":"Feature","id":171017,"properties":{"cluster":true,"cluster_id":171017,"point_count":2,"point_count_abbreviated":2},"geometry":{"type":"Point","coordinates":[-118.3502009510994,34.04025378817785]}},{"type":"Feature","id":263240,"properties":{"cluster":true,"cluster_id":263240,"point_count":2,"point_count_abbreviated":2},"geometry":{"type":"Point","coordinates":[-118.3468347787857,34.03662198570218]}},{"type":"Feature","geometry":{"type":"Point","coordinates":[-118.358328,34.049943]},"properties":{"listingKey":"20251106195620328451000000","listingId":"PW-25255308","listPrice":2395,"city":"Los Angeles","baths":1,"slug":"20251106195620328451000000","mlsSource":"CRMLS","propertyType":"B","propertySubType":"Quadruplex","livingArea":997,"associationFee":0,"unparsedAddress":"1365 Masselin Avenue, Los Angeles, CA 90019"}},{"type":"Feature","geometry":{"type":"Point","coordinates":[-118.354258,34.049967]},"properties":{"listingKey":"20251004022357859060000000","listingId":"OC-25232390","listPrice":1749000,"city":"Los Angeles","baths":0,"slug":"20251004022357859060000000","mlsSource":"CRMLS","propertyType":"C","propertySubType":"Triplex","livingArea":3522,"unparsedAddress":"1327 South Burnside, Los Angeles, CA 90019"}},{"type":"Feature","geometry":{"type":"Point","coordinates":[-118.346928,34.051839]},"properties":{"listingKey":"20250924041459303557000000","listingId":"SB-25216120","listPrice":2500000,"city":"Los Angeles","baths":4,"slug":"20250924041459303557000000","mlsSource":"CRMLS","propertyType":"A","propertySubType":"Duplex","livingArea":3280,"associationFee":0,"unparsedAddress":"1247 South Sycamore Avenue, Los Angeles, CA 90019"}},{"type":"Feature","geometry":{"type":"Point","coordinates":[-118.349172,34.050048]},"properties":{"listingKey":"20251105023738311614000000","listingId":"P1-24831","listPrice":4195,"city":"Los Angeles","baths":1,"slug":"20251105023738311614000000","mlsSource":"CRMLS","propertyType":"B","propertySubType":"Duplex","livingArea":1479,"unparsedAddress":"5166 Packard Street, Los Angeles, CA 90019"}},{"type":"Feature","geometry":{"type":"Point","coordinates":[-118.34691,34.048906]},"properties":{"listingKey":"20250906083120600288000000","listingId":"DW-25200556","listPrice":1650000,"city":"Los Angeles","baths":0,"slug":"20250906083120600288000000","mlsSource":"CRMLS","propertyType":"C","propertySubType":"Duplex","livingArea":3079,"associationFee":0,"unparsedAddress":"1373 South Orange Drive, Los Angeles, CA 90019"}},{"type":"Feature","id":928105,"properties":{"cluster":true,"cluster_id":928105,"point_count":2,"point_count_abbreviated":2},"geometry":{"type":"Point","coordinates":[-118.3655995130539,34.052303857012916]}},{"type":"Feature","geometry":{"type":"Point","coordinates":[-118.365802,34.047683]},"properties":{"listingKey":"20251111214120325311000000","listingId":"BB-25258396","listPrice":4458,"city":"Los Angeles","baths":3,"slug":"20251111214120325311000000","mlsSource":"CRMLS","propertyType":"B","propertySubType":"Townhouse","livingArea":1540,"associationFee":0,"unparsedAddress":"1559 South Ogden Drive, Los Angeles, CA 90019"}}]