[{"type":"Feature","geometry":{"type":"Point","coordinates":[-118.3575,33.934375]},"properties":{"listingKey":"20250912150317617744000000","listingId":"SB-25206804","listPrice":1475,"city":"Inglewood","baths":1,"slug":"20250912150317617744000000","mlsSource":"CRMLS","propertyType":"B","propertySubType":"Apartment","livingArea":250,"associationFee":0,"unparsedAddress":"4616 West 111th St., Inglewood, CA 90304"}},{"type":"Feature","geometry":{"type":"Point","coordinates":[-118.354071,33.935103]},"properties":{"listingKey":"20251029215345002852000000","listingId":"OC-25249280","listPrice":1999500,"city":"Lennox","baths":0,"slug":"20251029215345002852000000","mlsSource":"CRMLS","propertyType":"C","propertySubType":"Quadruplex","livingArea":4946,"associationFee":0,"unparsedAddress":"11031 South Burin Avenue South, Lennox, CA 90304"}},{"type":"Feature","geometry":{"type":"Point","coordinates":[-118.350654,33.931632]},"properties":{"listingKey":"20251030031047328586000000","listingId":"DW-25250184","listPrice":1300000,"city":"Inglewood","baths":1,"slug":"20251030031047328586000000","mlsSource":"CRMLS","propertyType":"A","propertySubType":"Commercial/Residential","livingArea":1336,"associationFee":0,"unparsedAddress":"11319 Larch Ave, Inglewood, CA 90304"}},{"type":"Feature","id":986729,"properties":{"cluster":true,"cluster_id":986729,"point_count":2,"point_count_abbreviated":2},"geometry":{"type":"Point","coordinates":[-118.35058987140656,33.929260332234136]}},{"type":"Feature","id":512937,"properties":{"cluster":true,"cluster_id":512937,"point_count":3,"point_count_abbreviated":3},"geometry":{"type":"Point","coordinates":[-118.34694385528566,33.93463994287444]}},{"type":"Feature","geometry":{"type":"Point","coordinates":[-118.357288,33.940615]},"properties":{"listingKey":"20251105005035874982000000","listingId":"DW-25253977","listPrice":4900,"city":"Inglewood","baths":3.75,"slug":"20251105005035874982000000","mlsSource":"CRMLS","propertyType":"B","propertySubType":"Duplex","livingArea":3850,"associationFee":0,"unparsedAddress":"10517 Firmona, Inglewood, CA 90304"}},{"type":"Feature","geometry":{"type":"Point","coordinates":[-118.348555,33.94195]},"properties":{"listingKey":"20250723185327446484000000","listingId":"SB-25165421","listPrice":739000,"city":"Inglewood","baths":0,"slug":"20250723185327446484000000","mlsSource":"CRMLS","propertyType":"C","propertySubType":"Duplex","livingArea":1573,"associationFee":0,"unparsedAddress":"4203 West 104th Street, Inglewood, CA 90304"}},{"type":"Feature","geometry":{"type":"Point","coordinates":[-118.36056,33.936903]},"properties":{"listingKey":"20250809121235113854000000","listingId":"SB-25179117","listPrice":2499888,"city":"Inglewood","baths":0,"slug":"20250809121235113854000000","mlsSource":"CRMLS","propertyType":"C","propertySubType":"Triplex","livingArea":6020,"unparsedAddress":"10905 Dalerose Avenue, Inglewood, CA 90304"}},{"type":"Feature","geometry":{"type":"Point","coordinates":[-118.361599,33.929349]},"properties":{"listingKey":"20251027185858808288000000","listingId":"PW-25244212","listPrice":980000,"city":"Hawthorne","baths":0,"slug":"20251027185858808288000000","mlsSource":"CRMLS","propertyType":"C","propertySubType":"Triplex","livingArea":1800,"unparsedAddress":"11521 Inglewood Avenue, Hawthorne, CA 90250"}},{"type":"Feature","geometry":{"type":"Point","coordinates":[-118.359393,33.927567]},"properties":{"listingKey":"20250906173533619396000000","listingId":"SB-25191395","listPrice":799000,"city":"Hawthorne","baths":2,"slug":"20250906173533619396000000","mlsSource":"CRMLS","propertyType":"A","propertySubType":"Single Family Residence","livingArea":1236,"associationFee":0,"unparsedAddress":"4703 West 118th Street, Hawthorne, CA 90250"}}]