[{"type":"Feature","geometry":{"type":"Point","coordinates":[-118.356147,33.842118]},"properties":{"listingKey":"20250930045601776193000000","listingId":"SB-25224333","listPrice":1400000,"city":"Torrance","baths":2,"slug":"20250930045601776193000000","mlsSource":"CRMLS","propertyType":"A","propertySubType":"Single Family Residence","livingArea":1193,"associationFee":0,"unparsedAddress":"20706 Mansel Avenue, Torrance, CA 90503"}},{"type":"Feature","id":905449,"properties":{"cluster":true,"cluster_id":905449,"point_count":2,"point_count_abbreviated":2},"geometry":{"type":"Point","coordinates":[-118.35722029209137,33.84453789582743]}},{"type":"Feature","geometry":{"type":"Point","coordinates":[-118.360678,33.844496]},"properties":{"listingKey":"20251119182757365455000000","listingId":"OC-25263010","listPrice":4995,"city":"Torrance","baths":3,"slug":"20251119182757365455000000","mlsSource":"CRMLS","propertyType":"B","propertySubType":"Townhouse","livingArea":2496,"unparsedAddress":"4444 Spencer Street, Torrance, CA 90503"}},{"type":"Feature","id":126152,"properties":{"cluster":true,"cluster_id":126152,"point_count":5,"point_count_abbreviated":5},"geometry":{"type":"Point","coordinates":[-118.34952664375305,33.83968758033453]}},{"type":"Feature","id":455849,"properties":{"cluster":true,"cluster_id":455849,"point_count":2,"point_count_abbreviated":2},"geometry":{"type":"Point","coordinates":[-118.35600793361664,33.83403580907169]}},{"type":"Feature","id":147913,"properties":{"cluster":true,"cluster_id":147913,"point_count":12,"point_count_abbreviated":12},"geometry":{"type":"Point","coordinates":[-118.35129842162134,33.84239480856304]}},{"type":"Feature","id":165801,"properties":{"cluster":true,"cluster_id":165801,"point_count":2,"point_count_abbreviated":2},"geometry":{"type":"Point","coordinates":[-118.36537152528763,33.839253596009755]}},{"type":"Feature","geometry":{"type":"Point","coordinates":[-118.364666,33.848344]},"properties":{"listingKey":"20251017080349782556000000","listingId":"IN-25231344","listPrice":3650,"city":"Torrance","baths":2.25,"slug":"20251017080349782556000000","mlsSource":"CRMLS","propertyType":"B","propertySubType":"Apartment","livingArea":1560,"associationFee":0,"unparsedAddress":"4804 Del Amo Blvd, 1, Torrance, CA 90503"}},{"type":"Feature","geometry":{"type":"Point","coordinates":[-118.362954,33.84624]},"properties":{"listingKey":"20251022033203475858000000","listingId":"IN-25227614","listPrice":1500,"city":"Torrance","baths":1,"slug":"20251022033203475858000000","mlsSource":"CRMLS","propertyType":"B","propertySubType":"Apartment","livingArea":450,"associationFee":0,"unparsedAddress":"20415 Anza Avenue, Torrance, CA 90503"}}]