[{"type":"Feature","id":371048,"properties":{"cluster":true,"cluster_id":371048,"point_count":2,"point_count_abbreviated":2},"geometry":{"type":"Point","coordinates":[-117.19337493181229,34.483544172627816]}},{"type":"Feature","geometry":{"type":"Point","coordinates":[-117.185224,34.484282]},"properties":{"listingKey":"20251004005412357370000000","listingId":"IV-25232242","listPrice":410000,"city":"Apple Valley","baths":2,"slug":"20251004005412357370000000","mlsSource":"CRMLS","propertyType":"A","propertySubType":"Single Family Residence","livingArea":1376,"associationFee":0,"unparsedAddress":"21928 Maumee Road, Apple Valley, CA 92308"}},{"type":"Feature","geometry":{"type":"Point","coordinates":[-117.169135,34.483203]},"properties":{"listingKey":"20250923042113176736000000","listingId":"IG-25222842","listPrice":459000,"city":"Apple Valley","baths":2,"slug":"20250923042113176736000000","mlsSource":"CRMLS","propertyType":"A","propertySubType":"Single Family Residence","livingArea":1807,"associationFee":0,"unparsedAddress":"22665 Little Beaver, Apple Valley, CA 92308"}},{"type":"Feature","id":283239,"properties":{"cluster":true,"cluster_id":283239,"point_count":2,"point_count_abbreviated":2},"geometry":{"type":"Point","coordinates":[-117.18385577201843,34.47749489004798]}},{"type":"Feature","geometry":{"type":"Point","coordinates":[-117.190594,34.479607]},"properties":{"listingKey":"20251104142729011790000000","listingId":"219138164","listPrice":325000,"city":"Apple Valley","baths":2,"slug":"20251104142729011790000000","mlsSource":"GPS","propertyType":"A","propertySubType":"Single Family Residence","livingArea":1612,"associationFee":0,"unparsedAddress":"12546 Navajo Road, Apple Valley, CA 92308"}},{"type":"Feature","id":309063,"properties":{"cluster":true,"cluster_id":309063,"point_count":2,"point_count_abbreviated":2},"geometry":{"type":"Point","coordinates":[-117.20111042261124,34.47724282708829]}},{"type":"Feature","geometry":{"type":"Point","coordinates":[-117.199274,34.461777]},"properties":{"listingKey":"20251021203845260587000000","listingId":"IV-25243697","listPrice":2150,"city":"Apple Valley","baths":2,"slug":"20251021203845260587000000","mlsSource":"CRMLS","propertyType":"B","propertySubType":"Single Family Residence","livingArea":1766,"associationFee":0,"unparsedAddress":"11555 Mohawk, Apple Valley, CA 92308"}},{"type":"Feature","geometry":{"type":"Point","coordinates":[-117.192496,34.467196]},"properties":{"listingKey":"20250831232501335036000000","listingId":"WS-25196054","listPrice":2700,"city":"Apple Valley","baths":2,"slug":"20250831232501335036000000","mlsSource":"CRMLS","propertyType":"B","propertySubType":"Single Family Residence","livingArea":2005,"associationFee":0,"unparsedAddress":"11875 Morning Star Road, Apple Valley, CA 92308"}},{"type":"Feature","geometry":{"type":"Point","coordinates":[-117.198108,34.470428]},"properties":{"listingKey":"20251016183402211102000000","listingId":"MB-25241012","listPrice":575000,"city":"Apple Valley","baths":0,"slug":"20251016183402211102000000","mlsSource":"CRMLS","propertyType":"C","propertySubType":"Triplex","livingArea":2184,"unparsedAddress":"21336 LAGUNA Road, Apple Valley, CA 92308"}}]