[{"type":"Feature","geometry":{"type":"Point","coordinates":[-117.162278,33.272914]},"properties":{"listingKey":"20251105231415821154000000","listingId":"8N-2510591","listPrice":1155000,"city":"Bonsall","baths":2,"slug":"20251105231415821154000000","mlsSource":"CRMLS","propertyType":"A","propertySubType":"Single Family Residence","livingArea":2305,"associationFee":0,"unparsedAddress":"31220 Aquaduct Rd., Bonsall, CA 92003"}},{"type":"Feature","geometry":{"type":"Point","coordinates":[-117.187117,33.27442]},"properties":{"listingKey":"20250828222310751077000000","listingId":"8N-2508448","listPrice":2250000,"city":"Bonsall","baths":4.5,"slug":"20250828222310751077000000","mlsSource":"CRMLS","propertyType":"A","propertySubType":"Single Family Residence","livingArea":4053,"associationFee":125,"unparsedAddress":"30330 Via Maria Elena, Bonsall, CA 92003"}},{"type":"Feature","geometry":{"type":"Point","coordinates":[-117.195033,33.270529]},"properties":{"listingKey":"20250718200505531385000000","listingId":"8N-2507093","listPrice":2899900,"city":"Bonsall","baths":6,"slug":"20250718200505531385000000","mlsSource":"CRMLS","propertyType":"A","propertySubType":"Single Family Residence","livingArea":5817,"associationFee":0,"unparsedAddress":"30663 Via Maria Elena, Bonsall, CA 92003"}},{"type":"Feature","geometry":{"type":"Point","coordinates":[-117.1957,33.275046]},"properties":{"listingKey":"20250725082915288569000000","listingId":"8N-2507304","listPrice":2249000,"city":"Bonsall","baths":5,"slug":"20250725082915288569000000","mlsSource":"CRMLS","propertyType":"A","propertySubType":"Single Family Residence","livingArea":4350,"associationFee":50,"unparsedAddress":"30002 Via Maria Elena, Bonsall, CA 92003"}},{"type":"Feature","id":712296,"properties":{"cluster":true,"cluster_id":712296,"point_count":2,"point_count_abbreviated":2},"geometry":{"type":"Point","coordinates":[-117.19836384057999,33.25409373515215]}},{"type":"Feature","geometry":{"type":"Point","coordinates":[-117.185026,33.254314]},"properties":{"listingKey":"20251030215909856021000000","listingId":"8N-2510408","listPrice":1499000,"city":"Vista","baths":3.5,"slug":"20251030215909856021000000","mlsSource":"CRMLS","propertyType":"A","propertySubType":"Single Family Residence","livingArea":3644,"associationFee":0,"unparsedAddress":"3068 Southwind Lane, Vista, CA 92084"}}]