[{"type":"Feature","geometry":{"type":"Point","coordinates":[-117.873156,34.005253]},"properties":{"listingKey":"20250905055727266214000000","listingId":"TR-25199814","listPrice":990000,"city":"Walnut","baths":2.5,"slug":"20250905055727266214000000","mlsSource":"CRMLS","propertyType":"A","propertySubType":"Single Family Residence","livingArea":1736,"associationFee":0,"unparsedAddress":"578 Vista Rambla, Walnut, CA 91789"}},{"type":"Feature","geometry":{"type":"Point","coordinates":[-117.878578,34.004457]},"properties":{"listingKey":"20250801065405122359000000","listingId":"IG-25171070","listPrice":785000,"city":"West Covina","baths":2,"slug":"20250801065405122359000000","mlsSource":"CRMLS","propertyType":"A","propertySubType":"Single Family Residence","livingArea":1470,"associationFee":0,"unparsedAddress":"3030 East Valley View Avenue, West Covina, CA 91792"}},{"type":"Feature","geometry":{"type":"Point","coordinates":[-117.867827,34.005158]},"properties":{"listingKey":"20251105033003937111000000","listingId":"IV-25254086","listPrice":3000,"city":"Walnut","baths":1,"slug":"20251105033003937111000000","mlsSource":"CRMLS","propertyType":"B","propertySubType":"Condominium","livingArea":870,"unparsedAddress":"19891 Valley Boulevard, Walnut, CA 91789"}},{"type":"Feature","geometry":{"type":"Point","coordinates":[-117.869636,34.014773]},"properties":{"listingKey":"20251107013532022868000000","listingId":"AR-25255751","listPrice":3680,"city":"West Covina","baths":2,"slug":"20251107013532022868000000","mlsSource":"CRMLS","propertyType":"B","propertySubType":"Single Family Residence","livingArea":1452,"associationFee":0,"unparsedAddress":"3438 South Hedgerow, West Covina, CA 91792"}},{"type":"Feature","geometry":{"type":"Point","coordinates":[-117.876259,34.015323]},"properties":{"listingKey":"20250906042846106027000000","listingId":"CV-25200548","listPrice":899999,"city":"Walnut","baths":2,"slug":"20250906042846106027000000","mlsSource":"CRMLS","propertyType":"A","propertySubType":"Single Family Residence","livingArea":1600,"associationFee":0,"unparsedAddress":"244 Calle Luna, Walnut, CA 91789"}},{"type":"Feature","geometry":{"type":"Point","coordinates":[-117.866858,34.009177]},"properties":{"listingKey":"20251002171721900759000000","listingId":"WS-25223727","listPrice":2100000,"city":"Walnut","baths":6.5,"slug":"20251002171721900759000000","mlsSource":"CRMLS","propertyType":"A","propertySubType":"Single Family Residence","livingArea":3650,"associationFee":0,"unparsedAddress":"451 Avenida Esplendor, Walnut, CA 91789"}},{"type":"Feature","geometry":{"type":"Point","coordinates":[-117.880985,34.012728]},"properties":{"listingKey":"20250912132541028143000000","listingId":"AR-25214179","listPrice":3200,"city":"West Covina","baths":2.5,"slug":"20250912132541028143000000","mlsSource":"CRMLS","propertyType":"B","propertySubType":"Townhouse","livingArea":1545,"associationFee":525,"unparsedAddress":"2918 Topaz Lane, West Covina, CA 91792"}},{"type":"Feature","geometry":{"type":"Point","coordinates":[-117.866237,34.006997]},"properties":{"listingKey":"20251007005314141434000000","listingId":"WS-25232975","listPrice":1987020,"city":"Walnut","baths":4.5,"slug":"20251007005314141434000000","mlsSource":"CRMLS","propertyType":"A","propertySubType":"Single Family Residence","livingArea":2858,"associationFee":0,"unparsedAddress":"681 Castlehill Drive, Walnut, CA 91789"}},{"type":"Feature","id":195432,"properties":{"cluster":true,"cluster_id":195432,"point_count":3,"point_count_abbreviated":3},"geometry":{"type":"Point","coordinates":[-117.87159562110901,34.007671658944815]}},{"type":"Feature","geometry":{"type":"Point","coordinates":[-117.869416,34.011857]},"properties":{"listingKey":"20251001030741674713000000","listingId":"WS-25228269","listPrice":1299000,"city":"West Covina","baths":4,"slug":"20251001030741674713000000","mlsSource":"CRMLS","propertyType":"A","propertySubType":"Single Family Residence","livingArea":2582,"associationFee":0,"unparsedAddress":"3449 East Calle Baja Drive, West Covina, CA 91792"}},{"type":"Feature","geometry":{"type":"Point","coordinates":[-117.880933,34.010349]},"properties":{"listingKey":"20251109045350503013000000","listingId":"TR-25256996","listPrice":2500,"city":"West Covina","baths":2,"slug":"20251109045350503013000000","mlsSource":"CRMLS","propertyType":"B","propertySubType":"Townhouse","livingArea":1053,"associationFee":265,"unparsedAddress":"19214 La Puente Road, West Covina, CA 91792"}}]