[{"type":"Feature","geometry":{"type":"Point","coordinates":[-117.873274,33.984535]},"properties":{"listingKey":"20251116044017196242000000","listingId":"WS-25261166","listPrice":998998,"city":"Rowland Heights","baths":2,"slug":"20251116044017196242000000","mlsSource":"CRMLS","propertyType":"A","propertySubType":"Single Family Residence","livingArea":1304,"associationFee":0,"unparsedAddress":"1761 Pepperdale Drive, Rowland Heights, CA 91748"}},{"type":"Feature","geometry":{"type":"Point","coordinates":[-117.876271,33.986519]},"properties":{"listingKey":"20250809150331859784000000","listingId":"IV-25177221","listPrice":1088800,"city":"Rowland Heights","baths":2.5,"slug":"20250809150331859784000000","mlsSource":"CRMLS","propertyType":"A","propertySubType":"Single Family Residence","livingArea":2100,"associationFee":0,"unparsedAddress":"1703 Hollandale Avenue, Rowland Heights, CA 91748"}},{"type":"Feature","geometry":{"type":"Point","coordinates":[-117.875402,33.980865]},"properties":{"listingKey":"20251011045920639358000000","listingId":"TR-25237600","listPrice":3900,"city":"Rowland Heights","baths":2,"slug":"20251011045920639358000000","mlsSource":"CRMLS","propertyType":"B","propertySubType":"Single Family Residence","livingArea":1507,"associationFee":0,"unparsedAddress":"19555 Quicksilver Lane, Rowland Heights, CA 91748"}},{"type":"Feature","geometry":{"type":"Point","coordinates":[-117.881042,33.985733]},"properties":{"listingKey":"20250928064223330104000000","listingId":"TR-25225738","listPrice":3995,"city":"Rowland Heights","baths":2,"slug":"20250928064223330104000000","mlsSource":"CRMLS","propertyType":"B","propertySubType":"Single Family Residence","livingArea":1480,"associationFee":0,"unparsedAddress":"19352 Andrada Drive, Rowland Heights, CA 91748"}},{"type":"Feature","geometry":{"type":"Point","coordinates":[-117.864213,33.994714]},"properties":{"listingKey":"20251022235500785553000000","listingId":"AR-25240491","listPrice":928000,"city":"Walnut","baths":2,"slug":"20251022235500785553000000","mlsSource":"CRMLS","propertyType":"A","propertySubType":"Single Family Residence","livingArea":1432,"associationFee":0,"unparsedAddress":"1060 Tierra Luna, Walnut, CA 91789"}},{"type":"Feature","geometry":{"type":"Point","coordinates":[-117.862154,33.984173]},"properties":{"listingKey":"20251114214749971931000000","listingId":"PW-25260676","listPrice":1690000,"city":"Walnut","baths":3.5,"slug":"20251114214749971931000000","mlsSource":"CRMLS","propertyType":"A","propertySubType":"Single Family Residence","livingArea":3041,"associationFee":0,"unparsedAddress":"20232 Evening Breeze, Walnut, CA 91789"}}]