[{"type":"Feature","geometry":{"type":"Point","coordinates":[-117.880592,33.763378]},"properties":{"listingKey":"20251007012449264342000000","listingId":"PW-25233599","listPrice":1350000,"city":"Santa Ana","baths":2,"slug":"20251007012449264342000000","mlsSource":"CRMLS","propertyType":"A","propertySubType":"Single Family Residence","livingArea":1891,"associationFee":0,"unparsedAddress":"1116 West 21st Street, Santa Ana, CA 92706"}},{"type":"Feature","geometry":{"type":"Point","coordinates":[-117.870504,33.761146]},"properties":{"listingKey":"20251107224712084882000000","listingId":"OC-25254127","listPrice":4500,"city":"Santa Ana","baths":1,"slug":"20251107224712084882000000","mlsSource":"CRMLS","propertyType":"B","propertySubType":"Single Family Residence","livingArea":1022,"associationFee":0,"unparsedAddress":"323 W 18th St, Santa Ana, CA 92706"}},{"type":"Feature","id":153256,"properties":{"cluster":true,"cluster_id":153256,"point_count":2,"point_count_abbreviated":2},"geometry":{"type":"Point","coordinates":[-117.86662817001343,33.76241615299294]}},{"type":"Feature","geometry":{"type":"Point","coordinates":[-117.861736,33.768274]},"properties":{"listingKey":"20250717095528222355000000","listingId":"OC-25159919","listPrice":1550000,"city":"Santa Ana","baths":3,"slug":"20250717095528222355000000","mlsSource":"CRMLS","propertyType":"A","propertySubType":"Single Family Residence","livingArea":2070,"associationFee":0,"unparsedAddress":"2404 North Poinsettia, Santa Ana, CA 92706"}},{"type":"Feature","geometry":{"type":"Point","coordinates":[-117.862361,33.765579]},"properties":{"listingKey":"20251102045700357047000000","listingId":"PW-25246014","listPrice":4800,"city":"Santa Ana","baths":2,"slug":"20251102045700357047000000","mlsSource":"CRMLS","propertyType":"B","propertySubType":"Single Family Residence","livingArea":2022,"associationFee":0,"unparsedAddress":"501 East Buffalo Avenue, Santa Ana, CA 92706"}},{"type":"Feature","id":770952,"properties":{"cluster":true,"cluster_id":770952,"point_count":2,"point_count_abbreviated":2},"geometry":{"type":"Point","coordinates":[-117.87454068660736,33.77352455724399]}},{"type":"Feature","geometry":{"type":"Point","coordinates":[-117.863966,33.773834]},"properties":{"listingKey":"20251017151519566140000000","listingId":"OC-25240064","listPrice":889000,"city":"Santa Ana","baths":2.5,"slug":"20251017151519566140000000","mlsSource":"CRMLS","propertyType":"A","propertySubType":"Townhouse","livingArea":2200,"associationFee":476,"unparsedAddress":"320 East Jeanette Lane, Santa Ana, CA 92705"}},{"type":"Feature","geometry":{"type":"Point","coordinates":[-117.875301,33.775931]},"properties":{"listingKey":"20251013175145348731000000","listingId":"PW-25238429","listPrice":1700000,"city":"Santa Ana","baths":3.5,"slug":"20251013175145348731000000","mlsSource":"CRMLS","propertyType":"A","propertySubType":"Single Family Residence","livingArea":3464,"associationFee":206,"unparsedAddress":"2850 North Stone Pine, Santa Ana, CA 92706"}}]