[{"type":"Feature","geometry":{"type":"Point","coordinates":[-117.882116,33.742425]},"properties":{"listingKey":"20251110231316313269000000","listingId":"PW-25257745","listPrice":925000,"city":"Santa Ana","baths":1,"slug":"20251110231316313269000000","mlsSource":"CRMLS","propertyType":"A","propertySubType":"Single Family Residence","livingArea":1026,"associationFee":0,"unparsedAddress":"1130 West Chestnut, Santa Ana, CA 92703"}},{"type":"Feature","id":164200,"properties":{"cluster":true,"cluster_id":164200,"point_count":2,"point_count_abbreviated":2},"geometry":{"type":"Point","coordinates":[-117.87419199943542,33.74260385587681]}},{"type":"Feature","geometry":{"type":"Point","coordinates":[-117.874761,33.733525]},"properties":{"listingKey":"20251108021230977215000000","listingId":"PW-25255502","listPrice":1049900,"city":"Santa Ana","baths":3,"slug":"20251108021230977215000000","mlsSource":"CRMLS","propertyType":"A","propertySubType":"Single Family Residence","livingArea":2248,"associationFee":0,"unparsedAddress":"1128 South Parton, Santa Ana, CA 92707"}},{"type":"Feature","geometry":{"type":"Point","coordinates":[-117.86953,33.728669]},"properties":{"listingKey":"20251022023122181221000000","listingId":"OC-25244242","listPrice":1550000,"city":"Santa Ana","baths":0,"slug":"20251022023122181221000000","mlsSource":"CRMLS","propertyType":"C","propertySubType":"Quadruplex","livingArea":3272,"unparsedAddress":"1405 South Broadway, Santa Ana, CA 92707"}},{"type":"Feature","geometry":{"type":"Point","coordinates":[-117.881094,33.732384]},"properties":{"listingKey":"20251026112826430053000000","listingId":"WS-25247540","listPrice":820000,"city":"Santa Ana","baths":1,"slug":"20251026112826430053000000","mlsSource":"CRMLS","propertyType":"A","propertySubType":"Cabin","livingArea":1000,"associationFee":0,"unparsedAddress":"1206 S SHELTON ST, Santa Ana, CA 92707"}},{"type":"Feature","geometry":{"type":"Point","coordinates":[-117.874716,33.738667]},"properties":{"listingKey":"20251113190028509004000000","listingId":"IV-25259707","listPrice":950000,"city":"Santa Ana","baths":2,"slug":"20251113190028509004000000","mlsSource":"CRMLS","propertyType":"A","propertySubType":"Single Family Residence","livingArea":1276,"associationFee":0,"unparsedAddress":"622 South Parton, Santa Ana, CA 92701"}},{"type":"Feature","id":786088,"properties":{"cluster":true,"cluster_id":786088,"point_count":3,"point_count_abbreviated":3},"geometry":{"type":"Point","coordinates":[-117.87870168685912,33.741417292090006]}},{"type":"Feature","geometry":{"type":"Point","coordinates":[-117.880627,33.736422]},"properties":{"listingKey":"20250822121005499431000000","listingId":"PW-25189508","listPrice":1750,"city":"Santa Ana","baths":1,"slug":"20250822121005499431000000","mlsSource":"CRMLS","propertyType":"B","propertySubType":"Condominium","livingArea":565,"associationFee":0,"unparsedAddress":"825 South Shelton Street, A, Santa Ana, CA 92703"}},{"type":"Feature","geometry":{"type":"Point","coordinates":[-117.862889,33.740176]},"properties":{"listingKey":"20250927043117967420000000","listingId":"PW-25226506","listPrice":1150000,"city":"Santa Ana","baths":2,"slug":"20250927043117967420000000","mlsSource":"CRMLS","propertyType":"A","propertySubType":"Single Family Residence","livingArea":1878,"associationFee":0,"unparsedAddress":"412 East Camile Street, Santa Ana, CA 92701"}},{"type":"Feature","geometry":{"type":"Point","coordinates":[-117.88326,33.734247]},"properties":{"listingKey":"20251107183613551128000000","listingId":"OC-25254015","listPrice":829000,"city":"Santa Ana","baths":2,"slug":"20251107183613551128000000","mlsSource":"CRMLS","propertyType":"A","propertySubType":"Single Family Residence","livingArea":991,"associationFee":0,"unparsedAddress":"1206 West Mcfadden Avenue, Santa Ana, CA 92707"}}]