[{"type":"Feature","id":155113,"properties":{"cluster":true,"cluster_id":155113,"point_count":3,"point_count_abbreviated":3},"geometry":{"type":"Point","coordinates":[-117.0838648080826,34.212730793914474]}},{"type":"Feature","geometry":{"type":"Point","coordinates":[-117.087724,34.211039]},"properties":{"listingKey":"20250628095440644379000000","listingId":"IV-25144348","listPrice":377500,"city":"Running Springs","baths":1.5,"slug":"20250628095440644379000000","mlsSource":"CRMLS","propertyType":"A","propertySubType":"Single Family Residence","livingArea":1048,"associationFee":0,"unparsedAddress":"32801 Encina Dr, Running Springs, CA 92382"}},{"type":"Feature","geometry":{"type":"Point","coordinates":[-117.085372,34.208721]},"properties":{"listingKey":"20250725210240144607000000","listingId":"DW-25166433","listPrice":399990,"city":"Running Springs","baths":3,"slug":"20250725210240144607000000","mlsSource":"CRMLS","propertyType":"A","propertySubType":"Single Family Residence","livingArea":1304,"associationFee":0,"unparsedAddress":"2476 Elko Drive, Running Springs, CA 92382"}},{"type":"Feature","geometry":{"type":"Point","coordinates":[-117.085363,34.212107]},"properties":{"listingKey":"20251009053828455988000000","listingId":"DW-25235905","listPrice":259995,"city":"Arrowbear","baths":1,"slug":"20251009053828455988000000","mlsSource":"CRMLS","propertyType":"A","propertySubType":"Single Family Residence","livingArea":608,"associationFee":0,"unparsedAddress":"32905 Chipmunk Lane, Arrowbear, CA 92382"}},{"type":"Feature","id":376169,"properties":{"cluster":true,"cluster_id":376169,"point_count":3,"point_count_abbreviated":3},"geometry":{"type":"Point","coordinates":[-117.08273291587831,34.20986204389406]}},{"type":"Feature","geometry":{"type":"Point","coordinates":[-117.083819,34.208946]},"properties":{"listingKey":"20251024230204828921000000","listingId":"IG-25246835","listPrice":275000,"city":"Arrowbear","baths":1,"slug":"20251024230204828921000000","mlsSource":"CRMLS","propertyType":"A","propertySubType":"Single Family Residence","livingArea":441,"associationFee":0,"unparsedAddress":"2478 Elko, Arrowbear, CA 92382"}},{"type":"Feature","geometry":{"type":"Point","coordinates":[-117.081949,34.208649]},"properties":{"listingKey":"20251110175207771990000000","listingId":"IG-25257360","listPrice":450000,"city":"Arrowbear","baths":2,"slug":"20251110175207771990000000","mlsSource":"CRMLS","propertyType":"A","propertySubType":"Single Family Residence","livingArea":1426,"associationFee":0,"unparsedAddress":"33070 Hilltop Boulevard, Arrowbear, CA 92382"}},{"type":"Feature","geometry":{"type":"Point","coordinates":[-117.088015,34.212236]},"properties":{"listingKey":"20250703150053843830000000","listingId":"IG-25147566","listPrice":363999,"city":"Running Springs","baths":2.5,"slug":"20250703150053843830000000","mlsSource":"CRMLS","propertyType":"A","propertySubType":"Single Family Residence","livingArea":1224,"associationFee":0,"unparsedAddress":"32784 Richmond Drive, Running Springs, CA 92382"}}]