[{"type":"Feature","geometry":{"type":"Point","coordinates":[-117.089593,33.713801]},"properties":{"listingKey":"20251021222703289102000000","listingId":"SW-25242873","listPrice":515000,"city":"Winchester","baths":2,"slug":"20251021222703289102000000","mlsSource":"CRMLS","propertyType":"A","propertySubType":"Single Family Residence","livingArea":1981,"associationFee":0,"unparsedAddress":"28041 Longfellow, Winchester, CA 92596"}},{"type":"Feature","geometry":{"type":"Point","coordinates":[-117.085959,33.712213]},"properties":{"listingKey":"20250930050406329339000000","listingId":"SW-25223864","listPrice":749990,"city":"Winchester","baths":2,"slug":"20250930050406329339000000","mlsSource":"CRMLS","propertyType":"A","propertySubType":"Manufactured On Land","livingArea":1248,"associationFee":0,"unparsedAddress":"32935 9th Street, Winchester, CA 92596"}},{"type":"Feature","geometry":{"type":"Point","coordinates":[-117.084169,33.70899]},"properties":{"listingKey":"20250717044407401343000000","listingId":"IV-25153709","listPrice":1075000,"city":"Winchester","baths":0,"slug":"20250717044407401343000000","mlsSource":"CRMLS","propertyType":"C","propertySubType":"Quadruplex","livingArea":2272,"unparsedAddress":"33043 Wesley Street, Winchester, CA 92596"}},{"type":"Feature","id":153961,"properties":{"cluster":true,"cluster_id":153961,"point_count":2,"point_count_abbreviated":2},"geometry":{"type":"Point","coordinates":[-117.08533823490143,33.71375589278236]}},{"type":"Feature","id":592905,"properties":{"cluster":true,"cluster_id":592905,"point_count":2,"point_count_abbreviated":2},"geometry":{"type":"Point","coordinates":[-117.08447456359863,33.706964102584806]}},{"type":"Feature","geometry":{"type":"Point","coordinates":[-117.083666,33.71384]},"properties":{"listingKey":"20250625012236048886000000","listingId":"SW-25141207","listPrice":615000,"city":"Winchester","baths":1.75,"slug":"20250625012236048886000000","mlsSource":"CRMLS","propertyType":"A","propertySubType":"Manufactured On Land","livingArea":1540,"associationFee":0,"unparsedAddress":"33075 Grand Avenue, Winchester, CA 92596"}}]