[{"type":"Feature","geometry":{"type":"Point","coordinates":[-117.089616,33.178024]},"properties":{"listingKey":"20251030021930126832000000","listingId":"SW-25250113","listPrice":850000,"city":"Escondido","baths":2,"slug":"20251030021930126832000000","mlsSource":"CRMLS","propertyType":"A","propertySubType":"Single Family Residence","livingArea":1651,"associationFee":0,"unparsedAddress":"3034 North Broadway, Escondido, CA 92026"}},{"type":"Feature","geometry":{"type":"Point","coordinates":[-117.090626,33.181981]},"properties":{"listingKey":"20251105073834992827000000","listingId":"CV-25254188","listPrice":1350000,"city":"Escondido","baths":2.5,"slug":"20251105073834992827000000","mlsSource":"CRMLS","propertyType":"A","propertySubType":"Single Family Residence","livingArea":3252,"associationFee":0,"unparsedAddress":"26161 Wyndemere Court, Escondido, CA 92026"}},{"type":"Feature","geometry":{"type":"Point","coordinates":[-117.086361,33.176828]},"properties":{"listingKey":"20251105215351628552000000","listingId":"8N-2510585","listPrice":775000,"city":"Escondido","baths":1.75,"slug":"20251105215351628552000000","mlsSource":"CRMLS","propertyType":"A","propertySubType":"Single Family Residence","livingArea":1728,"associationFee":0,"unparsedAddress":"3032 Laurashawn Lane, Escondido, CA 92026"}},{"type":"Feature","geometry":{"type":"Point","coordinates":[-117.08576,33.178032]},"properties":{"listingKey":"20251027223058923646000000","listingId":"OC-25248242","listPrice":1499990,"city":"Escondido","baths":3,"slug":"20251027223058923646000000","mlsSource":"CRMLS","propertyType":"A","propertySubType":"Single Family Residence","livingArea":2766,"associationFee":367,"unparsedAddress":"3111 Orchard Glen, Escondido, CA 92026"}},{"type":"Feature","id":984265,"properties":{"cluster":true,"cluster_id":984265,"point_count":4,"point_count_abbreviated":4},"geometry":{"type":"Point","coordinates":[-117.08481520414352,33.175567331141465]}}]