[{"type":"Feature","geometry":{"type":"Point","coordinates":[-117.400637,34.108687]},"properties":{"listingKey":"20251029230507495456000000","listingId":"CV-25249996","listPrice":3350,"city":"Rialto","baths":2,"slug":"20251029230507495456000000","mlsSource":"CRMLS","propertyType":"B","propertySubType":"Single Family Residence","livingArea":1860,"associationFee":0,"unparsedAddress":"507 North Linden, Rialto, CA 92376"}},{"type":"Feature","geometry":{"type":"Point","coordinates":[-117.4043,34.114962]},"properties":{"listingKey":"20251118203512513692000000","listingId":"IG-25262366","listPrice":569999,"city":"Rialto","baths":2,"slug":"20251118203512513692000000","mlsSource":"CRMLS","propertyType":"A","propertySubType":"Single Family Residence","livingArea":1207,"associationFee":0,"unparsedAddress":"1648 West Wedgewood, Rialto, CA 92376"}},{"type":"Feature","geometry":{"type":"Point","coordinates":[-117.409408,34.117469]},"properties":{"listingKey":"20251008194056654114000000","listingId":"DW-25231321","listPrice":899000,"city":"Fontana","baths":3,"slug":"20251008194056654114000000","mlsSource":"CRMLS","propertyType":"A","propertySubType":"Duplex","livingArea":2166,"associationFee":0,"unparsedAddress":"7515 Locust, Fontana, CA 92336"}},{"type":"Feature","geometry":{"type":"Point","coordinates":[-117.413586,34.108199]},"properties":{"listingKey":"20250928063902266927000000","listingId":"SW-25225497","listPrice":2195,"city":"Fontana","baths":2,"slug":"20250928063902266927000000","mlsSource":"CRMLS","propertyType":"B","propertySubType":"Single Family Residence","livingArea":1000,"associationFee":0,"unparsedAddress":"8017 Laurel Ave, Fontana, CA 92336"}},{"type":"Feature","geometry":{"type":"Point","coordinates":[-117.412539,34.110852]},"properties":{"listingKey":"20251031041427145929000000","listingId":"OC-25250357","listPrice":649900,"city":"Fontana","baths":2.5,"slug":"20251031041427145929000000","mlsSource":"CRMLS","propertyType":"A","propertySubType":"Single Family Residence","livingArea":1410,"associationFee":0,"unparsedAddress":"7852 Grace Avenue, Fontana, CA 92336"}},{"type":"Feature","geometry":{"type":"Point","coordinates":[-117.41617,34.112492]},"properties":{"listingKey":"20251101231928890581000000","listingId":"PW-25252027","listPrice":610000,"city":"Fontana","baths":2,"slug":"20251101231928890581000000","mlsSource":"CRMLS","propertyType":"A","propertySubType":"Single Family Residence","livingArea":1573,"associationFee":0,"unparsedAddress":"17806 Terry, Fontana, CA 92336"}},{"type":"Feature","geometry":{"type":"Point","coordinates":[-117.411632,34.113602]},"properties":{"listingKey":"20250902204510253347000000","listingId":"DW-25196981","listPrice":615000,"city":"Fontana","baths":2.5,"slug":"20250902204510253347000000","mlsSource":"CRMLS","propertyType":"A","propertySubType":"Single Family Residence","livingArea":1544,"associationFee":0,"unparsedAddress":"7724 Myles Court, Fontana, CA 92336"}}]