[{"type":"Feature","geometry":{"type":"Point","coordinates":[-117.407425,33.94046]},"properties":{"listingKey":"20250913230028005218000000","listingId":"PW-25216798","listPrice":2200,"city":"Riverside","baths":1,"slug":"20250913230028005218000000","mlsSource":"CRMLS","propertyType":"B","propertySubType":"Duplex","livingArea":1200,"associationFee":0,"unparsedAddress":"7457 Mt. Vernon, Riverside, CA 92504"}},{"type":"Feature","id":210601,"properties":{"cluster":true,"cluster_id":210601,"point_count":2,"point_count_abbreviated":2},"geometry":{"type":"Point","coordinates":[-117.40876972675323,33.93045319303734]}},{"type":"Feature","geometry":{"type":"Point","coordinates":[-117.413727,33.9329]},"properties":{"listingKey":"20251108054609067231000000","listingId":"CV-25256346","listPrice":638000,"city":"Riverside","baths":2,"slug":"20251108054609067231000000","mlsSource":"CRMLS","propertyType":"A","propertySubType":"Single Family Residence","livingArea":1520,"associationFee":0,"unparsedAddress":"3536 Jefferson, Riverside, CA 92504"}},{"type":"Feature","id":507240,"properties":{"cluster":true,"cluster_id":507240,"point_count":2,"point_count_abbreviated":2},"geometry":{"type":"Point","coordinates":[-117.40361988544464,33.939332359361615]}},{"type":"Feature","id":125800,"properties":{"cluster":true,"cluster_id":125800,"point_count":3,"point_count_abbreviated":3},"geometry":{"type":"Point","coordinates":[-117.40833342075346,33.93520073214603]}},{"type":"Feature","geometry":{"type":"Point","coordinates":[-117.410312,33.941828]},"properties":{"listingKey":"20251021204947956430000000","listingId":"DW-25243880","listPrice":600000,"city":"Riverside","baths":1,"slug":"20251021204947956430000000","mlsSource":"CRMLS","propertyType":"A","propertySubType":"Single Family Residence","livingArea":984,"associationFee":0,"unparsedAddress":"7516 San Juan, Riverside, CA 92504"}},{"type":"Feature","geometry":{"type":"Point","coordinates":[-117.419089,33.941464]},"properties":{"listingKey":"20250711062730907873000000","listingId":"SW-25155409","listPrice":539000,"city":"Riverside","baths":1,"slug":"20250711062730907873000000","mlsSource":"CRMLS","propertyType":"A","propertySubType":"Single Family Residence","livingArea":1218,"associationFee":0,"unparsedAddress":"7859 Sycamore Avenue, Riverside, CA 92504"}},{"type":"Feature","id":176776,"properties":{"cluster":true,"cluster_id":176776,"point_count":2,"point_count_abbreviated":2},"geometry":{"type":"Point","coordinates":[-117.41882532835007,33.9334263703786]}}]