[{"type":"Feature","geometry":{"type":"Point","coordinates":[-117.18561,34.47704]},"properties":{"listingKey":"20250803060610606111000000","listingId":"CV-25174034","listPrice":547900,"city":"Apple Valley","baths":2.5,"slug":"20250803060610606111000000","mlsSource":"CRMLS","propertyType":"A","propertySubType":"Single Family Residence","livingArea":2218,"associationFee":0,"unparsedAddress":"12409 Pawnee Road, Apple Valley, CA 92308"}},{"type":"Feature","geometry":{"type":"Point","coordinates":[-117.185224,34.484282]},"properties":{"listingKey":"20251004005412357370000000","listingId":"IV-25232242","listPrice":410000,"city":"Apple Valley","baths":2,"slug":"20251004005412357370000000","mlsSource":"CRMLS","propertyType":"A","propertySubType":"Single Family Residence","livingArea":1376,"associationFee":0,"unparsedAddress":"21928 Maumee Road, Apple Valley, CA 92308"}},{"type":"Feature","geometry":{"type":"Point","coordinates":[-117.1821,34.477949]},"properties":{"listingKey":"20251105040717164176000000","listingId":"IV-25254108","listPrice":340000,"city":"Apple Valley","baths":1,"slug":"20251105040717164176000000","mlsSource":"CRMLS","propertyType":"A","propertySubType":"Single Family Residence","livingArea":1141,"associationFee":0,"unparsedAddress":"12442 Quinnault Road, Apple Valley, CA 92308"}},{"type":"Feature","id":371048,"properties":{"cluster":true,"cluster_id":371048,"point_count":2,"point_count_abbreviated":2},"geometry":{"type":"Point","coordinates":[-117.19337493181229,34.483544172627816]}},{"type":"Feature","geometry":{"type":"Point","coordinates":[-117.198108,34.470428]},"properties":{"listingKey":"20251016183402211102000000","listingId":"MB-25241012","listPrice":575000,"city":"Apple Valley","baths":0,"slug":"20251016183402211102000000","mlsSource":"CRMLS","propertyType":"C","propertySubType":"Triplex","livingArea":2184,"unparsedAddress":"21336 LAGUNA Road, Apple Valley, CA 92308"}},{"type":"Feature","geometry":{"type":"Point","coordinates":[-117.199532,34.476631]},"properties":{"listingKey":"20250809153825279247000000","listingId":"OC-25179669","listPrice":419999,"city":"Apple Valley","baths":2,"slug":"20250809153825279247000000","mlsSource":"CRMLS","propertyType":"A","propertySubType":"Single Family Residence","livingArea":1278,"associationFee":0,"unparsedAddress":"21275 Pocomoke Court, Apple Valley, CA 92308"}},{"type":"Feature","geometry":{"type":"Point","coordinates":[-117.200845,34.484627]},"properties":{"listingKey":"20251108202317655060000000","listingId":"IV-25256788","listPrice":389999,"city":"Apple Valley","baths":2,"slug":"20251108202317655060000000","mlsSource":"CRMLS","propertyType":"A","propertySubType":"Single Family Residence","livingArea":1040,"associationFee":0,"unparsedAddress":"12827 Tamiani, Apple Valley, CA 92308"}},{"type":"Feature","geometry":{"type":"Point","coordinates":[-117.190594,34.479607]},"properties":{"listingKey":"20251104142729011790000000","listingId":"219138164","listPrice":325000,"city":"Apple Valley","baths":2,"slug":"20251104142729011790000000","mlsSource":"GPS","propertyType":"A","propertySubType":"Single Family Residence","livingArea":1612,"associationFee":0,"unparsedAddress":"12546 Navajo Road, Apple Valley, CA 92308"}}]