[{"type":"Feature","geometry":{"type":"Point","coordinates":[-117.19882,33.726053]},"properties":{"listingKey":"20251001211708565737000000","listingId":"SW-25229719","listPrice":439900,"city":"Menifee","baths":2,"slug":"20251001211708565737000000","mlsSource":"CRMLS","propertyType":"A","propertySubType":"Single Family Residence","livingArea":1526,"associationFee":0,"unparsedAddress":"26435 Bluebell, Menifee, CA 92586"}},{"type":"Feature","geometry":{"type":"Point","coordinates":[-117.196609,33.734245]},"properties":{"listingKey":"20250901172629151589000000","listingId":"SW-25196200","listPrice":614999,"city":"Menifee","baths":3,"slug":"20250901172629151589000000","mlsSource":"CRMLS","propertyType":"A","propertySubType":"Single Family Residence","livingArea":2239,"associationFee":69,"unparsedAddress":"26599 Sagewood Way, Menifee, CA 92585"}},{"type":"Feature","id":372040,"properties":{"cluster":true,"cluster_id":372040,"point_count":3,"point_count_abbreviated":3},"geometry":{"type":"Point","coordinates":[-117.19264090061186,33.72633252452752]}},{"type":"Feature","id":165480,"properties":{"cluster":true,"cluster_id":165480,"point_count":5,"point_count_abbreviated":5},"geometry":{"type":"Point","coordinates":[-117.19103336334229,33.734338607411075]}},{"type":"Feature","geometry":{"type":"Point","coordinates":[-117.18993,33.727157]},"properties":{"listingKey":"20250827004033119886000000","listingId":"SW-25192030","listPrice":515000,"city":"Menifee","baths":2,"slug":"20250827004033119886000000","mlsSource":"CRMLS","propertyType":"A","propertySubType":"Single Family Residence","livingArea":1723,"associationFee":31.83,"unparsedAddress":"27958 Foxfire Street, Menifee, CA 92586"}},{"type":"Feature","geometry":{"type":"Point","coordinates":[-117.186018,33.735408]},"properties":{"listingKey":"20250806081830121435000000","listingId":"WS-25176639","listPrice":599000,"city":"Menifee","baths":3,"slug":"20250806081830121435000000","mlsSource":"CRMLS","propertyType":"A","propertySubType":"Single Family Residence","livingArea":2409,"associationFee":0,"unparsedAddress":"27166 White ct, Menifee, CA 92585"}},{"type":"Feature","geometry":{"type":"Point","coordinates":[-117.180904,33.726543]},"properties":{"listingKey":"20250902195524589705000000","listingId":"IG-25196748","listPrice":3000,"city":"Menifee","baths":2,"slug":"20250902195524589705000000","mlsSource":"CRMLS","propertyType":"B","propertySubType":"Single Family Residence","livingArea":1950,"associationFee":0,"unparsedAddress":"27036 Banjo Street, Menifee, CA 92585"}}]