[{"type":"Feature","geometry":{"type":"Point","coordinates":[-117.189226,33.698271]},"properties":{"listingKey":"20251013193341918972000000","listingId":"SW-25238552","listPrice":2500,"city":"Menifee","baths":2,"slug":"20251013193341918972000000","mlsSource":"CRMLS","propertyType":"B","propertySubType":"Single Family Residence","livingArea":1756,"unparsedAddress":"26960 Mccall Court, Menifee, CA 92586"}},{"type":"Feature","geometry":{"type":"Point","coordinates":[-117.183209,33.6901]},"properties":{"listingKey":"20251022001631617806000000","listingId":"IG-25243670","listPrice":549000,"city":"Menifee","baths":2,"slug":"20251022001631617806000000","mlsSource":"CRMLS","propertyType":"A","propertySubType":"Single Family Residence","livingArea":1863,"associationFee":0,"unparsedAddress":"29648 Calle Tomas, Menifee, CA 92586"}},{"type":"Feature","geometry":{"type":"Point","coordinates":[-117.201196,33.689291]},"properties":{"listingKey":"20251007174856630942000000","listingId":"IV-25233649","listPrice":530000,"city":"Menifee","baths":2,"slug":"20251007174856630942000000","mlsSource":"CRMLS","propertyType":"A","propertySubType":"Single Family Residence","livingArea":1206,"associationFee":0,"unparsedAddress":"26281 Hohokam, Menifee, CA 92586"}},{"type":"Feature","geometry":{"type":"Point","coordinates":[-117.185362,33.693886]},"properties":{"listingKey":"20250723214243792704000000","listingId":"IV-25164417","listPrice":510000,"city":"Menifee","baths":2,"slug":"20250723214243792704000000","mlsSource":"CRMLS","propertyType":"A","propertySubType":"Single Family Residence","livingArea":1785,"associationFee":0,"unparsedAddress":"29383 Lake Forest Drive, Menifee, CA 92586"}},{"type":"Feature","id":119880,"properties":{"cluster":true,"cluster_id":119880,"point_count":2,"point_count_abbreviated":2},"geometry":{"type":"Point","coordinates":[-117.18445658683777,33.697029807520025]}},{"type":"Feature","geometry":{"type":"Point","coordinates":[-117.194371,33.696963]},"properties":{"listingKey":"20251120204649770064000000","listingId":"SW-25255343","listPrice":469900,"city":"Menifee","baths":1.5,"slug":"20251120204649770064000000","mlsSource":"CRMLS","propertyType":"A","propertySubType":"Single Family Residence","livingArea":1461,"associationFee":442,"unparsedAddress":"29326 Carmel, Menifee, CA 92586"}},{"type":"Feature","geometry":{"type":"Point","coordinates":[-117.191444,33.695389]},"properties":{"listingKey":"20251121091156983772000000","listingId":"SW-25263819","listPrice":409000,"city":"Menifee","baths":2,"slug":"20251121091156983772000000","mlsSource":"CRMLS","propertyType":"A","propertySubType":"Single Family Residence","livingArea":1404,"associationFee":34,"unparsedAddress":"29528 Pebble Beach, Menifee, CA 92586"}},{"type":"Feature","geometry":{"type":"Point","coordinates":[-117.198912,33.697075]},"properties":{"listingKey":"20251113214522777682000000","listingId":"SW-25259601","listPrice":356000,"city":"Menifee","baths":2,"slug":"20251113214522777682000000","mlsSource":"CRMLS","propertyType":"A","propertySubType":"Single Family Residence","livingArea":1308,"associationFee":435,"unparsedAddress":"29130 Prestwick, Menifee, CA 92586"}},{"type":"Feature","geometry":{"type":"Point","coordinates":[-117.200356,33.700408]},"properties":{"listingKey":"20251022180310691788000000","listingId":"IG-25244954","listPrice":477500,"city":"Menifee","baths":2,"slug":"20251022180310691788000000","mlsSource":"CRMLS","propertyType":"A","propertySubType":"Single Family Residence","livingArea":1850,"associationFee":435,"unparsedAddress":"28970 Exmoor Court, Menifee, CA 92586"}},{"type":"Feature","id":121096,"properties":{"cluster":true,"cluster_id":121096,"point_count":4,"point_count_abbreviated":4},"geometry":{"type":"Point","coordinates":[-117.19864547252655,33.70564986039737]}},{"type":"Feature","geometry":{"type":"Point","coordinates":[-117.198139,33.701827]},"properties":{"listingKey":"20250624013741422364000000","listingId":"SW-25140343","listPrice":315000,"city":"Menifee","baths":2,"slug":"20250624013741422364000000","mlsSource":"CRMLS","propertyType":"A","propertySubType":"Single Family Residence","livingArea":1098,"associationFee":410,"unparsedAddress":"28839 Carmel Road, Menifee, CA 92586"}},{"type":"Feature","geometry":{"type":"Point","coordinates":[-117.196871,33.704773]},"properties":{"listingKey":"20250907051244729404000000","listingId":"OC-25200560","listPrice":449800,"city":"Menifee","baths":1.75,"slug":"20250907051244729404000000","mlsSource":"CRMLS","propertyType":"A","propertySubType":"Single Family Residence","livingArea":1609,"associationFee":435,"unparsedAddress":"28630 Carmel Road, Menifee, CA 92586"}},{"type":"Feature","geometry":{"type":"Point","coordinates":[-117.191201,33.701223]},"properties":{"listingKey":"20251113010835515944000000","listingId":"SW-25258585","listPrice":409999,"city":"Menifee","baths":2,"slug":"20251113010835515944000000","mlsSource":"CRMLS","propertyType":"A","propertySubType":"Single Family Residence","livingArea":1338,"associationFee":435,"unparsedAddress":"28890 Snead, Menifee, CA 92586"}},{"type":"Feature","id":343624,"properties":{"cluster":true,"cluster_id":343624,"point_count":3,"point_count_abbreviated":3},"geometry":{"type":"Point","coordinates":[-117.19474017620087,33.702611481584256]}},{"type":"Feature","geometry":{"type":"Point","coordinates":[-117.187093,33.705432]},"properties":{"listingKey":"20251119224809987044000000","listingId":"SW-25263261","listPrice":315000,"city":"Menifee","baths":1,"slug":"20251119224809987044000000","mlsSource":"CRMLS","propertyType":"A","propertySubType":"Single Family Residence","livingArea":992,"associationFee":435,"unparsedAddress":"27102 Capilano Drive, Menifee, CA 92586"}}]