[{"type":"Feature","geometry":{"type":"Point","coordinates":[-117.199513,33.119973]},"properties":{"listingKey":"20250825200516743793000000","listingId":"8N-2508326","listPrice":1598900,"city":"San Marcos","baths":2,"slug":"20250825200516743793000000","mlsSource":"CRMLS","propertyType":"A","propertySubType":"Single Family Residence","livingArea":1976,"associationFee":0,"unparsedAddress":"1239 San Julian Place, San Marcos, CA 92078"}},{"type":"Feature","geometry":{"type":"Point","coordinates":[-117.198501,33.1286]},"properties":{"listingKey":"20250905042833563256000000","listingId":"8N-2508680","listPrice":1199000,"city":"San Marcos","baths":2,"slug":"20250905042833563256000000","mlsSource":"CRMLS","propertyType":"A","propertySubType":"Single Family Residence","livingArea":1612,"associationFee":0,"unparsedAddress":"1267 Discovery Street, San Marcos, CA 92078"}},{"type":"Feature","id":461896,"properties":{"cluster":true,"cluster_id":461896,"point_count":2,"point_count_abbreviated":2},"geometry":{"type":"Point","coordinates":[-117.19927847385406,33.12592524956305]}},{"type":"Feature","geometry":{"type":"Point","coordinates":[-117.182667,33.119146]},"properties":{"listingKey":"20251106181114332257000000","listingId":"8N-2510621","listPrice":1539000,"city":"San Marcos","baths":3,"slug":"20251106181114332257000000","mlsSource":"CRMLS","propertyType":"A","propertySubType":"Single Family Residence","livingArea":3147,"associationFee":166,"unparsedAddress":"1122 Via Vera Cruz, San Marcos, CA 92078"}},{"type":"Feature","geometry":{"type":"Point","coordinates":[-117.194728,33.121684]},"properties":{"listingKey":"20250828035253720268000000","listingId":"8N-2508391","listPrice":735000,"city":"San Marcos","baths":3,"slug":"20250828035253720268000000","mlsSource":"CRMLS","propertyType":"A","propertySubType":"Townhouse","livingArea":1501,"associationFee":358,"unparsedAddress":"1234 Sunrise, 101, San Marcos, CA 92078"}},{"type":"Feature","id":943529,"properties":{"cluster":true,"cluster_id":943529,"point_count":2,"point_count_abbreviated":2},"geometry":{"type":"Point","coordinates":[-117.1964219212532,33.12396647705951]}}]