[{"type":"Feature","geometry":{"type":"Point","coordinates":[-116.524436,33.814589]},"properties":{"listingKey":"20251107190840037223000000","listingId":"219138892","listPrice":479000,"city":"Palm Springs","baths":2,"slug":"20251107190840037223000000","mlsSource":"GPS","propertyType":"A","propertySubType":"Condominium","livingArea":1275,"associationFee":699,"unparsedAddress":"2033 E Ramon Road, 7a, Palm Springs, CA 92264"}},{"type":"Feature","geometry":{"type":"Point","coordinates":[-116.522559,33.81464]},"properties":{"listingKey":"20251108160031825877000000","listingId":"219138508","listPrice":539000,"city":"Palm Springs","baths":2,"slug":"20251108160031825877000000","mlsSource":"GPS","propertyType":"A","propertySubType":"Condominium","livingArea":1342,"associationFee":833,"unparsedAddress":"2113 Sunshine Way, Palm Springs, CA 92264"}},{"type":"Feature","geometry":{"type":"Point","coordinates":[-116.522269,33.808172]},"properties":{"listingKey":"20250822131152087467000000","listingId":"219134346","listPrice":695000,"city":"Palm Springs","baths":2,"slug":"20250822131152087467000000","mlsSource":"GPS","propertyType":"A","propertySubType":"Condominium","livingArea":2054,"associationFee":840,"unparsedAddress":"2264 Oakcrest Drive, Palm Springs, CA 92264"}},{"type":"Feature","id":59913,"properties":{"cluster":true,"cluster_id":59913,"point_count":3,"point_count_abbreviated":3},"geometry":{"type":"Point","coordinates":[-116.52924299240114,33.813583410485165]}},{"type":"Feature","id":40361,"properties":{"cluster":true,"cluster_id":40361,"point_count":2,"point_count_abbreviated":2},"geometry":{"type":"Point","coordinates":[-116.52721345424652,33.80659151396952]}},{"type":"Feature","geometry":{"type":"Point","coordinates":[-116.525661,33.813688]},"properties":{"listingKey":"20251013014856792080000000","listingId":"219136869","listPrice":299000,"city":"Palm Springs","baths":0.75,"slug":"20251013014856792080000000","mlsSource":"GPS","propertyType":"A","propertySubType":"Condominium","livingArea":797,"associationFee":507,"unparsedAddress":"2001 Camino Parocela E, O-107, Palm Springs, CA 92264"}},{"type":"Feature","id":55113,"properties":{"cluster":true,"cluster_id":55113,"point_count":2,"point_count_abbreviated":2},"geometry":{"type":"Point","coordinates":[-116.53087735176086,33.81418659450131]}}]