[{"type":"Feature","geometry":{"type":"Point","coordinates":[-117.01327,34.018573]},"properties":{"listingKey":"20250819050313742278000000","listingId":"IG-25186206","listPrice":1125000,"city":"Yucaipa","baths":2.5,"slug":"20250819050313742278000000","mlsSource":"CRMLS","propertyType":"A","propertySubType":"Single Family Residence","livingArea":3113,"associationFee":0,"unparsedAddress":"36254 Poplar Drive, Yucaipa, CA 92399"}},{"type":"Feature","geometry":{"type":"Point","coordinates":[-117.023669,34.01818]},"properties":{"listingKey":"20250720054326400291000000","listingId":"GD-25162718","listPrice":998000,"city":"Yucaipa","baths":4.5,"slug":"20250720054326400291000000","mlsSource":"CRMLS","propertyType":"A","propertySubType":"Single Family Residence","livingArea":4135,"associationFee":0,"unparsedAddress":"35750 Brookwood Court, Yucaipa, CA 92399"}},{"type":"Feature","id":539271,"properties":{"cluster":true,"cluster_id":539271,"point_count":2,"point_count_abbreviated":2},"geometry":{"type":"Point","coordinates":[-117.00626939535141,34.01649533714229]}},{"type":"Feature","geometry":{"type":"Point","coordinates":[-117.014517,34.047152]},"properties":{"listingKey":"20250810065134643641000000","listingId":"IG-25179487","listPrice":599000,"city":"Yucaipa","baths":2,"slug":"20250810065134643641000000","mlsSource":"CRMLS","propertyType":"A","propertySubType":"Single Family Residence","livingArea":1834,"associationFee":0,"unparsedAddress":"36218 Golden Gate Drive, Yucaipa, CA 92399"}},{"type":"Feature","geometry":{"type":"Point","coordinates":[-117.014155,34.04202]},"properties":{"listingKey":"20251023005924900108000000","listingId":"CV-25245490","listPrice":699999,"city":"Yucaipa","baths":3,"slug":"20251023005924900108000000","mlsSource":"CRMLS","propertyType":"A","propertySubType":"Single Family Residence","livingArea":3268,"associationFee":0,"unparsedAddress":"36231 Panorama, Yucaipa, CA 92399"}}]