[{"type":"Feature","id":496679,"properties":{"cluster":true,"cluster_id":496679,"point_count":3,"point_count_abbreviated":3},"geometry":{"type":"Point","coordinates":[-116.99208855628967,32.80145219525289]}},{"type":"Feature","geometry":{"type":"Point","coordinates":[-117.02465,32.802335]},"properties":{"listingKey":"20251030165942955168000000","listingId":"8P-2508182","listPrice":1045000,"city":"San Diego","baths":2,"slug":"20251030165942955168000000","mlsSource":"CRMLS","propertyType":"A","propertySubType":"Single Family Residence","livingArea":1350,"associationFee":0,"unparsedAddress":"6548 Bantam Lake Circle, San Diego, CA 92119"}},{"type":"Feature","geometry":{"type":"Point","coordinates":[-116.989354,32.796177]},"properties":{"listingKey":"20251103234056875992000000","listingId":"8P-2508305","listPrice":1478000,"city":"El Cajon","baths":5,"slug":"20251103234056875992000000","mlsSource":"CRMLS","propertyType":"A","propertySubType":"Single Family Residence","livingArea":3984,"associationFee":0,"unparsedAddress":"1894 Wedgemere Road, El Cajon, CA 92020"}},{"type":"Feature","geometry":{"type":"Point","coordinates":[-117.012641,32.787644]},"properties":{"listingKey":"20250909042119897318000000","listingId":"8P-2506881","listPrice":1250000,"city":"La Mesa","baths":3.5,"slug":"20250909042119897318000000","mlsSource":"CRMLS","propertyType":"A","propertySubType":"Single Family Residence","livingArea":2189,"associationFee":0,"unparsedAddress":"5975 North Nagel Street, La Mesa, CA 91942"}},{"type":"Feature","id":457385,"properties":{"cluster":true,"cluster_id":457385,"point_count":2,"point_count_abbreviated":2},"geometry":{"type":"Point","coordinates":[-117.00995475053787,32.801177141131106]}},{"type":"Feature","id":538759,"properties":{"cluster":true,"cluster_id":538759,"point_count":2,"point_count_abbreviated":2},"geometry":{"type":"Point","coordinates":[-116.99820935726166,32.78995330540947]}},{"type":"Feature","id":549095,"properties":{"cluster":true,"cluster_id":549095,"point_count":2,"point_count_abbreviated":2},"geometry":{"type":"Point","coordinates":[-117.01537549495697,32.79602761015049]}}]