[{"type":"Feature","geometry":{"type":"Point","coordinates":[-121.626284,39.743411]},"properties":{"listingKey":"20251023213538304651000000","listingId":"SN-25244028","listPrice":425000,"city":"Paradise","baths":2,"slug":"20251023213538304651000000","mlsSource":"CRMLS","propertyType":"A","propertySubType":"Single Family Residence","livingArea":1276,"associationFee":0,"unparsedAddress":"5416 Foster, Paradise, CA 95969"}},{"type":"Feature","geometry":{"type":"Point","coordinates":[-121.62224,39.749923]},"properties":{"listingKey":"20250719062235251884000000","listingId":"SN-25161742","listPrice":333000,"city":"Paradise","baths":2,"slug":"20250719062235251884000000","mlsSource":"CRMLS","propertyType":"A","propertySubType":"Single Family Residence","livingArea":1275,"associationFee":0,"unparsedAddress":"5585 Scottwood Road, Paradise, CA 95969"}},{"type":"Feature","geometry":{"type":"Point","coordinates":[-121.626239,39.757579]},"properties":{"listingKey":"20250625153947308722000000","listingId":"SN-25139482","listPrice":395000,"city":"Paradise","baths":2,"slug":"20250625153947308722000000","mlsSource":"CRMLS","propertyType":"A","propertySubType":"Single Family Residence","livingArea":1700,"associationFee":0,"unparsedAddress":"635 Boquest Boulevard, Paradise, CA 95969"}},{"type":"Feature","geometry":{"type":"Point","coordinates":[-121.634791,39.750049]},"properties":{"listingKey":"20251112195023458986000000","listingId":"SN-25257241","listPrice":520000,"city":"Paradise","baths":2,"slug":"20251112195023458986000000","mlsSource":"CRMLS","propertyType":"A","propertySubType":"Single Family Residence","livingArea":1823,"associationFee":0,"unparsedAddress":"5594 Little Grand Canyon Dr, Paradise, CA 95969"}},{"type":"Feature","geometry":{"type":"Point","coordinates":[-121.633578,39.741812]},"properties":{"listingKey":"20250702061443454226000000","listingId":"SN-25147451","listPrice":429000,"city":"Paradise","baths":2,"slug":"20250702061443454226000000","mlsSource":"CRMLS","propertyType":"A","propertySubType":"Single Family Residence","livingArea":1597,"associationFee":0,"unparsedAddress":"5351 Filbert Street, Paradise, CA 95969"}},{"type":"Feature","geometry":{"type":"Point","coordinates":[-121.633758,39.753771]},"properties":{"listingKey":"20251007160636379485000000","listingId":"PA-25234121","listPrice":49000,"city":"Paradise","baths":0,"slug":"20251007160636379485000000","mlsSource":"CRMLS","propertyType":"A","propertySubType":"Cabin","livingArea":300,"associationFee":0,"unparsedAddress":"462 Horseshoe Hill, Paradise, CA 95969"}}]