[{"type":"Feature","geometry":{"type":"Point","coordinates":[-121.623555,38.025619]},"properties":{"listingKey":"20250725084056589794000000","listingId":"01-41106035","listPrice":734900,"city":"Bethel Island","baths":2,"slug":"20250725084056589794000000","mlsSource":"CRMLS","propertyType":"A","propertySubType":"Single Family Residence","livingArea":1880,"unparsedAddress":"6943 Piper Rd, Bethel Island, CA"}},{"type":"Feature","geometry":{"type":"Point","coordinates":[-121.638213,38.017336]},"properties":{"listingKey":"20251115003419164335000000","listingId":"01-41117531","listPrice":1299000,"city":"Bethel Island","baths":4.5,"slug":"20251115003419164335000000","mlsSource":"CRMLS","propertyType":"A","propertySubType":"Single Family Residence","livingArea":3450,"associationFee":439,"unparsedAddress":"306 Navigators, Bethel Island, CA"}},{"type":"Feature","geometry":{"type":"Point","coordinates":[-121.633456,38.016755]},"properties":{"listingKey":"20251009170610697004000000","listingId":"01-41114223","listPrice":1750000,"city":"Bethel Island","baths":5,"slug":"20251009170610697004000000","mlsSource":"CRMLS","propertyType":"A","propertySubType":"Single Family Residence","livingArea":3851,"associationFee":459,"unparsedAddress":"290 Waterside Pl, Bethel Island, CA"}},{"type":"Feature","geometry":{"type":"Point","coordinates":[-121.629787,38.0189]},"properties":{"listingKey":"20251022001735883996000000","listingId":"01-41115409","listPrice":2145000,"city":"Bethel Island","baths":4.5,"slug":"20251022001735883996000000","mlsSource":"CRMLS","propertyType":"A","propertySubType":"Single Family Residence","livingArea":3773,"associationFee":459,"unparsedAddress":"3125 Delta Coves Dr, Bethel Island, CA"}},{"type":"Feature","id":869193,"properties":{"cluster":true,"cluster_id":869193,"point_count":2,"point_count_abbreviated":2},"geometry":{"type":"Point","coordinates":[-121.62705302238464,38.0186576659996]}},{"type":"Feature","geometry":{"type":"Point","coordinates":[-121.622429,38.013715]},"properties":{"listingKey":"20250628103633665749000000","listingId":"01-41102894","listPrice":1149990,"city":"Bethel Island","baths":2,"slug":"20250628103633665749000000","mlsSource":"CRMLS","propertyType":"A","propertySubType":"Single Family Residence","livingArea":2050,"associationFee":459,"unparsedAddress":"6008 Windsweep Rd, Bethel Island, CA"}}]