[{"type":"Feature","id":90854,"properties":{"cluster":true,"cluster_id":90854,"point_count":4,"point_count_abbreviated":4},"geometry":{"type":"Point","coordinates":[-118.55699524283409,34.39044373238005]}},{"type":"Feature","geometry":{"type":"Point","coordinates":[-118.532041,34.381154]},"properties":{"listingKey":"20251015221856163406000000","listingId":"BB-25229225","listPrice":3500000,"city":"Newhall","baths":0,"slug":"20251015221856163406000000","mlsSource":"CRMLS","propertyType":"C","propertySubType":"Apartment","livingArea":8730,"associationFee":0,"unparsedAddress":"24522 Chestnut, Newhall, CA 91321"}},{"type":"Feature","id":270694,"properties":{"cluster":true,"cluster_id":270694,"point_count":4,"point_count_abbreviated":4},"geometry":{"type":"Point","coordinates":[-118.54594454169273,34.429859163679254]}},{"type":"Feature","geometry":{"type":"Point","coordinates":[-118.564449,34.419861]},"properties":{"listingKey":"20250818174057883404000000","listingId":"PW-25185619","listPrice":510000,"city":"Valencia","baths":2,"slug":"20250818174057883404000000","mlsSource":"CRMLS","propertyType":"A","propertySubType":"Condominium","livingArea":1130,"associationFee":600,"unparsedAddress":"24595 Town Center Drive, 3211, Valencia, CA 91355"}},{"type":"Feature","geometry":{"type":"Point","coordinates":[-118.522155,34.418519]},"properties":{"listingKey":"20250910233445562642000000","listingId":"OC-25198245","listPrice":1275000,"city":"Saugus","baths":4,"slug":"20250910233445562642000000","mlsSource":"CRMLS","propertyType":"A","propertySubType":"Single Family Residence","livingArea":3528,"associationFee":185,"unparsedAddress":"22494 Brightwood Place, Saugus, CA 91350"}},{"type":"Feature","geometry":{"type":"Point","coordinates":[-118.55545,34.405741]},"properties":{"listingKey":"20251010075443379823000000","listingId":"CV-25221159","listPrice":588888,"city":"Valencia","baths":2,"slug":"20251010075443379823000000","mlsSource":"CRMLS","propertyType":"A","propertySubType":"Condominium","livingArea":1252,"associationFee":495,"unparsedAddress":"26129 Mcbean Pkwy, 43, Valencia, CA 91355"}},{"type":"Feature","id":352998,"properties":{"cluster":true,"cluster_id":352998,"point_count":2,"point_count_abbreviated":2},"geometry":{"type":"Point","coordinates":[-118.55210691690445,34.44269858040579]}},{"type":"Feature","id":134086,"properties":{"cluster":true,"cluster_id":134086,"point_count":3,"point_count_abbreviated":3},"geometry":{"type":"Point","coordinates":[-118.52948963642122,34.43310091173903]}},{"type":"Feature","geometry":{"type":"Point","coordinates":[-118.516157,34.441688]},"properties":{"listingKey":"20251014184417940330000000","listingId":"DW-25239302","listPrice":709000,"city":"Saugus","baths":2,"slug":"20251014184417940330000000","mlsSource":"CRMLS","propertyType":"A","propertySubType":"Single Family Residence","livingArea":1400,"associationFee":89,"unparsedAddress":"27502 Caraway Lane, Saugus, CA 91350"}},{"type":"Feature","geometry":{"type":"Point","coordinates":[-118.547543,34.452219]},"properties":{"listingKey":"20250711041326205060000000","listingId":"OC-25153858","listPrice":975000,"city":"Valencia","baths":3,"slug":"20250711041326205060000000","mlsSource":"CRMLS","propertyType":"A","propertySubType":"Single Family Residence","livingArea":2784,"associationFee":59,"unparsedAddress":"27829 Coldsprings Place, Valencia, CA 91354"}},{"type":"Feature","id":568135,"properties":{"cluster":true,"cluster_id":568135,"point_count":3,"point_count_abbreviated":3},"geometry":{"type":"Point","coordinates":[-118.50041270256042,34.43766982265788]}},{"type":"Feature","id":242630,"properties":{"cluster":true,"cluster_id":242630,"point_count":2,"point_count_abbreviated":2},"geometry":{"type":"Point","coordinates":[-118.48369985818863,34.417225765745314]}},{"type":"Feature","id":267463,"properties":{"cluster":true,"cluster_id":267463,"point_count":2,"point_count_abbreviated":2},"geometry":{"type":"Point","coordinates":[-118.48026663064957,34.42627510115008]}},{"type":"Feature","id":168422,"properties":{"cluster":true,"cluster_id":168422,"point_count":4,"point_count_abbreviated":4},"geometry":{"type":"Point","coordinates":[-118.48184511065483,34.44510077456334]}},{"type":"Feature","geometry":{"type":"Point","coordinates":[-118.503552,34.446754]},"properties":{"listingKey":"20251118203312376371000000","listingId":"OC-25261920","listPrice":849000,"city":"Saugus","baths":3,"slug":"20251118203312376371000000","mlsSource":"CRMLS","propertyType":"A","propertySubType":"Single Family Residence","livingArea":2240,"associationFee":0,"unparsedAddress":"21045 Susan Carole, Saugus, CA 91350"}},{"type":"Feature","geometry":{"type":"Point","coordinates":[-118.479191,34.437283]},"properties":{"listingKey":"20250716013027360628000000","listingId":"RS-25159150","listPrice":899000,"city":"Canyon Country","baths":2,"slug":"20250716013027360628000000","mlsSource":"CRMLS","propertyType":"A","propertySubType":"Single Family Residence","livingArea":1450,"associationFee":0,"unparsedAddress":"28234 Enderly Street, Canyon Country, CA 91351"}}]