[{"type":"Feature","geometry":{"type":"Point","coordinates":[-116.869716,34.257893]},"properties":{"listingKey":"20250621041855635261000000","listingId":"IV-25133159","listPrice":995000,"city":"Big Bear Lake","baths":3.5,"slug":"20250621041855635261000000","mlsSource":"CRMLS","propertyType":"A","propertySubType":"Single Family Residence","livingArea":2122,"associationFee":0,"unparsedAddress":"42728 Timberline Trail, Big Bear Lake, CA 92315"}},{"type":"Feature","geometry":{"type":"Point","coordinates":[-116.863372,34.261578]},"properties":{"listingKey":"20251105205240193390000000","listingId":"IG-25251313","listPrice":369900,"city":"Big Bear","baths":1,"slug":"20251105205240193390000000","mlsSource":"CRMLS","propertyType":"A","propertySubType":"Single Family Residence","livingArea":898,"associationFee":0,"unparsedAddress":"1026 West Country Club, Big Bear, CA 92314"}},{"type":"Feature","id":96584,"properties":{"cluster":true,"cluster_id":96584,"point_count":5,"point_count_abbreviated":5},"geometry":{"type":"Point","coordinates":[-116.86713516712189,34.255763920280145]}},{"type":"Feature","geometry":{"type":"Point","coordinates":[-116.864015,34.258277]},"properties":{"listingKey":"20251017170626751797000000","listingId":"219137150","listPrice":359000,"city":"Big Bear City","baths":1,"slug":"20251017170626751797000000","mlsSource":"GPS","propertyType":"A","propertySubType":"Single Family Residence","livingArea":840,"associationFee":0,"unparsedAddress":"1040 W Rainbow Boulevard, Big Bear City, CA 92314"}},{"type":"Feature","geometry":{"type":"Point","coordinates":[-116.864248,34.255238]},"properties":{"listingKey":"20250709124101213031000000","listingId":"SW-25152350","listPrice":779000,"city":"Big Bear City","baths":2,"slug":"20250709124101213031000000","mlsSource":"CRMLS","propertyType":"A","propertySubType":"Single Family Residence","livingArea":1616,"associationFee":0,"unparsedAddress":"457 Woodside Drive, Big Bear City, CA 92314"}},{"type":"Feature","id":77384,"properties":{"cluster":true,"cluster_id":77384,"point_count":3,"point_count_abbreviated":3},"geometry":{"type":"Point","coordinates":[-116.86298847198486,34.27001435111778]}},{"type":"Feature","id":163209,"properties":{"cluster":true,"cluster_id":163209,"point_count":2,"point_count_abbreviated":2},"geometry":{"type":"Point","coordinates":[-116.8600407242775,34.26114912545553]}},{"type":"Feature","id":61608,"properties":{"cluster":true,"cluster_id":61608,"point_count":3,"point_count_abbreviated":3},"geometry":{"type":"Point","coordinates":[-116.85224890708923,34.25783717197611]}},{"type":"Feature","geometry":{"type":"Point","coordinates":[-116.850768,34.262698]},"properties":{"listingKey":"20250719062305597612000000","listingId":"IG-25162019","listPrice":295000,"city":"Big Bear City","baths":0.75,"slug":"20250719062305597612000000","mlsSource":"CRMLS","propertyType":"A","propertySubType":"Single Family Residence","livingArea":1200,"associationFee":0,"unparsedAddress":"345 West Fairway Boulevard, Big Bear City, CA 92314"}},{"type":"Feature","id":63912,"properties":{"cluster":true,"cluster_id":63912,"point_count":4,"point_count_abbreviated":4},"geometry":{"type":"Point","coordinates":[-116.86123967170715,34.2585199682364]}},{"type":"Feature","id":443816,"properties":{"cluster":true,"cluster_id":443816,"point_count":3,"point_count_abbreviated":3},"geometry":{"type":"Point","coordinates":[-116.85848057270049,34.267227351382985]}},{"type":"Feature","geometry":{"type":"Point","coordinates":[-116.854949,34.260234]},"properties":{"listingKey":"20250924030948898267000000","listingId":"8N-2509303","listPrice":1400,"city":"Big Bear City","baths":1,"slug":"20250924030948898267000000","mlsSource":"CRMLS","propertyType":"B","livingArea":500,"associationFee":0,"unparsedAddress":"545 West Big Bear, 3, Big Bear City, CA 92314"}},{"type":"Feature","id":334728,"properties":{"cluster":true,"cluster_id":334728,"point_count":2,"point_count_abbreviated":2},"geometry":{"type":"Point","coordinates":[-116.85300797224045,34.26892970790507]}},{"type":"Feature","geometry":{"type":"Point","coordinates":[-116.860039,34.255757]},"properties":{"listingKey":"20250906040507986043000000","listingId":"PW-25196094","listPrice":699000,"city":"Big Bear City","baths":2,"slug":"20250906040507986043000000","mlsSource":"CRMLS","propertyType":"A","propertySubType":"Single Family Residence","livingArea":1306,"associationFee":0,"unparsedAddress":"420 Belmont Drive, Big Bear City, CA 92314"}},{"type":"Feature","geometry":{"type":"Point","coordinates":[-116.857605,34.270535]},"properties":{"listingKey":"20250629055251086599000000","listingId":"IG-25143316","listPrice":665000,"city":"Big Bear City","baths":3,"slug":"20250629055251086599000000","mlsSource":"CRMLS","propertyType":"A","propertySubType":"Single Family Residence","livingArea":2830,"associationFee":0,"unparsedAddress":"1112 Cedar Mountain Road, Big Bear City, CA 92314"}},{"type":"Feature","geometry":{"type":"Point","coordinates":[-116.853624,34.254028]},"properties":{"listingKey":"20251110233428670690000000","listingId":"JT-25257790","listPrice":1200000,"city":"Big Bear City","baths":3.25,"slug":"20251110233428670690000000","mlsSource":"CRMLS","propertyType":"A","propertySubType":"Single Family Residence","livingArea":2552,"associationFee":200,"unparsedAddress":"447 Tanglewood Drive, Big Bear City, CA 92314"}},{"type":"Feature","id":189897,"properties":{"cluster":true,"cluster_id":189897,"point_count":2,"point_count_abbreviated":2},"geometry":{"type":"Point","coordinates":[-116.85148179531097,34.26024466917505]}}]