[{"type":"Feature","geometry":{"type":"Point","coordinates":[-116.866228,33.913659]},"properties":{"listingKey":"20251007184424299820000000","listingId":"IV-25234287","listPrice":678910,"city":"Banning","baths":2,"slug":"20251007184424299820000000","mlsSource":"CRMLS","propertyType":"A","propertySubType":"Single Family Residence","livingArea":1332,"associationFee":0,"unparsedAddress":"943 Wesley Street, Banning, CA 92220"}},{"type":"Feature","geometry":{"type":"Point","coordinates":[-116.864079,33.924812]},"properties":{"listingKey":"20251029180331919964000000","listingId":"CV-25249551","listPrice":249999,"city":"Banning","baths":2,"slug":"20251029180331919964000000","mlsSource":"CRMLS","propertyType":"A","propertySubType":"Single Family Residence","livingArea":981,"associationFee":0,"unparsedAddress":"68 Val Monte, Banning, CA 92220"}},{"type":"Feature","geometry":{"type":"Point","coordinates":[-116.869035,33.912389]},"properties":{"listingKey":"20250918043027524358000000","listingId":"CV-25214338","listPrice":480000,"city":"Banning","baths":2,"slug":"20250918043027524358000000","mlsSource":"CRMLS","propertyType":"A","propertySubType":"Single Family Residence","livingArea":1816,"associationFee":0,"unparsedAddress":"708 Wesley Street, Banning, CA 92220"}},{"type":"Feature","geometry":{"type":"Point","coordinates":[-116.860869,33.914774]},"properties":{"listingKey":"20251106185620399580000000","listingId":"IG-25254748","listPrice":748000,"city":"Banning","baths":3,"slug":"20251106185620399580000000","mlsSource":"CRMLS","propertyType":"A","propertySubType":"Single Family Residence","livingArea":3032,"associationFee":0,"unparsedAddress":"1496 Bryan, Banning, CA 92220"}},{"type":"Feature","geometry":{"type":"Point","coordinates":[-116.856875,33.915299]},"properties":{"listingKey":"20251114063940995830000000","listingId":"CV-25260425","listPrice":350000,"city":"Banning","baths":2,"slug":"20251114063940995830000000","mlsSource":"CRMLS","propertyType":"A","propertySubType":"Single Family Residence","livingArea":864,"associationFee":0,"unparsedAddress":"1824 Charles, Banning, CA 92220"}}]