[{"type":"Feature","geometry":{"type":"Point","coordinates":[-117.8718,34.090308]},"properties":{"listingKey":"20251119154704660638000000","listingId":"TR-25262274","listPrice":688000,"city":"Covina","baths":2,"slug":"20251119154704660638000000","mlsSource":"CRMLS","propertyType":"A","propertySubType":"Single Family Residence","livingArea":1311,"associationFee":0,"unparsedAddress":"922 East Edgecomb, Covina, CA 91724"}},{"type":"Feature","geometry":{"type":"Point","coordinates":[-117.90095,34.103081]},"properties":{"listingKey":"20251021204913940606000000","listingId":"MB-25243193","listPrice":747000,"city":"Covina","baths":1,"slug":"20251021204913940606000000","mlsSource":"CRMLS","propertyType":"A","propertySubType":"Single Family Residence","livingArea":1027,"associationFee":0,"unparsedAddress":"1288 North O Malley, Covina, CA 91722"}},{"type":"Feature","geometry":{"type":"Point","coordinates":[-117.901931,34.091879]},"properties":{"listingKey":"20251001030125396382000000","listingId":"DW-25228762","listPrice":949900,"city":"Covina","baths":2,"slug":"20251001030125396382000000","mlsSource":"CRMLS","propertyType":"A","propertySubType":"Single Family Residence","livingArea":1609,"associationFee":0,"unparsedAddress":"627 West Front St, Covina, CA 91722"}},{"type":"Feature","id":102407,"properties":{"cluster":true,"cluster_id":102407,"point_count":7,"point_count_abbreviated":7},"geometry":{"type":"Point","coordinates":[-117.86933566842761,34.10165715537531]}},{"type":"Feature","geometry":{"type":"Point","coordinates":[-117.861804,34.100781]},"properties":{"listingKey":"20250910185348611383000000","listingId":"DW-25214018","listPrice":919000,"city":"Covina","baths":2,"slug":"20250910185348611383000000","mlsSource":"CRMLS","propertyType":"A","propertySubType":"Single Family Residence","livingArea":1906,"associationFee":0,"unparsedAddress":"1158 North Ivescrest Avenue, Covina, CA 91724"}},{"type":"Feature","geometry":{"type":"Point","coordinates":[-117.903652,34.096961]},"properties":{"listingKey":"20251026154805159791000000","listingId":"SW-25247560","listPrice":830000,"city":"Covina","baths":2,"slug":"20251026154805159791000000","mlsSource":"CRMLS","propertyType":"A","propertySubType":"Single Family Residence","livingArea":1484,"associationFee":0,"unparsedAddress":"4637 North Elspeth, Covina, CA 91722"}},{"type":"Feature","id":152551,"properties":{"cluster":true,"cluster_id":152551,"point_count":7,"point_count_abbreviated":7},"geometry":{"type":"Point","coordinates":[-117.88976567132131,34.10037912611723]}},{"type":"Feature","geometry":{"type":"Point","coordinates":[-117.877212,34.089568]},"properties":{"listingKey":"20251013182443964240000000","listingId":"WS-25238448","listPrice":1900,"city":"Covina","baths":1,"slug":"20251013182443964240000000","mlsSource":"CRMLS","propertyType":"B","propertySubType":"Apartment","livingArea":550,"associationFee":0,"unparsedAddress":"366 Vecino Dr North, 1, Covina, CA 91723"}},{"type":"Feature","id":444007,"properties":{"cluster":true,"cluster_id":444007,"point_count":2,"point_count_abbreviated":2},"geometry":{"type":"Point","coordinates":[-117.89038717746735,34.092553155642975]}},{"type":"Feature","id":212393,"properties":{"cluster":true,"cluster_id":212393,"point_count":2,"point_count_abbreviated":2},"geometry":{"type":"Point","coordinates":[-117.88280725479126,34.0930418240231]}},{"type":"Feature","id":185447,"properties":{"cluster":true,"cluster_id":185447,"point_count":3,"point_count_abbreviated":3},"geometry":{"type":"Point","coordinates":[-117.8704512119293,34.09671711216521]}},{"type":"Feature","id":110247,"properties":{"cluster":true,"cluster_id":110247,"point_count":3,"point_count_abbreviated":3},"geometry":{"type":"Point","coordinates":[-117.90290236473083,34.125311382755086]}},{"type":"Feature","id":162791,"properties":{"cluster":true,"cluster_id":162791,"point_count":2,"point_count_abbreviated":2},"geometry":{"type":"Point","coordinates":[-117.86824017763138,34.12350250493523]}},{"type":"Feature","geometry":{"type":"Point","coordinates":[-117.890619,34.109388]},"properties":{"listingKey":"20251003011038045447000000","listingId":"AR-25230458","listPrice":398000,"city":"Azusa","baths":1.5,"slug":"20251003011038045447000000","mlsSource":"CRMLS","propertyType":"A","propertySubType":"Condominium","livingArea":990,"associationFee":400,"unparsedAddress":"777 South Citrus Avenue, 119, Azusa, CA 91702"}},{"type":"Feature","id":115335,"properties":{"cluster":true,"cluster_id":115335,"point_count":3,"point_count_abbreviated":3},"geometry":{"type":"Point","coordinates":[-117.8641551733017,34.11451971357229]}},{"type":"Feature","id":131271,"properties":{"cluster":true,"cluster_id":131271,"point_count":4,"point_count_abbreviated":4},"geometry":{"type":"Point","coordinates":[-117.8836789727211,34.10937505187184]}},{"type":"Feature","geometry":{"type":"Point","coordinates":[-117.884122,34.116505]},"properties":{"listingKey":"20251105013004735478000000","listingId":"OC-25245846","listPrice":699900,"city":"Azusa","baths":2,"slug":"20251105013004735478000000","mlsSource":"CRMLS","propertyType":"A","propertySubType":"Single Family Residence","livingArea":1284,"associationFee":0,"unparsedAddress":"5724 North Galanto, Azusa, CA 91702"}},{"type":"Feature","geometry":{"type":"Point","coordinates":[-117.894446,34.104557]},"properties":{"listingKey":"20251115040134728277000000","listingId":"AR-25260984","listPrice":798000,"city":"Covina","baths":1.5,"slug":"20251115040134728277000000","mlsSource":"CRMLS","propertyType":"A","propertySubType":"Single Family Residence","livingArea":1637,"associationFee":0,"unparsedAddress":"1391 North Fenimore, Covina, CA 91722"}},{"type":"Feature","geometry":{"type":"Point","coordinates":[-117.879447,34.104315]},"properties":{"listingKey":"20251013160850540012000000","listingId":"PW-25238320","listPrice":4000,"city":"Covina","baths":2.5,"slug":"20251013160850540012000000","mlsSource":"CRMLS","propertyType":"B","propertySubType":"Single Family Residence","livingArea":2019,"unparsedAddress":"573 East Stephanie, Covina, CA 91722"}},{"type":"Feature","id":781353,"properties":{"cluster":true,"cluster_id":781353,"point_count":2,"point_count_abbreviated":2},"geometry":{"type":"Point","coordinates":[-117.8743851184845,34.116472382375576]}},{"type":"Feature","id":391175,"properties":{"cluster":true,"cluster_id":391175,"point_count":3,"point_count_abbreviated":3},"geometry":{"type":"Point","coordinates":[-117.88949489593504,34.117054177175746]}},{"type":"Feature","id":448679,"properties":{"cluster":true,"cluster_id":448679,"point_count":3,"point_count_abbreviated":3},"geometry":{"type":"Point","coordinates":[-117.89684772491456,34.1159379566533]}},{"type":"Feature","geometry":{"type":"Point","coordinates":[-117.879022,34.11877]},"properties":{"listingKey":"20251015220237486629000000","listingId":"TR-25240413","listPrice":799000,"city":"Glendora","baths":2,"slug":"20251015220237486629000000","mlsSource":"CRMLS","propertyType":"A","propertySubType":"Single Family Residence","livingArea":1562,"associationFee":0,"unparsedAddress":"1065 South Prospero, Glendora, CA 91740"}},{"type":"Feature","id":436199,"properties":{"cluster":true,"cluster_id":436199,"point_count":3,"point_count_abbreviated":3},"geometry":{"type":"Point","coordinates":[-117.86427497863771,34.121157715371496]}},{"type":"Feature","id":237161,"properties":{"cluster":true,"cluster_id":237161,"point_count":2,"point_count_abbreviated":2},"geometry":{"type":"Point","coordinates":[-117.90243029594421,34.10737188025472]}}]