[{"type":"Feature","id":657607,"properties":{"cluster":true,"cluster_id":657607,"point_count":2,"point_count_abbreviated":2},"geometry":{"type":"Point","coordinates":[-117.88998484611511,33.899442288304996]}},{"type":"Feature","geometry":{"type":"Point","coordinates":[-117.872679,33.898755]},"properties":{"listingKey":"20251003000928320281000000","listingId":"RS-25230652","listPrice":1200000,"city":"Fullerton","baths":2,"slug":"20251003000928320281000000","mlsSource":"CRMLS","propertyType":"A","propertySubType":"Single Family Residence","livingArea":1589,"associationFee":0,"unparsedAddress":"2454 Beacon Street, Fullerton, CA 92835"}},{"type":"Feature","id":124871,"properties":{"cluster":true,"cluster_id":124871,"point_count":3,"point_count_abbreviated":3},"geometry":{"type":"Point","coordinates":[-117.88519620895387,33.8925969415922]}},{"type":"Feature","geometry":{"type":"Point","coordinates":[-117.863279,33.893887]},"properties":{"listingKey":"20251120231435615140000000","listingId":"PW-25264005","listPrice":1639000,"city":"Placentia","baths":3,"slug":"20251120231435615140000000","mlsSource":"CRMLS","propertyType":"A","propertySubType":"Single Family Residence","livingArea":2779,"associationFee":0,"unparsedAddress":"1713 Roanoke St, Placentia, CA 92870"}},{"type":"Feature","id":325415,"properties":{"cluster":true,"cluster_id":325415,"point_count":9,"point_count_abbreviated":9},"geometry":{"type":"Point","coordinates":[-117.86345303058624,33.87065706056225]}},{"type":"Feature","geometry":{"type":"Point","coordinates":[-117.890368,33.891179]},"properties":{"listingKey":"20251015030326959389000000","listingId":"OC-25234322","listPrice":747500,"city":"Fullerton","baths":2.5,"slug":"20251015030326959389000000","mlsSource":"CRMLS","propertyType":"A","propertySubType":"Condominium","livingArea":1584,"associationFee":674,"unparsedAddress":"2246 Vista Del Sol, Fullerton, CA 92831"}},{"type":"Feature","id":100519,"properties":{"cluster":true,"cluster_id":100519,"point_count":9,"point_count_abbreviated":9},"geometry":{"type":"Point","coordinates":[-117.8972589969635,33.87262573439827]}},{"type":"Feature","id":531271,"properties":{"cluster":true,"cluster_id":531271,"point_count":3,"point_count_abbreviated":3},"geometry":{"type":"Point","coordinates":[-117.90153801441191,33.87256238913973]}},{"type":"Feature","geometry":{"type":"Point","coordinates":[-117.878295,33.886371]},"properties":{"listingKey":"20250827154857652609000000","listingId":"OC-25193048","listPrice":3950,"city":"Fullerton","baths":2,"slug":"20250827154857652609000000","mlsSource":"CRMLS","propertyType":"B","propertySubType":"Condominium","livingArea":1203,"unparsedAddress":"2915 Barrington Court, Fullerton, CA 92831"}},{"type":"Feature","geometry":{"type":"Point","coordinates":[-117.868586,33.882639]},"properties":{"listingKey":"20251014043656235078000000","listingId":"RS-25236052","listPrice":4500,"city":"Placentia","baths":3.5,"slug":"20251014043656235078000000","mlsSource":"CRMLS","propertyType":"B","propertySubType":"Single Family Residence","livingArea":2264,"unparsedAddress":"230 Tiger, Placentia, CA 92870"}},{"type":"Feature","id":137255,"properties":{"cluster":true,"cluster_id":137255,"point_count":6,"point_count_abbreviated":6},"geometry":{"type":"Point","coordinates":[-117.87152588367462,33.88811570263495]}},{"type":"Feature","geometry":{"type":"Point","coordinates":[-117.891566,33.881839]},"properties":{"listingKey":"20251118185348456668000000","listingId":"TR-25262060","listPrice":4750,"city":"Fullerton","baths":2,"slug":"20251118185348456668000000","mlsSource":"CRMLS","propertyType":"B","propertySubType":"Single Family Residence","livingArea":1834,"associationFee":0,"unparsedAddress":"1207 Sycamore, Fullerton, CA 92831"}},{"type":"Feature","id":518919,"properties":{"cluster":true,"cluster_id":518919,"point_count":2,"point_count_abbreviated":2},"geometry":{"type":"Point","coordinates":[-117.87207305431366,33.87644170461772]}},{"type":"Feature","geometry":{"type":"Point","coordinates":[-117.863527,33.877368]},"properties":{"listingKey":"20251007075151385630000000","listingId":"OC-25234066","listPrice":1950000,"city":"Placentia","baths":0,"slug":"20251007075151385630000000","mlsSource":"CRMLS","propertyType":"C","propertySubType":"Quadruplex","livingArea":3624,"unparsedAddress":"744 North Angelina, Placentia, CA 92870"}},{"type":"Feature","id":325127,"properties":{"cluster":true,"cluster_id":325127,"point_count":6,"point_count_abbreviated":6},"geometry":{"type":"Point","coordinates":[-117.88138568401337,33.90508052954175]}},{"type":"Feature","geometry":{"type":"Point","coordinates":[-117.901771,33.903485]},"properties":{"listingKey":"20251121022002249521000000","listingId":"PW-25263805","listPrice":1049000,"city":"Fullerton","baths":2,"slug":"20251121022002249521000000","mlsSource":"CRMLS","propertyType":"A","propertySubType":"Single Family Residence","livingArea":1636,"associationFee":0,"unparsedAddress":"1451 Rolling Hills, Fullerton, CA 92835"}}]