[{"type":"Feature","id":126855,"properties":{"cluster":true,"cluster_id":126855,"point_count":3,"point_count_abbreviated":3},"geometry":{"type":"Point","coordinates":[-117.8679209947586,33.7619939665812]}},{"type":"Feature","geometry":{"type":"Point","coordinates":[-117.899922,33.763755]},"properties":{"listingKey":"20250918085747547448000000","listingId":"OC-25218727","listPrice":5000,"city":"Santa Ana","baths":3,"slug":"20250918085747547448000000","mlsSource":"CRMLS","propertyType":"B","propertySubType":"Single Family Residence","livingArea":1423,"associationFee":0,"unparsedAddress":"2214 Edna Drive, Santa Ana, CA 92706"}},{"type":"Feature","id":515111,"properties":{"cluster":true,"cluster_id":515111,"point_count":2,"point_count_abbreviated":2},"geometry":{"type":"Point","coordinates":[-117.88752794265747,33.76473516802838]}},{"type":"Feature","geometry":{"type":"Point","coordinates":[-117.880592,33.763378]},"properties":{"listingKey":"20251007012449264342000000","listingId":"PW-25233599","listPrice":1350000,"city":"Santa Ana","baths":2,"slug":"20251007012449264342000000","mlsSource":"CRMLS","propertyType":"A","propertySubType":"Single Family Residence","livingArea":1891,"associationFee":0,"unparsedAddress":"1116 West 21st Street, Santa Ana, CA 92706"}},{"type":"Feature","id":193415,"properties":{"cluster":true,"cluster_id":193415,"point_count":2,"point_count_abbreviated":2},"geometry":{"type":"Point","coordinates":[-117.90261268615723,33.77216005365548]}},{"type":"Feature","geometry":{"type":"Point","coordinates":[-117.863966,33.773834]},"properties":{"listingKey":"20251017151519566140000000","listingId":"OC-25240064","listPrice":889000,"city":"Santa Ana","baths":2.5,"slug":"20251017151519566140000000","mlsSource":"CRMLS","propertyType":"A","propertySubType":"Townhouse","livingArea":2200,"associationFee":476,"unparsedAddress":"320 East Jeanette Lane, Santa Ana, CA 92705"}},{"type":"Feature","id":624871,"properties":{"cluster":true,"cluster_id":624871,"point_count":3,"point_count_abbreviated":3},"geometry":{"type":"Point","coordinates":[-117.87479460239412,33.774325709900566]}},{"type":"Feature","geometry":{"type":"Point","coordinates":[-117.879378,33.790632]},"properties":{"listingKey":"20250716012944575878000000","listingId":"NP-25159026","listPrice":899995,"city":"Orange","baths":2,"slug":"20250716012944575878000000","mlsSource":"CRMLS","propertyType":"A","propertySubType":"Single Family Residence","livingArea":1479,"associationFee":0,"unparsedAddress":"246 North Donneybrooke Street, Orange, CA 92868"}},{"type":"Feature","id":106631,"properties":{"cluster":true,"cluster_id":106631,"point_count":5,"point_count_abbreviated":5},"geometry":{"type":"Point","coordinates":[-117.86407148838042,33.79315762475811]}},{"type":"Feature","geometry":{"type":"Point","coordinates":[-117.878285,33.786198]},"properties":{"listingKey":"20251001050832257541000000","listingId":"RS-25209203","listPrice":4200,"city":"Orange","baths":2,"slug":"20251001050832257541000000","mlsSource":"CRMLS","propertyType":"B","propertySubType":"Single Family Residence","livingArea":1148,"associationFee":0,"unparsedAddress":"2345 ALMOND Avenue, Orange, CA 92868"}},{"type":"Feature","id":99303,"properties":{"cluster":true,"cluster_id":99303,"point_count":3,"point_count_abbreviated":3},"geometry":{"type":"Point","coordinates":[-117.86877214908598,33.78510115383409]}},{"type":"Feature","geometry":{"type":"Point","coordinates":[-117.902665,33.787691]},"properties":{"listingKey":"20251010232043674740000000","listingId":"OC-25237209","listPrice":1679999,"city":"Garden Grove","baths":0,"slug":"20251010232043674740000000","mlsSource":"CRMLS","propertyType":"C","propertySubType":"Quadruplex","livingArea":4014,"associationFee":0,"unparsedAddress":"12071 Laguna, Garden Grove, CA 92840"}}]