[{"type":"Feature","geometry":{"type":"Point","coordinates":[-117.330473,33.948984]},"properties":{"listingKey":"20251016001709506538000000","listingId":"DW-25238971","listPrice":690000,"city":"Riverside","baths":3,"slug":"20251016001709506538000000","mlsSource":"CRMLS","propertyType":"A","propertySubType":"Single Family Residence","livingArea":1966,"associationFee":0,"unparsedAddress":"5600 Via Junipero Serra, Riverside, CA 92506"}},{"type":"Feature","geometry":{"type":"Point","coordinates":[-117.327641,33.951305]},"properties":{"listingKey":"20250923145418941353000000","listingId":"OC-25221619","listPrice":689000,"city":"Riverside","baths":2,"slug":"20250923145418941353000000","mlsSource":"CRMLS","propertyType":"A","propertySubType":"Single Family Residence","livingArea":2250,"associationFee":430,"unparsedAddress":"718 Via La Paloma, Riverside, CA 92507"}},{"type":"Feature","geometry":{"type":"Point","coordinates":[-117.324642,33.947028]},"properties":{"listingKey":"20250822063739980756000000","listingId":"IV-25189409","listPrice":629000,"city":"Riverside","baths":2,"slug":"20250822063739980756000000","mlsSource":"CRMLS","propertyType":"A","propertySubType":"Single Family Residence","livingArea":1781,"associationFee":430,"unparsedAddress":"510 Via Zapata, Riverside, CA 92507"}},{"type":"Feature","id":207721,"properties":{"cluster":true,"cluster_id":207721,"point_count":2,"point_count_abbreviated":2},"geometry":{"type":"Point","coordinates":[-117.32472002506256,33.95190403102974]}},{"type":"Feature","geometry":{"type":"Point","coordinates":[-117.331299,33.951012]},"properties":{"listingKey":"20250820062656057500000000","listingId":"IV-25187319","listPrice":2800,"city":"Riverside","baths":2,"slug":"20250820062656057500000000","mlsSource":"CRMLS","propertyType":"B","propertySubType":"Condominium","livingArea":1368,"unparsedAddress":"5555 Canyon Crest Drive, 3B, Riverside, CA 92507"}}]