[{"type":"Feature","geometry":{"type":"Point","coordinates":[-118.112026,34.54287]},"properties":{"listingKey":"20250920041710233406000000","listingId":"BB-25221381","listPrice":630000,"city":"Palmdale","baths":2.5,"slug":"20250920041710233406000000","mlsSource":"CRMLS","propertyType":"A","propertySubType":"Single Family Residence","livingArea":2045,"associationFee":0,"unparsedAddress":"36457 Harold 3rd Street, Palmdale, CA 93550"}},{"type":"Feature","geometry":{"type":"Point","coordinates":[-118.109898,34.556002]},"properties":{"listingKey":"20250915063039420471000000","listingId":"DW-25217242","listPrice":130000,"city":"Palmdale","baths":2,"slug":"20250915063039420471000000","mlsSource":"CRMLS","propertyType":"A","propertySubType":"Manufactured On Land","livingArea":1213,"associationFee":650,"unparsedAddress":"1030 East Avenue S, 115, Palmdale, CA 93550"}},{"type":"Feature","id":227302,"properties":{"cluster":true,"cluster_id":227302,"point_count":2,"point_count_abbreviated":2},"geometry":{"type":"Point","coordinates":[-118.10244798660278,34.56385453237962]}},{"type":"Feature","id":236518,"properties":{"cluster":true,"cluster_id":236518,"point_count":2,"point_count_abbreviated":2},"geometry":{"type":"Point","coordinates":[-118.09689581394196,34.57878457308135]}},{"type":"Feature","geometry":{"type":"Point","coordinates":[-118.088182,34.567456]},"properties":{"listingKey":"20251007014025211511000000","listingId":"OC-25233551","listPrice":475000,"city":"Palmdale","baths":3,"slug":"20251007014025211511000000","mlsSource":"CRMLS","propertyType":"A","propertySubType":"Single Family Residence","livingArea":1522,"associationFee":138,"unparsedAddress":"2309 Gregory Avenue, Palmdale, CA 93550"}},{"type":"Feature","geometry":{"type":"Point","coordinates":[-118.082441,34.528449]},"properties":{"listingKey":"20250930045349505531000000","listingId":"BB-25226882","listPrice":989000,"city":"Palmdale","baths":3,"slug":"20250930045349505531000000","mlsSource":"CRMLS","propertyType":"A","propertySubType":"Single Family Residence","livingArea":3085,"associationFee":0,"unparsedAddress":"2575 Rale Drive, Palmdale, CA 93550"}},{"type":"Feature","geometry":{"type":"Point","coordinates":[-118.075841,34.547098]},"properties":{"listingKey":"20250811062857015859000000","listingId":"DW-25180392","listPrice":545000,"city":"Palmdale","baths":2.5,"slug":"20250811062857015859000000","mlsSource":"CRMLS","propertyType":"A","propertySubType":"Single Family Residence","livingArea":1824,"associationFee":0,"unparsedAddress":"36628 30th Street East, Palmdale, CA 93550"}},{"type":"Feature","geometry":{"type":"Point","coordinates":[-118.073408,34.569687]},"properties":{"listingKey":"20251120213445609089000000","listingId":"RS-25263867","listPrice":449000,"city":"Palmdale","baths":2,"slug":"20251120213445609089000000","mlsSource":"CRMLS","propertyType":"A","propertySubType":"Single Family Residence","livingArea":1417,"associationFee":0,"unparsedAddress":"3110 Viana Dr, Palmdale, CA 93550"}},{"type":"Feature","id":238662,"properties":{"cluster":true,"cluster_id":238662,"point_count":3,"point_count_abbreviated":3},"geometry":{"type":"Point","coordinates":[-118.08238506317139,34.57342243504803]}},{"type":"Feature","id":131911,"properties":{"cluster":true,"cluster_id":131911,"point_count":2,"point_count_abbreviated":2},"geometry":{"type":"Point","coordinates":[-118.06243479251862,34.56815271534228]}},{"type":"Feature","geometry":{"type":"Point","coordinates":[-118.05541,34.561124]},"properties":{"listingKey":"20251010024701183775000000","listingId":"CV-25236694","listPrice":514999,"city":"Palmdale","baths":3,"slug":"20251010024701183775000000","mlsSource":"CRMLS","propertyType":"A","propertySubType":"Single Family Residence","livingArea":1925,"associationFee":0,"unparsedAddress":"4117 East Avenue R13, Palmdale, CA 93552"}},{"type":"Feature","id":148712,"properties":{"cluster":true,"cluster_id":148712,"point_count":2,"point_count_abbreviated":2},"geometry":{"type":"Point","coordinates":[-118.03900837898254,34.574566445744594]}},{"type":"Feature","id":232806,"properties":{"cluster":true,"cluster_id":232806,"point_count":5,"point_count_abbreviated":5},"geometry":{"type":"Point","coordinates":[-118.07348442077637,34.55370940966948]}},{"type":"Feature","geometry":{"type":"Point","coordinates":[-118.064107,34.58216]},"properties":{"listingKey":"20250904041634379062000000","listingId":"DW-25198418","listPrice":405900,"city":"Palmdale","baths":2,"slug":"20250904041634379062000000","mlsSource":"CRMLS","propertyType":"A","propertySubType":"Single Family Residence","livingArea":1141,"associationFee":0,"unparsedAddress":"38466 Landon Avenue, Palmdale, CA 93550"}},{"type":"Feature","id":240390,"properties":{"cluster":true,"cluster_id":240390,"point_count":3,"point_count_abbreviated":3},"geometry":{"type":"Point","coordinates":[-118.04631471633911,34.566372508240065]}},{"type":"Feature","id":86470,"properties":{"cluster":true,"cluster_id":86470,"point_count":7,"point_count_abbreviated":7},"geometry":{"type":"Point","coordinates":[-118.12244270529065,34.58321889709201]}},{"type":"Feature","id":322407,"properties":{"cluster":true,"cluster_id":322407,"point_count":2,"point_count_abbreviated":2},"geometry":{"type":"Point","coordinates":[-118.1201720237732,34.56583357946846]}}]