[{"type":"Feature","geometry":{"type":"Point","coordinates":[-118.528188,34.18282]},"properties":{"listingKey":"20251030035243353383000000","listingId":"BB-25250223","listPrice":4850,"city":"Tarzana","baths":2,"slug":"20251030035243353383000000","mlsSource":"CRMLS","propertyType":"B","propertySubType":"Single Family Residence","livingArea":2128,"associationFee":0,"unparsedAddress":"18123 Delano Street, Tarzana, CA 91335"}},{"type":"Feature","id":222920,"properties":{"cluster":true,"cluster_id":222920,"point_count":2,"point_count_abbreviated":2},"geometry":{"type":"Point","coordinates":[-118.5270819067955,34.19640275375983]}},{"type":"Feature","geometry":{"type":"Point","coordinates":[-118.522074,34.187255]},"properties":{"listingKey":"20250925013030766471000000","listingId":"GD-25224742","listPrice":970000,"city":"Reseda","baths":2.5,"slug":"20250925013030766471000000","mlsSource":"CRMLS","propertyType":"A","propertySubType":"Single Family Residence","livingArea":1123,"associationFee":0,"unparsedAddress":"6413 Jamieson Avenue, Reseda, CA 91335"}},{"type":"Feature","geometry":{"type":"Point","coordinates":[-118.53975,34.191271]},"properties":{"listingKey":"20250920042059236166000000","listingId":"GD-25221679","listPrice":989500,"city":"Reseda","baths":2.25,"slug":"20250920042059236166000000","mlsSource":"CRMLS","propertyType":"A","propertySubType":"Single Family Residence","livingArea":1206,"associationFee":0,"unparsedAddress":"6637 Capps Avenue, Reseda, CA 91335"}},{"type":"Feature","id":181513,"properties":{"cluster":true,"cluster_id":181513,"point_count":2,"point_count_abbreviated":2},"geometry":{"type":"Point","coordinates":[-118.5412734746933,34.195865875626026]}},{"type":"Feature","geometry":{"type":"Point","coordinates":[-118.536678,34.189707]},"properties":{"listingKey":"20251007005546866247000000","listingId":"GD-25233283","listPrice":550000,"city":"Reseda","baths":2,"slug":"20251007005546866247000000","mlsSource":"CRMLS","propertyType":"A","propertySubType":"Condominium","livingArea":967,"associationFee":600,"unparsedAddress":"6545 Reseda, 17, Reseda, CA 91335"}}]