[{"type":"Feature","geometry":{"type":"Point","coordinates":[-122.085572,37.997105]},"properties":{"listingKey":"20251030195742651928000000","listingId":"01-41116231","listPrice":689000,"city":"Martinez","baths":2,"slug":"20251030195742651928000000","mlsSource":"CRMLS","propertyType":"A","propertySubType":"Townhouse","livingArea":1554,"associationFee":180,"unparsedAddress":"2414 Heatherleaf Ln, Martinez, CA 94553"}},{"type":"Feature","geometry":{"type":"Point","coordinates":[-122.082586,37.997109]},"properties":{"listingKey":"20251110182526583896000000","listingId":"01-41117097","listPrice":689000,"city":"Martinez","baths":2.5,"slug":"20251110182526583896000000","mlsSource":"CRMLS","propertyType":"A","propertySubType":"Townhouse","livingArea":1515,"associationFee":180,"unparsedAddress":"2514 Fern Leaf Ln, Martinez, CA"}},{"type":"Feature","geometry":{"type":"Point","coordinates":[-122.090059,37.996491]},"properties":{"listingKey":"20251114065921550164000000","listingId":"01-41117449","listPrice":995000,"city":"Martinez","baths":2.5,"slug":"20251114065921550164000000","mlsSource":"CRMLS","propertyType":"A","propertySubType":"Single Family Residence","livingArea":2153,"associationFee":59,"unparsedAddress":"2214 Forsythia Way, Martinez, CA 94553"}},{"type":"Feature","geometry":{"type":"Point","coordinates":[-122.084684,38.002927]},"properties":{"listingKey":"20250627054547338039000000","listingId":"01-41102845","listPrice":750000,"city":"Martinez","baths":2.5,"slug":"20250627054547338039000000","mlsSource":"CRMLS","propertyType":"A","propertySubType":"Single Family Residence","livingArea":1582,"associationFee":198,"unparsedAddress":"663 Falling Star Drive, Martinez, CA 94553"}},{"type":"Feature","geometry":{"type":"Point","coordinates":[-122.083207,38.00265]},"properties":{"listingKey":"20251023211609608325000000","listingId":"01-41115628","listPrice":3600,"city":"Martinez","baths":2.5,"slug":"20251023211609608325000000","mlsSource":"CRMLS","propertyType":"B","propertySubType":"Single Family Residence","livingArea":1568,"unparsedAddress":"Little Valley Dr, Martinez, CA 94553"}},{"type":"Feature","geometry":{"type":"Point","coordinates":[-122.08699,37.996205]},"properties":{"listingKey":"20250912182515925785000000","listingId":"01-41111339","listPrice":1049000,"city":"Martinez","baths":3,"slug":"20250912182515925785000000","mlsSource":"CRMLS","propertyType":"A","propertySubType":"Single Family Residence","livingArea":1917,"associationFee":58,"unparsedAddress":"2207 Bridgeport Way, Martinez, CA 94553"}}]