[{"type":"Feature","geometry":{"type":"Point","coordinates":[-116.898718,33.744709]},"properties":{"listingKey":"20250623223649320078000000","listingId":"SW-25140727","listPrice":279000,"city":"Hemet","baths":2,"slug":"20250623223649320078000000","mlsSource":"CRMLS","propertyType":"A","propertySubType":"Manufactured On Land","livingArea":1920,"associationFee":50,"unparsedAddress":"43657 Walden Way, Hemet, CA 92544"}},{"type":"Feature","id":381864,"properties":{"cluster":true,"cluster_id":381864,"point_count":2,"point_count_abbreviated":2},"geometry":{"type":"Point","coordinates":[-116.91167861223221,33.75609205853371]}},{"type":"Feature","id":147496,"properties":{"cluster":true,"cluster_id":147496,"point_count":3,"point_count_abbreviated":3},"geometry":{"type":"Point","coordinates":[-116.9148373603821,33.75671646097334]}},{"type":"Feature","geometry":{"type":"Point","coordinates":[-116.911608,33.759176]},"properties":{"listingKey":"20251107002743256394000000","listingId":"SW-25255125","listPrice":429900,"city":"Hemet","baths":2,"slug":"20251107002743256394000000","mlsSource":"CRMLS","propertyType":"A","propertySubType":"Single Family Residence","livingArea":1133,"associationFee":0,"unparsedAddress":"42943 Masonic, Hemet, CA 92544"}},{"type":"Feature","geometry":{"type":"Point","coordinates":[-116.909981,33.754845]},"properties":{"listingKey":"20250729060639875245000000","listingId":"CV-25160121","listPrice":474950,"city":"Hemet","baths":2,"slug":"20250729060639875245000000","mlsSource":"CRMLS","propertyType":"A","propertySubType":"Single Family Residence","livingArea":2333,"associationFee":0,"unparsedAddress":"25265 Auld Avenue, Hemet, CA 92544"}},{"type":"Feature","geometry":{"type":"Point","coordinates":[-116.904112,33.753787]},"properties":{"listingKey":"20251006233142066187000000","listingId":"IG-25232722","listPrice":455000,"city":"Hemet","baths":2,"slug":"20251006233142066187000000","mlsSource":"CRMLS","propertyType":"A","propertySubType":"Single Family Residence","livingArea":1397,"associationFee":0,"unparsedAddress":"25306 Howard, Hemet, CA 92544"}},{"type":"Feature","id":151433,"properties":{"cluster":true,"cluster_id":151433,"point_count":2,"point_count_abbreviated":2},"geometry":{"type":"Point","coordinates":[-116.90765261650085,33.75063726383415]}},{"type":"Feature","id":158696,"properties":{"cluster":true,"cluster_id":158696,"point_count":5,"point_count_abbreviated":5},"geometry":{"type":"Point","coordinates":[-116.90025830268861,33.75850757873715]}},{"type":"Feature","geometry":{"type":"Point","coordinates":[-116.897381,33.756398]},"properties":{"listingKey":"20250825214700006169000000","listingId":"CV-25191208","listPrice":419000,"city":"Hemet","baths":2,"slug":"20250825214700006169000000","mlsSource":"CRMLS","propertyType":"A","propertySubType":"Single Family Residence","livingArea":1456,"associationFee":0,"unparsedAddress":"43771 Applewood Street, Hemet, CA 92544"}},{"type":"Feature","id":396169,"properties":{"cluster":true,"cluster_id":396169,"point_count":2,"point_count_abbreviated":2},"geometry":{"type":"Point","coordinates":[-116.89453393220901,33.753456138114245]}},{"type":"Feature","id":115080,"properties":{"cluster":true,"cluster_id":115080,"point_count":4,"point_count_abbreviated":4},"geometry":{"type":"Point","coordinates":[-116.90210714936256,33.74500369787387]}}]