[{"type":"Feature","geometry":{"type":"Point","coordinates":[-117.228817,33.643935]},"properties":{"listingKey":"20250703110155644264000000","listingId":"SW-25148975","listPrice":385000,"city":"Wildomar","baths":2,"slug":"20250703110155644264000000","mlsSource":"CRMLS","propertyType":"A","propertySubType":"Manufactured On Land","livingArea":1456,"associationFee":0,"unparsedAddress":"24691 Carl Road, Wildomar, CA 92595"}},{"type":"Feature","geometry":{"type":"Point","coordinates":[-117.212126,33.644654]},"properties":{"listingKey":"20251110050052920988000000","listingId":"SW-25257038","listPrice":1249000,"city":"Menifee","baths":3,"slug":"20251110050052920988000000","mlsSource":"CRMLS","propertyType":"A","propertySubType":"Single Family Residence","livingArea":2800,"associationFee":0,"unparsedAddress":"25681 Waldon, Menifee, CA 92584"}},{"type":"Feature","id":386088,"properties":{"cluster":true,"cluster_id":386088,"point_count":4,"point_count_abbreviated":4},"geometry":{"type":"Point","coordinates":[-117.23274573683739,33.63575634232298]}},{"type":"Feature","id":293159,"properties":{"cluster":true,"cluster_id":293159,"point_count":2,"point_count_abbreviated":2},"geometry":{"type":"Point","coordinates":[-117.22733169794083,33.634992604332425]}},{"type":"Feature","geometry":{"type":"Point","coordinates":[-117.233484,33.630633]},"properties":{"listingKey":"20251104204842744182000000","listingId":"SW-25253643","listPrice":4500,"city":"Winchester","baths":2,"slug":"20251104204842744182000000","mlsSource":"CRMLS","propertyType":"B","propertySubType":"Single Family Residence","livingArea":2040,"associationFee":0,"unparsedAddress":"24466 Citrus Hill, Winchester, CA 92595"}},{"type":"Feature","geometry":{"type":"Point","coordinates":[-117.225283,33.620673]},"properties":{"listingKey":"20250904030408008738000000","listingId":"SW-25198472","listPrice":3595,"city":"Wildomar","baths":3,"slug":"20250904030408008738000000","mlsSource":"CRMLS","propertyType":"B","propertySubType":"Manufactured On Land","livingArea":2036,"unparsedAddress":"34793 The Farm Road, Wildomar, CA 92595"}},{"type":"Feature","id":141831,"properties":{"cluster":true,"cluster_id":141831,"point_count":8,"point_count_abbreviated":8},"geometry":{"type":"Point","coordinates":[-117.22988247871399,33.627564787509954]}}]