[{"type":"Feature","id":240999,"properties":{"cluster":true,"cluster_id":240999,"point_count":2,"point_count_abbreviated":2},"geometry":{"type":"Point","coordinates":[-117.21773207187653,32.983940566350725]}},{"type":"Feature","geometry":{"type":"Point","coordinates":[-117.215068,32.970453]},"properties":{"listingKey":"20251101014918579061000000","listingId":"8N-2510464","listPrice":6895000,"city":"San Diego","baths":6,"slug":"20251101014918579061000000","mlsSource":"CRMLS","propertyType":"A","propertySubType":"Single Family Residence","livingArea":8128,"associationFee":800,"unparsedAddress":"4860 Rancho Verde Trail, San Diego, CA 92130"}},{"type":"Feature","id":235527,"properties":{"cluster":true,"cluster_id":235527,"point_count":2,"point_count_abbreviated":2},"geometry":{"type":"Point","coordinates":[-117.21365511417389,32.95604191076782]}},{"type":"Feature","geometry":{"type":"Point","coordinates":[-117.229504,32.973415]},"properties":{"listingKey":"20250729070325475255000000","listingId":"8N-2507402","listPrice":33000,"city":"San Diego","baths":6.5,"slug":"20250729070325475255000000","mlsSource":"CRMLS","propertyType":"B","propertySubType":"Single Family Residence","livingArea":11758,"unparsedAddress":"4130 Rancho Las Brisas Trl, San Diego, CA 92130"}},{"type":"Feature","geometry":{"type":"Point","coordinates":[-117.235541,32.959767]},"properties":{"listingKey":"20251023031317623836000000","listingId":"8N-2510190","listPrice":839000,"city":"San Diego","baths":2,"slug":"20251023031317623836000000","mlsSource":"CRMLS","propertyType":"A","propertySubType":"Condominium","livingArea":1087,"associationFee":320,"unparsedAddress":"13398 Tiverton Road, San Diego, CA 92130"}},{"type":"Feature","geometry":{"type":"Point","coordinates":[-117.22697,32.990094]},"properties":{"listingKey":"20251120214821599644000000","listingId":"ND-25259283","listPrice":50000,"city":"Del Mar","baths":5,"slug":"20251120214821599644000000","mlsSource":"CRMLS","propertyType":"B","propertySubType":"Single Family Residence","livingArea":4200,"associationFee":0,"unparsedAddress":"4874 Sun Valley Rd., Del Mar, CA 92014"}},{"type":"Feature","geometry":{"type":"Point","coordinates":[-117.23186,32.984059]},"properties":{"listingKey":"20251101191520037556000000","listingId":"8N-2510474","listPrice":15000,"city":"Del Mar","baths":3.5,"slug":"20251101191520037556000000","mlsSource":"CRMLS","propertyType":"B","propertySubType":"Single Family Residence","livingArea":4366,"unparsedAddress":"4628 Rancho Reposo, Del Mar, CA 92014"}},{"type":"Feature","id":201255,"properties":{"cluster":true,"cluster_id":201255,"point_count":3,"point_count_abbreviated":3},"geometry":{"type":"Point","coordinates":[-117.23650932312013,32.954958610578444]}}]