[{"type":"Feature","geometry":{"type":"Point","coordinates":[-116.825345,34.244493]},"properties":{"listingKey":"20250729060627261339000000","listingId":"IG-25169171","listPrice":290000,"baths":1,"slug":"20250729060627261339000000","mlsSource":"CRMLS","propertyType":"A","propertySubType":"Single Family Residence","livingArea":598,"associationFee":0,"unparsedAddress":"428 Maple Lane, CA 92386"}},{"type":"Feature","geometry":{"type":"Point","coordinates":[-116.818565,34.243889]},"properties":{"listingKey":"20251023234941067664000000","listingId":"IG-25245860","listPrice":1625000,"city":"Big Bear City","baths":3,"slug":"20251023234941067664000000","mlsSource":"CRMLS","propertyType":"A","propertySubType":"Single Family Residence","livingArea":3184,"associationFee":0,"unparsedAddress":"1605 Shenandoah Way, Big Bear City, CA 92314"}},{"type":"Feature","geometry":{"type":"Point","coordinates":[-116.824682,34.246646]},"properties":{"listingKey":"20250726091019343957000000","listingId":"IG-25167029","listPrice":324999,"baths":1,"slug":"20250726091019343957000000","mlsSource":"CRMLS","propertyType":"A","propertySubType":"Single Family Residence","livingArea":932,"associationFee":0,"unparsedAddress":"316 Cedar Lane, CA 92386"}},{"type":"Feature","geometry":{"type":"Point","coordinates":[-116.82659,34.246557]},"properties":{"listingKey":"20251004022217350828000000","listingId":"IG-25232378","listPrice":349900,"baths":1,"slug":"20251004022217350828000000","mlsSource":"CRMLS","propertyType":"A","propertySubType":"Cabin","livingArea":1076,"associationFee":0,"unparsedAddress":"317 Moreno, CA 92386"}},{"type":"Feature","geometry":{"type":"Point","coordinates":[-116.823486,34.247476]},"properties":{"listingKey":"20250921224250899775000000","listingId":"IG-25219429","listPrice":299000,"baths":1,"slug":"20250921224250899775000000","mlsSource":"CRMLS","propertyType":"A","propertySubType":"Single Family Residence","livingArea":774,"associationFee":0,"unparsedAddress":"267 Spruce Lane, CA 92386"}},{"type":"Feature","id":159017,"properties":{"cluster":true,"cluster_id":159017,"point_count":2,"point_count_abbreviated":2},"geometry":{"type":"Point","coordinates":[-116.82554483413696,34.24993584074623]}},{"type":"Feature","geometry":{"type":"Point","coordinates":[-116.823521,34.246048]},"properties":{"listingKey":"20251101015750363448000000","listingId":"CV-25251106","listPrice":279999,"baths":1,"slug":"20251101015750363448000000","mlsSource":"CRMLS","propertyType":"A","propertySubType":"Cabin","livingArea":720,"associationFee":0,"unparsedAddress":"347 Spruce Lane, CA 92386"}}]