[{"type":"Feature","geometry":{"type":"Point","coordinates":[-122.201337,39.951657]},"properties":{"listingKey":"20251112035125502547000000","listingId":"SN-25258694","listPrice":349000,"city":"Corning","baths":2,"slug":"20251112035125502547000000","mlsSource":"CRMLS","propertyType":"A","propertySubType":"Manufactured On Land","livingArea":1536,"associationFee":0,"unparsedAddress":"5287 Barham Avenue, Corning, CA 96021"}},{"type":"Feature","id":189190,"properties":{"cluster":true,"cluster_id":189190,"point_count":7,"point_count_abbreviated":7},"geometry":{"type":"Point","coordinates":[-122.17905240399496,39.924730135675105]}},{"type":"Feature","geometry":{"type":"Point","coordinates":[-122.197543,39.921421]},"properties":{"listingKey":"20250628095703915782000000","listingId":"SN-25144552","listPrice":450000,"city":"Corning","baths":2,"slug":"20250628095703915782000000","mlsSource":"CRMLS","propertyType":"A","propertySubType":"Single Family Residence","livingArea":1512,"associationFee":0,"unparsedAddress":"1560 HWY 99 W, Corning, CA 96021"}},{"type":"Feature","geometry":{"type":"Point","coordinates":[-122.23385,39.947551]},"properties":{"listingKey":"20251007032315957474000000","listingId":"SN-25230245","listPrice":659000,"city":"Corning","baths":2.5,"slug":"20251007032315957474000000","mlsSource":"CRMLS","propertyType":"A","propertySubType":"Single Family Residence","livingArea":1949,"associationFee":0,"unparsedAddress":"21550 Leaf Avenue, Corning, CA 96021"}},{"type":"Feature","geometry":{"type":"Point","coordinates":[-122.19213,39.93141]},"properties":{"listingKey":"20250801065415199785000000","listingId":"SN-25171179","listPrice":339000,"city":"Corning","baths":2,"slug":"20250801065415199785000000","mlsSource":"CRMLS","propertyType":"A","propertySubType":"Single Family Residence","livingArea":1152,"associationFee":0,"unparsedAddress":"1980 Colusa Street, Corning, CA 96021"}},{"type":"Feature","geometry":{"type":"Point","coordinates":[-122.204374,39.93128]},"properties":{"listingKey":"20251119230119296682000000","listingId":"SN-25263272","listPrice":410000,"city":"Corning","baths":2,"slug":"20251119230119296682000000","mlsSource":"CRMLS","propertyType":"A","propertySubType":"Manufactured On Land","livingArea":1782,"associationFee":0,"unparsedAddress":"22319 O, Corning, CA 96021"}},{"type":"Feature","geometry":{"type":"Point","coordinates":[-122.170676,39.914341]},"properties":{"listingKey":"20251002043223577003000000","listingId":"SN-25229631","listPrice":550000,"city":"Corning","baths":2,"slug":"20251002043223577003000000","mlsSource":"CRMLS","propertyType":"A","propertySubType":"Single Family Residence","livingArea":1667,"associationFee":0,"unparsedAddress":"4019 Marguerite Avenue, Corning, CA 96021"}},{"type":"Feature","geometry":{"type":"Point","coordinates":[-122.170063,39.924099]},"properties":{"listingKey":"20251027064430625831000000","listingId":"SN-25247804","listPrice":347000,"city":"Corning","baths":2,"slug":"20251027064430625831000000","mlsSource":"CRMLS","propertyType":"A","propertySubType":"Single Family Residence","livingArea":1329,"associationFee":0,"unparsedAddress":"1165 Fig, Corning, CA 96021"}},{"type":"Feature","id":194566,"properties":{"cluster":true,"cluster_id":194566,"point_count":4,"point_count_abbreviated":4},"geometry":{"type":"Point","coordinates":[-122.16923743486404,39.93169551076417]}}]