[{"type":"Feature","id":195654,"properties":{"cluster":true,"cluster_id":195654,"point_count":3,"point_count_abbreviated":3},"geometry":{"type":"Point","coordinates":[-122.24410951137541,38.13184482598581]}},{"type":"Feature","id":293351,"properties":{"cluster":true,"cluster_id":293351,"point_count":2,"point_count_abbreviated":2},"geometry":{"type":"Point","coordinates":[-122.22968637943268,38.11904000562302]}},{"type":"Feature","id":218310,"properties":{"cluster":true,"cluster_id":218310,"point_count":5,"point_count_abbreviated":5},"geometry":{"type":"Point","coordinates":[-122.22233605384827,38.1071401864173]}},{"type":"Feature","id":103686,"properties":{"cluster":true,"cluster_id":103686,"point_count":4,"point_count_abbreviated":4},"geometry":{"type":"Point","coordinates":[-122.24159941077232,38.10596208580091]}},{"type":"Feature","id":66214,"properties":{"cluster":true,"cluster_id":66214,"point_count":3,"point_count_abbreviated":3},"geometry":{"type":"Point","coordinates":[-122.16886639595033,38.07198344731688]}},{"type":"Feature","geometry":{"type":"Point","coordinates":[-122.237779,38.077337]},"properties":{"listingKey":"20250905055730637799000000","listingId":"01-41110483","listPrice":389000,"city":"Vallejo","baths":2.5,"slug":"20250905055730637799000000","mlsSource":"CRMLS","propertyType":"A","propertySubType":"Condominium","livingArea":1464,"associationFee":703,"unparsedAddress":"219 Sea Crest Cir, Vallejo, CA 94590"}},{"type":"Feature","id":212998,"properties":{"cluster":true,"cluster_id":212998,"point_count":2,"point_count_abbreviated":2},"geometry":{"type":"Point","coordinates":[-122.21323639154434,38.08359736558046]}},{"type":"Feature","geometry":{"type":"Point","coordinates":[-122.241796,38.115476]},"properties":{"listingKey":"20251018192430861777000000","listingId":"01-41115203","listPrice":629000,"city":"Vallejo","baths":1,"slug":"20251018192430861777000000","mlsSource":"CRMLS","propertyType":"A","propertySubType":"Single Family Residence","livingArea":1466,"unparsedAddress":"121 Bella Vista Way, Vallejo, CA 94590"}},{"type":"Feature","geometry":{"type":"Point","coordinates":[-122.173256,38.080541]},"properties":{"listingKey":"20250928064129265317000000","listingId":"01-41112798","listPrice":3100,"city":"Benicia","baths":2.5,"slug":"20250928064129265317000000","mlsSource":"CRMLS","propertyType":"B","propertySubType":"Single Family Residence","livingArea":1461,"associationFee":175,"unparsedAddress":"555 Willow Ct, Benicia, CA 94510"}},{"type":"Feature","id":375559,"properties":{"cluster":true,"cluster_id":375559,"point_count":3,"point_count_abbreviated":3},"geometry":{"type":"Point","coordinates":[-122.21194982528685,38.12905139199799]}},{"type":"Feature","geometry":{"type":"Point","coordinates":[-122.206809,38.108962]},"properties":{"listingKey":"20251008172459352022000000","listingId":"01-41114089","listPrice":445000,"city":"Vallejo","baths":2.5,"slug":"20251008172459352022000000","mlsSource":"CRMLS","propertyType":"A","propertySubType":"Condominium","livingArea":1500,"associationFee":438,"unparsedAddress":"134 Nashville Lane, Vallejo, CA 94591"}},{"type":"Feature","geometry":{"type":"Point","coordinates":[-122.199857,38.115751]},"properties":{"listingKey":"20251001030227382502000000","listingId":"01-41113223","listPrice":620000,"city":"Vallejo","baths":2.5,"slug":"20251001030227382502000000","mlsSource":"CRMLS","propertyType":"A","propertySubType":"Single Family Residence","livingArea":1305,"unparsedAddress":"1218 Locust Dr, Vallejo, CA"}},{"type":"Feature","id":347846,"properties":{"cluster":true,"cluster_id":347846,"point_count":2,"point_count_abbreviated":2},"geometry":{"type":"Point","coordinates":[-122.19144880771637,38.0979267725761]}},{"type":"Feature","geometry":{"type":"Point","coordinates":[-122.21616,38.066931]},"properties":{"listingKey":"20250914163939421248000000","listingId":"01-41111575","listPrice":499000,"city":"Vallejo","baths":2,"slug":"20250914163939421248000000","mlsSource":"CRMLS","propertyType":"A","propertySubType":"Condominium","livingArea":989,"associationFee":600,"unparsedAddress":"611 Sea Ranch Ct, 6, Vallejo, CA 94591"}},{"type":"Feature","geometry":{"type":"Point","coordinates":[-122.234778,38.126484]},"properties":{"listingKey":"20251120172520257256000000","listingId":"01-41117653","listPrice":618000,"city":"Vallejo","baths":2,"slug":"20251120172520257256000000","mlsSource":"CRMLS","propertyType":"A","propertySubType":"Single Family Residence","livingArea":1976,"unparsedAddress":"1201 Valle Vista Ave, Vallejo, CA"}},{"type":"Feature","id":232710,"properties":{"cluster":true,"cluster_id":232710,"point_count":2,"point_count_abbreviated":2},"geometry":{"type":"Point","coordinates":[-122.22953885793686,38.09730619941723]}},{"type":"Feature","geometry":{"type":"Point","coordinates":[-122.255772,38.106344]},"properties":{"listingKey":"20251116014556098850000000","listingId":"01-41117591","listPrice":544900,"city":"Vallejo","baths":1,"slug":"20251116014556098850000000","mlsSource":"CRMLS","propertyType":"A","propertySubType":"Single Family Residence","livingArea":1015,"unparsedAddress":"620 Kentucky St, Vallejo, CA 94590"}}]