[{"type":"Feature","geometry":{"type":"Point","coordinates":[-122.249095,37.867072]},"properties":{"listingKey":"20251024042654649709000000","listingId":"01-41115691","listPrice":1650000,"city":"Berkeley","baths":2,"slug":"20251024042654649709000000","mlsSource":"CRMLS","propertyType":"A","propertySubType":"Single Family Residence","livingArea":1854,"unparsedAddress":"2420 Hillside Ave, Berkeley, CA"}},{"type":"Feature","id":398790,"properties":{"cluster":true,"cluster_id":398790,"point_count":5,"point_count_abbreviated":5},"geometry":{"type":"Point","coordinates":[-122.2037923336029,37.892857652048676]}},{"type":"Feature","geometry":{"type":"Point","coordinates":[-122.221518,37.85767]},"properties":{"listingKey":"20251026195505696955000000","listingId":"01-41115882","listPrice":400000,"city":"Oakland","baths":1,"slug":"20251026195505696955000000","mlsSource":"CRMLS","propertyType":"A","propertySubType":"Condominium","livingArea":773,"associationFee":791,"unparsedAddress":"280 Caldecott Ln, 221, Oakland, CA 94618"}},{"type":"Feature","id":602185,"properties":{"cluster":true,"cluster_id":602185,"point_count":2,"point_count_abbreviated":2},"geometry":{"type":"Point","coordinates":[-122.20308691263199,37.88228866461202]}},{"type":"Feature","id":460838,"properties":{"cluster":true,"cluster_id":460838,"point_count":3,"point_count_abbreviated":3},"geometry":{"type":"Point","coordinates":[-122.19545781612398,37.912259250248695]}},{"type":"Feature","id":430438,"properties":{"cluster":true,"cluster_id":430438,"point_count":2,"point_count_abbreviated":2},"geometry":{"type":"Point","coordinates":[-122.17172652482986,37.900255548538226]}},{"type":"Feature","geometry":{"type":"Point","coordinates":[-122.193426,37.900534]},"properties":{"listingKey":"20250819050313107091000000","listingId":"01-41108584","listPrice":4193000,"city":"Orinda","baths":4.5,"slug":"20250819050313107091000000","mlsSource":"CRMLS","propertyType":"A","propertySubType":"Single Family Residence","livingArea":5070,"unparsedAddress":"8 Oak Arbor Rd, Orinda, CA 94563"}},{"type":"Feature","id":160806,"properties":{"cluster":true,"cluster_id":160806,"point_count":3,"point_count_abbreviated":3},"geometry":{"type":"Point","coordinates":[-122.18439280986784,37.87407425562229]}},{"type":"Feature","id":419590,"properties":{"cluster":true,"cluster_id":419590,"point_count":3,"point_count_abbreviated":3},"geometry":{"type":"Point","coordinates":[-122.18516886234285,37.88999131059235]}},{"type":"Feature","id":604007,"properties":{"cluster":true,"cluster_id":604007,"point_count":3,"point_count_abbreviated":3},"geometry":{"type":"Point","coordinates":[-122.16824233531952,37.863137225732046]}}]