[{"type":"Feature","geometry":{"type":"Point","coordinates":[-119.362403,35.5926]},"properties":{"listingKey":"20251002170323818015000000","listingId":"PW-25229507","listPrice":529999,"city":"Wasco","baths":2.5,"slug":"20251002170323818015000000","mlsSource":"CRMLS","propertyType":"A","propertySubType":"Single Family Residence","livingArea":2806,"associationFee":0,"unparsedAddress":"901 Cabernet Drive, Wasco, CA 93280"}},{"type":"Feature","geometry":{"type":"Point","coordinates":[-119.238332,35.683223]},"properties":{"listingKey":"20251004020002719177000000","listingId":"NS-25228918","listPrice":410000,"city":"McFarland","baths":2,"slug":"20251004020002719177000000","mlsSource":"CRMLS","propertyType":"A","propertySubType":"Single Family Residence","livingArea":1394,"associationFee":0,"unparsedAddress":"733 Ensenata Drive, McFarland, CA 93250"}},{"type":"Feature","id":200038,"properties":{"cluster":true,"cluster_id":200038,"point_count":2,"point_count_abbreviated":2},"geometry":{"type":"Point","coordinates":[-119.23862904310226,35.78709685798894]}},{"type":"Feature","id":129988,"properties":{"cluster":true,"cluster_id":129988,"point_count":2,"point_count_abbreviated":2},"geometry":{"type":"Point","coordinates":[-119.08306896686554,35.571021799405244]}},{"type":"Feature","geometry":{"type":"Point","coordinates":[-119.27957,35.495564]},"properties":{"listingKey":"20250827184944814643000000","listingId":"IV-25192834","listPrice":315000,"city":"Shafter","baths":2,"slug":"20250827184944814643000000","mlsSource":"CRMLS","propertyType":"A","propertySubType":"Single Family Residence","livingArea":1288,"associationFee":0,"unparsedAddress":"164 Rodriguez Avenue, Shafter, CA 93263"}},{"type":"Feature","geometry":{"type":"Point","coordinates":[-119.253664,35.951878]},"properties":{"listingKey":"20251111221945403716000000","listingId":"FR-25258454","listPrice":640000,"baths":0,"slug":"20251111221945403716000000","mlsSource":"CRMLS","propertyType":"C","propertySubType":"Quadruplex","livingArea":2836,"associationFee":0,"unparsedAddress":"14398 Avenue 88, CA"}}]