[{"type":"Feature","geometry":{"type":"Point","coordinates":[-117.573315,33.870688]},"properties":{"listingKey":"20251023021242526149000000","listingId":"PW-25244897","listPrice":675000,"city":"Corona","baths":2,"slug":"20251023021242526149000000","mlsSource":"CRMLS","propertyType":"A","propertySubType":"Single Family Residence","livingArea":1200,"associationFee":0,"unparsedAddress":"526 West 11th, Corona, CA 92882"}},{"type":"Feature","id":165449,"properties":{"cluster":true,"cluster_id":165449,"point_count":3,"point_count_abbreviated":3},"geometry":{"type":"Point","coordinates":[-117.55615174770355,33.87315921838247]}},{"type":"Feature","geometry":{"type":"Point","coordinates":[-117.570227,33.877313]},"properties":{"listingKey":"20251016214024849136000000","listingId":"PW-25239996","listPrice":980000,"city":"Corona","baths":0,"slug":"20251016214024849136000000","mlsSource":"CRMLS","propertyType":"C","propertySubType":"Quadruplex","livingArea":2900,"associationFee":0,"unparsedAddress":"414 South Sheridan, Corona, CA 92882"}},{"type":"Feature","id":167177,"properties":{"cluster":true,"cluster_id":167177,"point_count":3,"point_count_abbreviated":3},"geometry":{"type":"Point","coordinates":[-117.55775570869446,33.87601859611222]}},{"type":"Feature","geometry":{"type":"Point","coordinates":[-117.553778,33.876607]},"properties":{"listingKey":"20250703082659488118000000","listingId":"IG-25145814","listPrice":585000,"city":"Corona","baths":1,"slug":"20250703082659488118000000","mlsSource":"CRMLS","propertyType":"A","propertySubType":"Single Family Residence","livingArea":1090,"associationFee":0,"unparsedAddress":"1063 Quarry Street, Corona, CA 92879"}},{"type":"Feature","geometry":{"type":"Point","coordinates":[-117.560924,33.872408]},"properties":{"listingKey":"20251027235030336727000000","listingId":"RS-25248348","listPrice":724900,"city":"Corona","baths":2,"slug":"20251027235030336727000000","mlsSource":"CRMLS","propertyType":"A","propertySubType":"Single Family Residence","livingArea":1700,"associationFee":0,"unparsedAddress":"520 East 8th Street, Corona, CA 92879"}},{"type":"Feature","id":823497,"properties":{"cluster":true,"cluster_id":823497,"point_count":2,"point_count_abbreviated":2},"geometry":{"type":"Point","coordinates":[-117.56271779537201,33.87696279326295]}}]