[{"type":"Feature","geometry":{"type":"Point","coordinates":[-117.012038,32.9593]},"properties":{"listingKey":"20251113210434767545000000","listingId":"8N-2510819","listPrice":1249500,"city":"Poway","baths":3,"slug":"20251113210434767545000000","mlsSource":"CRMLS","propertyType":"A","propertySubType":"Single Family Residence","livingArea":1891,"associationFee":0,"unparsedAddress":"13435 Frey Court, Poway, CA 92064"}},{"type":"Feature","id":460198,"properties":{"cluster":true,"cluster_id":460198,"point_count":2,"point_count_abbreviated":2},"geometry":{"type":"Point","coordinates":[-117.04790264368057,32.92181701503726]}},{"type":"Feature","geometry":{"type":"Point","coordinates":[-117.061633,32.921645]},"properties":{"listingKey":"20250806080008139399000000","listingId":"8N-2507711","listPrice":1399000,"city":"San Diego","baths":2.5,"slug":"20250806080008139399000000","mlsSource":"CRMLS","propertyType":"A","propertySubType":"Single Family Residence","livingArea":1924,"associationFee":110,"unparsedAddress":"11393 Vista Elevada, San Diego, CA 92131"}},{"type":"Feature","geometry":{"type":"Point","coordinates":[-117.065048,32.969047]},"properties":{"listingKey":"20251027174512637629000000","listingId":"8N-2510305","listPrice":1330000,"city":"Poway","baths":2,"slug":"20251027174512637629000000","mlsSource":"CRMLS","propertyType":"A","propertySubType":"Single Family Residence","livingArea":1761,"associationFee":0,"unparsedAddress":"12311 Witt Road, Poway, CA 92064"}},{"type":"Feature","id":268198,"properties":{"cluster":true,"cluster_id":268198,"point_count":4,"point_count_abbreviated":4},"geometry":{"type":"Point","coordinates":[-117.05566227436066,32.958542302958875]}},{"type":"Feature","geometry":{"type":"Point","coordinates":[-117.057524,32.987747]},"properties":{"listingKey":"20251111004945980926000000","listingId":"8P-2508475","listPrice":1095000,"city":"Poway","baths":2,"slug":"20251111004945980926000000","mlsSource":"CRMLS","propertyType":"A","propertySubType":"Single Family Residence","livingArea":1320,"associationFee":0,"unparsedAddress":"15103 Amso Street, Poway, CA 92064"}},{"type":"Feature","geometry":{"type":"Point","coordinates":[-117.03713,32.974984]},"properties":{"listingKey":"20250918212059546893000000","listingId":"8N-2509190","listPrice":2599000,"city":"Poway","baths":5,"slug":"20250918212059546893000000","mlsSource":"CRMLS","propertyType":"A","propertySubType":"Single Family Residence","livingArea":4113,"associationFee":0,"unparsedAddress":"14403 Gaslight Court, Poway, CA 92064"}},{"type":"Feature","geometry":{"type":"Point","coordinates":[-117.030026,32.957586]},"properties":{"listingKey":"20250629054656800954000000","listingId":"8P-2504854","listPrice":1094000,"city":"Poway","baths":3,"slug":"20250629054656800954000000","mlsSource":"CRMLS","propertyType":"A","propertySubType":"Single Family Residence","livingArea":1543,"associationFee":0,"unparsedAddress":"13255 Evanston Dr, Poway, CA 92064"}}]