[{"type":"Feature","geometry":{"type":"Point","coordinates":[-117.894307,34.129079]},"properties":{"listingKey":"20251017191956768347000000","listingId":"CV-25239357","listPrice":599000,"city":"Azusa","baths":3,"slug":"20251017191956768347000000","mlsSource":"CRMLS","propertyType":"A","propertySubType":"Condominium","livingArea":1521,"associationFee":420,"unparsedAddress":"750 East 5th Street, 51, Azusa, CA 91702"}},{"type":"Feature","geometry":{"type":"Point","coordinates":[-117.901228,34.126033]},"properties":{"listingKey":"20250919180918256687000000","listingId":"WS-25221068","listPrice":4800,"city":"Azusa","baths":1.5,"slug":"20250919180918256687000000","mlsSource":"CRMLS","propertyType":"B","propertySubType":"Single Family Residence","livingArea":2084,"associationFee":0,"unparsedAddress":"274 North Dominguez Pl, A, Azusa, CA 91702"}},{"type":"Feature","geometry":{"type":"Point","coordinates":[-117.904597,34.128728]},"properties":{"listingKey":"20251013050354633759000000","listingId":"PW-25238033","listPrice":3500,"city":"Azusa","baths":2.5,"slug":"20251013050354633759000000","mlsSource":"CRMLS","propertyType":"B","propertySubType":"Duplex","livingArea":1677,"associationFee":0,"unparsedAddress":"416 North Dalton, Azusa, CA 91702"}},{"type":"Feature","geometry":{"type":"Point","coordinates":[-117.904061,34.134128]},"properties":{"listingKey":"20250708170049987279000000","listingId":"CV-25152155","listPrice":1850,"city":"Azusa","baths":1,"slug":"20250708170049987279000000","mlsSource":"CRMLS","propertyType":"B","propertySubType":"Apartment","livingArea":588,"associationFee":0,"unparsedAddress":"711 North Soldano Avenue, 6, Azusa, CA 91702"}},{"type":"Feature","id":505737,"properties":{"cluster":true,"cluster_id":505737,"point_count":2,"point_count_abbreviated":2},"geometry":{"type":"Point","coordinates":[-117.89798319339752,34.12868479208906]}},{"type":"Feature","geometry":{"type":"Point","coordinates":[-117.900192,34.130055]},"properties":{"listingKey":"20251120151558536690000000","listingId":"CV-25263168","listPrice":770000,"city":"Azusa","baths":1.75,"slug":"20251120151558536690000000","mlsSource":"CRMLS","propertyType":"A","propertySubType":"Single Family Residence","livingArea":1232,"associationFee":0,"unparsedAddress":"503 North Cerritos, Azusa, CA 91702"}},{"type":"Feature","geometry":{"type":"Point","coordinates":[-117.897839,34.131439]},"properties":{"listingKey":"20251008194238299686000000","listingId":"AR-25235289","listPrice":1100000,"city":"Azusa","baths":0,"slug":"20251008194238299686000000","mlsSource":"CRMLS","propertyType":"C","propertySubType":"Apartment","livingArea":4080,"associationFee":0,"unparsedAddress":"620 East 6th, Azusa, CA 91702"}}]