[{"type":"Feature","geometry":{"type":"Point","coordinates":[-121.606847,39.82303]},"properties":{"listingKey":"20250920034944052949000000","listingId":"SN-25220422","listPrice":247000,"city":"Magalia","baths":2,"slug":"20250920034944052949000000","mlsSource":"CRMLS","propertyType":"A","propertySubType":"Single Family Residence","livingArea":1634,"associationFee":310,"unparsedAddress":"14211 Racine Circle, Magalia, CA 95954"}},{"type":"Feature","id":333928,"properties":{"cluster":true,"cluster_id":333928,"point_count":2,"point_count_abbreviated":2},"geometry":{"type":"Point","coordinates":[-121.60711348056793,39.82060916644633]}},{"type":"Feature","id":381705,"properties":{"cluster":true,"cluster_id":381705,"point_count":2,"point_count_abbreviated":2},"geometry":{"type":"Point","coordinates":[-121.6005152463913,39.80899345786651]}},{"type":"Feature","geometry":{"type":"Point","coordinates":[-121.601552,39.818391]},"properties":{"listingKey":"20251028162756636830000000","listingId":"SN-25246802","listPrice":269000,"city":"Magalia","baths":2,"slug":"20251028162756636830000000","mlsSource":"CRMLS","propertyType":"A","propertySubType":"Manufactured On Land","livingArea":1215,"associationFee":310,"unparsedAddress":"6309 Chatham Court, Magalia, CA 95954"}},{"type":"Feature","geometry":{"type":"Point","coordinates":[-121.601293,39.825344]},"properties":{"listingKey":"20251030195737112909000000","listingId":"SN-25249003","listPrice":319000,"city":"Magalia","baths":2,"slug":"20251030195737112909000000","mlsSource":"CRMLS","propertyType":"A","propertySubType":"Single Family Residence","livingArea":1370,"associationFee":310,"unparsedAddress":"14197 Elmira Circle, Magalia, CA 95954"}},{"type":"Feature","geometry":{"type":"Point","coordinates":[-121.598407,39.822477]},"properties":{"listingKey":"20250923041829223008000000","listingId":"PA-25222944","listPrice":305000,"city":"Magalia","baths":2,"slug":"20250923041829223008000000","mlsSource":"CRMLS","propertyType":"A","propertySubType":"Single Family Residence","livingArea":1598,"associationFee":310,"unparsedAddress":"14182 Norwich Circle, Magalia, CA 95954"}},{"type":"Feature","geometry":{"type":"Point","coordinates":[-121.597964,39.816326]},"properties":{"listingKey":"20251021223303773814000000","listingId":"SN-25243991","listPrice":288000,"city":"Magalia","baths":2,"slug":"20251021223303773814000000","mlsSource":"CRMLS","propertyType":"A","propertySubType":"Single Family Residence","livingArea":1493,"associationFee":310,"unparsedAddress":"13953 Carver, Magalia, CA 95954"}}]