[{"type":"Feature","geometry":{"type":"Point","coordinates":[-121.597529,39.766891]},"properties":{"listingKey":"20250916075312163933000000","listingId":"SN-25217267","listPrice":749000,"city":"Paradise","baths":3,"slug":"20250916075312163933000000","mlsSource":"CRMLS","propertyType":"A","propertySubType":"Single Family Residence","livingArea":3021,"associationFee":0,"unparsedAddress":"6090 Rossi Way, Paradise, CA 95969"}},{"type":"Feature","id":329000,"properties":{"cluster":true,"cluster_id":329000,"point_count":4,"point_count_abbreviated":4},"geometry":{"type":"Point","coordinates":[-121.6178771853447,39.774227321062455]}},{"type":"Feature","geometry":{"type":"Point","coordinates":[-121.612689,39.763285]},"properties":{"listingKey":"20250927042612456924000000","listingId":"SN-25226445","listPrice":232000,"city":"Paradise","baths":1.75,"slug":"20250927042612456924000000","mlsSource":"CRMLS","propertyType":"A","propertySubType":"Single Family Residence","livingArea":801,"associationFee":0,"unparsedAddress":"5985 Maxwell, Paradise, CA 95969"}},{"type":"Feature","geometry":{"type":"Point","coordinates":[-121.60445,39.764813]},"properties":{"listingKey":"20251118191916883925000000","listingId":"SN-25259337","listPrice":406000,"city":"Paradise","baths":0,"slug":"20251118191916883925000000","mlsSource":"CRMLS","propertyType":"C","propertySubType":"Duplex","livingArea":1827,"associationFee":0,"unparsedAddress":"1001 Brookwood Circle, Paradise, CA 95969"}},{"type":"Feature","geometry":{"type":"Point","coordinates":[-121.611412,39.766305]},"properties":{"listingKey":"20251112195236291665000000","listingId":"SN-25258957","listPrice":359000,"city":"Paradise","baths":2,"slug":"20251112195236291665000000","mlsSource":"CRMLS","propertyType":"A","propertySubType":"Single Family Residence","livingArea":1316,"associationFee":0,"unparsedAddress":"839 Central Park Drive, Paradise, CA 95969"}},{"type":"Feature","geometry":{"type":"Point","coordinates":[-121.603699,39.762786]},"properties":{"listingKey":"20250628140733579612000000","listingId":"SN-25144905","listPrice":2100000,"city":"Paradise","baths":0,"slug":"20250628140733579612000000","mlsSource":"CRMLS","propertyType":"C","propertySubType":"Commercial/Residential","livingArea":2200,"associationFee":0,"unparsedAddress":"6118 Clark, Paradise, CA 95969"}}]