[{"type":"Feature","id":415080,"properties":{"cluster":true,"cluster_id":415080,"point_count":2,"point_count_abbreviated":2},"geometry":{"type":"Point","coordinates":[-122.28532075881958,38.01225900558896]}},{"type":"Feature","geometry":{"type":"Point","coordinates":[-122.284636,38.001507]},"properties":{"listingKey":"20251029225559136595000000","listingId":"01-41116140","listPrice":719900,"city":"Pinole","baths":2,"slug":"20251029225559136595000000","mlsSource":"CRMLS","propertyType":"A","propertySubType":"Single Family Residence","livingArea":1299,"unparsedAddress":"2543 Francis Dr, Pinole, CA 94564"}},{"type":"Feature","id":369096,"properties":{"cluster":true,"cluster_id":369096,"point_count":2,"point_count_abbreviated":2},"geometry":{"type":"Point","coordinates":[-122.28140741586685,38.00869174236303]}},{"type":"Feature","geometry":{"type":"Point","coordinates":[-122.278264,38.010981]},"properties":{"listingKey":"20250923101503784703000000","listingId":"01-41112403","listPrice":3095,"city":"Hercules","baths":2,"slug":"20250923101503784703000000","mlsSource":"CRMLS","propertyType":"B","propertySubType":"Condominium","livingArea":1011,"unparsedAddress":"1202 Devonwood, Hercules, CA 94547"}},{"type":"Feature","geometry":{"type":"Point","coordinates":[-122.283793,38.004065]},"properties":{"listingKey":"20251003203321977704000000","listingId":"01-41113700","listPrice":714900,"city":"Pinole","baths":2,"slug":"20251003203321977704000000","mlsSource":"CRMLS","propertyType":"A","propertySubType":"Single Family Residence","livingArea":1096,"unparsedAddress":"2615 Henry Ave, Pinole, CA 94564"}},{"type":"Feature","id":638632,"properties":{"cluster":true,"cluster_id":638632,"point_count":2,"point_count_abbreviated":2},"geometry":{"type":"Point","coordinates":[-122.29757577180862,38.00189063761803]}},{"type":"Feature","id":784297,"properties":{"cluster":true,"cluster_id":784297,"point_count":2,"point_count_abbreviated":2},"geometry":{"type":"Point","coordinates":[-122.2887110710144,38.00743216956917]}},{"type":"Feature","geometry":{"type":"Point","coordinates":[-122.298692,38.005755]},"properties":{"listingKey":"20251014113659885345000000","listingId":"01-41114641","listPrice":675000,"city":"Pinole","baths":2.5,"slug":"20251014113659885345000000","mlsSource":"CRMLS","propertyType":"A","propertySubType":"Townhouse","livingArea":1800,"associationFee":478,"unparsedAddress":"624 Primrose Ter, Pinole, CA 94564"}},{"type":"Feature","id":625672,"properties":{"cluster":true,"cluster_id":625672,"point_count":2,"point_count_abbreviated":2},"geometry":{"type":"Point","coordinates":[-122.29540318250656,38.00585555970483]}},{"type":"Feature","geometry":{"type":"Point","coordinates":[-122.2955,38.008622]},"properties":{"listingKey":"20251027195208282262000000","listingId":"01-41115922","listPrice":629000,"city":"Pinole","baths":2,"slug":"20251027195208282262000000","mlsSource":"CRMLS","propertyType":"A","propertySubType":"Single Family Residence","livingArea":1308,"unparsedAddress":"362 Summit Ct, Pinole, CA 94564"}},{"type":"Feature","id":181480,"properties":{"cluster":true,"cluster_id":181480,"point_count":2,"point_count_abbreviated":2},"geometry":{"type":"Point","coordinates":[-122.2921872138977,38.00555545050102]}}]