[{"type":"Feature","geometry":{"type":"Point","coordinates":[-122.284573,37.851103]},"properties":{"listingKey":"20251031204910284518000000","listingId":"01-41116384","listPrice":735000,"city":"Berkeley","baths":1.5,"slug":"20251031204910284518000000","mlsSource":"CRMLS","propertyType":"A","propertySubType":"Single Family Residence","livingArea":938,"unparsedAddress":"1233 Haskell St, Berkeley, CA 94702"}},{"type":"Feature","geometry":{"type":"Point","coordinates":[-122.280431,37.851881]},"properties":{"listingKey":"20251016013520353536000000","listingId":"01-41114846","listPrice":945000,"city":"Berkeley","baths":2,"slug":"20251016013520353536000000","mlsSource":"CRMLS","propertyType":"A","propertySubType":"Single Family Residence","livingArea":1265,"unparsedAddress":"3036 Dohr St, Berkeley, CA 94702"}},{"type":"Feature","id":519497,"properties":{"cluster":true,"cluster_id":519497,"point_count":2,"point_count_abbreviated":2},"geometry":{"type":"Point","coordinates":[-122.28573381900787,37.84576140195172]}},{"type":"Feature","geometry":{"type":"Point","coordinates":[-122.288323,37.848706]},"properties":{"listingKey":"20250909215242401675000000","listingId":"01-41110918","listPrice":779000,"city":"Emeryville","baths":2.5,"slug":"20250909215242401675000000","mlsSource":"CRMLS","propertyType":"A","propertySubType":"Condominium","livingArea":1466,"associationFee":440,"unparsedAddress":"1220 66Th St, Emeryville, CA 94608"}},{"type":"Feature","geometry":{"type":"Point","coordinates":[-122.285815,37.8482]},"properties":{"listingKey":"20250907064550831389000000","listingId":"01-41110738","listPrice":2695,"city":"Oakland","baths":1.5,"slug":"20250907064550831389000000","mlsSource":"CRMLS","propertyType":"B","propertySubType":"Condominium","livingArea":1139,"unparsedAddress":"6501 San Pablo Ave, Oakland, CA 94608"}},{"type":"Feature","id":944489,"properties":{"cluster":true,"cluster_id":944489,"point_count":2,"point_count_abbreviated":2},"geometry":{"type":"Point","coordinates":[-122.28862524032593,37.84563855511038]}},{"type":"Feature","id":679017,"properties":{"cluster":true,"cluster_id":679017,"point_count":6,"point_count_abbreviated":6},"geometry":{"type":"Point","coordinates":[-122.28025764226912,37.85734903374919]}}]