[{"type":"Feature","geometry":{"type":"Point","coordinates":[-121.797121,38.008829]},"properties":{"listingKey":"20250915195841952033000000","listingId":"01-41111600","listPrice":564900,"city":"Antioch","baths":2,"slug":"20250915195841952033000000","mlsSource":"CRMLS","propertyType":"A","propertySubType":"Single Family Residence","livingArea":1222,"unparsedAddress":"1300 Cavallo Rd, Antioch, CA 94509"}},{"type":"Feature","geometry":{"type":"Point","coordinates":[-121.809339,38.00545]},"properties":{"listingKey":"20251114162202051883000000","listingId":"01-41117457","listPrice":399000,"city":"Antioch","baths":2,"slug":"20251114162202051883000000","mlsSource":"CRMLS","propertyType":"A","propertySubType":"Single Family Residence","livingArea":1155,"unparsedAddress":"209 West 17Th St, Antioch, CA 94509"}},{"type":"Feature","geometry":{"type":"Point","coordinates":[-121.796994,38.001345]},"properties":{"listingKey":"20251108195200322608000000","listingId":"01-41117036","listPrice":380000,"city":"Antioch","baths":1,"slug":"20251108195200322608000000","mlsSource":"CRMLS","propertyType":"A","propertySubType":"Single Family Residence","livingArea":912,"unparsedAddress":"2008 Cavallo Rd, Antioch, CA 94509"}},{"type":"Feature","geometry":{"type":"Point","coordinates":[-121.803854,38.009085]},"properties":{"listingKey":"20251016173922548063000000","listingId":"01-41114899","listPrice":519999,"city":"Antioch","baths":2,"slug":"20251016173922548063000000","mlsSource":"CRMLS","propertyType":"A","propertySubType":"Single Family Residence","livingArea":1123,"unparsedAddress":"45 East 13th St, Antioch, CA 94509"}},{"type":"Feature","geometry":{"type":"Point","coordinates":[-121.799655,38.011583]},"properties":{"listingKey":"20251016211906107983000000","listingId":"01-41114949","listPrice":975000,"city":"Antioch","baths":0,"slug":"20251016211906107983000000","mlsSource":"CRMLS","propertyType":"C","propertySubType":"Quadruplex","associationFee":0,"unparsedAddress":"914 Marie Ave, Antioch, CA 94509"}},{"type":"Feature","geometry":{"type":"Point","coordinates":[-121.800369,38.003135]},"properties":{"listingKey":"20251102184857773200000000","listingId":"01-41116502","listPrice":568000,"city":"Antioch","baths":2,"slug":"20251102184857773200000000","mlsSource":"CRMLS","propertyType":"A","propertySubType":"Single Family Residence","livingArea":1696,"unparsedAddress":"1925 Alpha Way, Antioch, CA 94509"}},{"type":"Feature","geometry":{"type":"Point","coordinates":[-121.803731,38.000818]},"properties":{"listingKey":"20251023120538887663000000","listingId":"01-41115569","listPrice":449000,"city":"Antioch","baths":1,"slug":"20251023120538887663000000","mlsSource":"CRMLS","propertyType":"A","propertySubType":"Single Family Residence","livingArea":908,"unparsedAddress":"23 East Madill St, Antioch, CA 94509"}},{"type":"Feature","geometry":{"type":"Point","coordinates":[-121.799826,38.00782]},"properties":{"listingKey":"20251115181708021191000000","listingId":"01-41117567","listPrice":439950,"city":"Antioch","baths":1,"slug":"20251115181708021191000000","mlsSource":"CRMLS","propertyType":"A","propertySubType":"Single Family Residence","livingArea":1021,"unparsedAddress":"1311 Louis Drive, Antioch, CA 94509"}}]