[{"type":"Feature","id":774504,"properties":{"cluster":true,"cluster_id":774504,"point_count":2,"point_count_abbreviated":2},"geometry":{"type":"Point","coordinates":[-118.22966247797012,34.110587591689466]}},{"type":"Feature","id":729992,"properties":{"cluster":true,"cluster_id":729992,"point_count":3,"point_count_abbreviated":3},"geometry":{"type":"Point","coordinates":[-118.2189327478409,34.11323172691225]}},{"type":"Feature","geometry":{"type":"Point","coordinates":[-118.228386,34.117573]},"properties":{"listingKey":"20251007181957321899000000","listingId":"P1-24519","listPrice":1398000,"city":"Los Angeles","baths":2.5,"slug":"20251007181957321899000000","mlsSource":"CRMLS","propertyType":"A","propertySubType":"Single Family Residence","livingArea":1979,"unparsedAddress":"3847 Sunbeam Drive, Los Angeles, CA 90065"}},{"type":"Feature","geometry":{"type":"Point","coordinates":[-118.213484,34.117528]},"properties":{"listingKey":"20250916220738865183000000","listingId":"P1-24267","listPrice":1319000,"city":"Los Angeles","baths":4,"slug":"20250916220738865183000000","mlsSource":"CRMLS","propertyType":"A","propertySubType":"Triplex","livingArea":2738,"unparsedAddress":"4824 Toland Way, Los Angeles, CA 90042"}},{"type":"Feature","geometry":{"type":"Point","coordinates":[-118.213501,34.114962]},"properties":{"listingKey":"20250924031519083237000000","listingId":"MB-25224056","listPrice":5950,"city":"Los Angeles","baths":2,"slug":"20250924031519083237000000","mlsSource":"CRMLS","propertyType":"B","propertySubType":"Single Family Residence","livingArea":1800,"associationFee":0,"unparsedAddress":"961 Terrace 49, Los Angeles, CA 90042"}},{"type":"Feature","geometry":{"type":"Point","coordinates":[-118.217645,34.115989]},"properties":{"listingKey":"20250928045437757587000000","listingId":"AR-25226086","listPrice":7000,"city":"Los Angeles","baths":2.5,"slug":"20250928045437757587000000","mlsSource":"CRMLS","propertyType":"B","propertySubType":"Single Family Residence","livingArea":2385,"associationFee":0,"unparsedAddress":"1218 Olancha Dr, Los Angeles, CA 90065"}},{"type":"Feature","geometry":{"type":"Point","coordinates":[-118.220749,34.11168]},"properties":{"listingKey":"20250930045630875380000000","listingId":"DW-25227785","listPrice":1599999,"city":"Los Angeles","baths":3.5,"slug":"20250930045630875380000000","mlsSource":"CRMLS","propertyType":"A","propertySubType":"Single Family Residence","livingArea":3034,"associationFee":0,"unparsedAddress":"4509 Jessica, Los Angeles, CA 90065"}},{"type":"Feature","geometry":{"type":"Point","coordinates":[-118.217552,34.109047]},"properties":{"listingKey":"20251010152631902794000000","listingId":"P1-24501","listPrice":2749000,"city":"Los Angeles","baths":2.75,"slug":"20251010152631902794000000","mlsSource":"CRMLS","propertyType":"A","propertySubType":"Single Family Residence","livingArea":2968,"unparsedAddress":"4209 Sea View Lane, Los Angeles, CA 90065"}},{"type":"Feature","geometry":{"type":"Point","coordinates":[-118.22245,34.122572]},"properties":{"listingKey":"20250928164219446021000000","listingId":"P1-24366","listPrice":999999,"city":"Los Angeles","baths":2.5,"slug":"20250928164219446021000000","mlsSource":"CRMLS","propertyType":"A","propertySubType":"Single Family Residence","livingArea":1761,"associationFee":120,"unparsedAddress":"1553 Verbena Way, Los Angeles, CA 90041"}},{"type":"Feature","id":545481,"properties":{"cluster":true,"cluster_id":545481,"point_count":2,"point_count_abbreviated":2},"geometry":{"type":"Point","coordinates":[-118.22880417108536,34.12162401393029]}},{"type":"Feature","id":844745,"properties":{"cluster":true,"cluster_id":844745,"point_count":2,"point_count_abbreviated":2},"geometry":{"type":"Point","coordinates":[-118.2234638929367,34.12056706683889]}},{"type":"Feature","id":238056,"properties":{"cluster":true,"cluster_id":238056,"point_count":3,"point_count_abbreviated":3},"geometry":{"type":"Point","coordinates":[-118.22889268398285,34.12519296313242]}},{"type":"Feature","geometry":{"type":"Point","coordinates":[-118.233429,34.123847]},"properties":{"listingKey":"20251009022438074588000000","listingId":"BB-25224658","listPrice":1650000,"city":"Glassell Park","baths":3.25,"slug":"20251009022438074588000000","mlsSource":"CRMLS","propertyType":"A","propertySubType":"Single Family Residence","livingArea":2424,"associationFee":0,"unparsedAddress":"3871 Filion, Glassell Park, CA 90065"}},{"type":"Feature","geometry":{"type":"Point","coordinates":[-118.233142,34.113869]},"properties":{"listingKey":"20250828210120392948000000","listingId":"PW-25156293","listPrice":1199999,"city":"Los Angeles","baths":2,"slug":"20250828210120392948000000","mlsSource":"CRMLS","propertyType":"A","propertySubType":"Duplex","livingArea":1440,"associationFee":0,"unparsedAddress":"2626 Crestmoore Place, Los Angeles, CA 90065"}}]