[{"type":"Feature","geometry":{"type":"Point","coordinates":[-118.215322,33.981756]},"properties":{"listingKey":"20250817205101901347000000","listingId":"PW-25185373","listPrice":690000,"city":"Huntington Park","baths":0,"slug":"20250817205101901347000000","mlsSource":"CRMLS","propertyType":"C","propertySubType":"Duplex","livingArea":1372,"unparsedAddress":"6356 Marconi Street, Huntington Park, CA 90255"}},{"type":"Feature","id":374408,"properties":{"cluster":true,"cluster_id":374408,"point_count":2,"point_count_abbreviated":2},"geometry":{"type":"Point","coordinates":[-118.22674959897995,33.984697336830635]}},{"type":"Feature","geometry":{"type":"Point","coordinates":[-118.222947,33.983682]},"properties":{"listingKey":"20250916210752287572000000","listingId":"CV-25217957","listPrice":1395000,"city":"Huntington Park","baths":0,"slug":"20250916210752287572000000","mlsSource":"CRMLS","propertyType":"C","propertySubType":"Apartment","livingArea":4286,"associationFee":0,"unparsedAddress":"2671 Clarendon Avenue, Huntington Park, CA 90255"}},{"type":"Feature","geometry":{"type":"Point","coordinates":[-118.229891,33.984229]},"properties":{"listingKey":"20251111003046705822000000","listingId":"DW-25257863","listPrice":799999,"city":"Huntington Park","baths":0,"slug":"20251111003046705822000000","mlsSource":"CRMLS","propertyType":"C","propertySubType":"Duplex","livingArea":1885,"unparsedAddress":"6208 Santa Fe, Huntington Park, CA 90255"}},{"type":"Feature","id":852425,"properties":{"cluster":true,"cluster_id":852425,"point_count":2,"point_count_abbreviated":2},"geometry":{"type":"Point","coordinates":[-118.22096943855286,33.98990590831686]}},{"type":"Feature","geometry":{"type":"Point","coordinates":[-118.223717,33.995019]},"properties":{"listingKey":"20250928072041645753000000","listingId":"OC-25221561","listPrice":699000,"city":"Huntington Park","baths":0,"slug":"20250928072041645753000000","mlsSource":"CRMLS","propertyType":"C","propertySubType":"Triplex","livingArea":2132,"associationFee":0,"unparsedAddress":"2641 53rd street, Huntington Park, CA 90255"}}]