[{"type":"Feature","geometry":{"type":"Point","coordinates":[-118.224197,33.935012]},"properties":{"listingKey":"20250916201754539348000000","listingId":"DW-25202446","listPrice":699950,"city":"Lynwood","baths":1.5,"slug":"20250916201754539348000000","mlsSource":"CRMLS","propertyType":"A","propertySubType":"Single Family Residence","livingArea":1284,"associationFee":0,"unparsedAddress":"2649 111th Street, Lynwood, CA 90262"}},{"type":"Feature","id":630473,"properties":{"cluster":true,"cluster_id":630473,"point_count":2,"point_count_abbreviated":2},"geometry":{"type":"Point","coordinates":[-118.23442071676254,33.93196649986436]}},{"type":"Feature","id":455496,"properties":{"cluster":true,"cluster_id":455496,"point_count":2,"point_count_abbreviated":2},"geometry":{"type":"Point","coordinates":[-118.22908848524094,33.93371567101548]}},{"type":"Feature","geometry":{"type":"Point","coordinates":[-118.217174,33.928876]},"properties":{"listingKey":"20251121002837144621000000","listingId":"DW-25264083","listPrice":1400000,"city":"Lynwood","baths":0,"slug":"20251121002837144621000000","mlsSource":"CRMLS","propertyType":"C","propertySubType":"Quadruplex","livingArea":3844,"unparsedAddress":"11251 State, Lynwood, CA 90262"}},{"type":"Feature","geometry":{"type":"Point","coordinates":[-118.216276,33.925585]},"properties":{"listingKey":"20251023031503355300000000","listingId":"DW-25245559","listPrice":1500,"city":"Lynwood","baths":1,"slug":"20251023031503355300000000","mlsSource":"CRMLS","propertyType":"B","propertySubType":"Apartment","livingArea":750,"associationFee":0,"unparsedAddress":"3136 Flower, Lynwood, CA 90262"}},{"type":"Feature","geometry":{"type":"Point","coordinates":[-118.216016,33.943005]},"properties":{"listingKey":"20251103171708365502000000","listingId":"DW-25252526","listPrice":659900,"city":"South Gate","baths":1,"slug":"20251103171708365502000000","mlsSource":"CRMLS","propertyType":"A","propertySubType":"Single Family Residence","livingArea":840,"associationFee":0,"unparsedAddress":"10142 San Jose, South Gate, CA 90280"}},{"type":"Feature","id":847849,"properties":{"cluster":true,"cluster_id":847849,"point_count":2,"point_count_abbreviated":2},"geometry":{"type":"Point","coordinates":[-118.21562647819519,33.940097838117055]}},{"type":"Feature","id":473960,"properties":{"cluster":true,"cluster_id":473960,"point_count":3,"point_count_abbreviated":3},"geometry":{"type":"Point","coordinates":[-118.23220968246461,33.94039304998415]}},{"type":"Feature","geometry":{"type":"Point","coordinates":[-118.233197,33.942861]},"properties":{"listingKey":"20251007232937780685000000","listingId":"DW-25233229","listPrice":629000,"city":"Los Angeles","baths":2.5,"slug":"20251007232937780685000000","mlsSource":"CRMLS","propertyType":"A","propertySubType":"Single Family Residence","livingArea":1649,"associationFee":0,"unparsedAddress":"2164 E 103rd St, Los Angeles, CA 90002"}},{"type":"Feature","id":450024,"properties":{"cluster":true,"cluster_id":450024,"point_count":2,"point_count_abbreviated":2},"geometry":{"type":"Point","coordinates":[-118.23132276535034,33.9357808039353]}}]