[{"type":"Feature","geometry":{"type":"Point","coordinates":[-118.564449,34.419861]},"properties":{"listingKey":"20250818174057883404000000","listingId":"PW-25185619","listPrice":510000,"city":"Valencia","baths":2,"slug":"20250818174057883404000000","mlsSource":"CRMLS","propertyType":"A","propertySubType":"Condominium","livingArea":1130,"associationFee":600,"unparsedAddress":"24595 Town Center Drive, 3211, Valencia, CA 91355"}},{"type":"Feature","id":568135,"properties":{"cluster":true,"cluster_id":568135,"point_count":3,"point_count_abbreviated":3},"geometry":{"type":"Point","coordinates":[-118.50041270256042,34.43766982265788]}},{"type":"Feature","id":99525,"properties":{"cluster":true,"cluster_id":99525,"point_count":9,"point_count_abbreviated":9},"geometry":{"type":"Point","coordinates":[-118.53450655937195,34.430994822212384]}},{"type":"Feature","id":139269,"properties":{"cluster":true,"cluster_id":139269,"point_count":5,"point_count_abbreviated":5},"geometry":{"type":"Point","coordinates":[-118.47847652435303,34.42286788689036]}},{"type":"Feature","id":103557,"properties":{"cluster":true,"cluster_id":103557,"point_count":22,"point_count_abbreviated":22},"geometry":{"type":"Point","coordinates":[-118.60910215161063,34.41856462224075]}},{"type":"Feature","geometry":{"type":"Point","coordinates":[-118.532041,34.381154]},"properties":{"listingKey":"20251015221856163406000000","listingId":"BB-25229225","listPrice":3500000,"city":"Newhall","baths":0,"slug":"20251015221856163406000000","mlsSource":"CRMLS","propertyType":"C","propertySubType":"Apartment","livingArea":8730,"associationFee":0,"unparsedAddress":"24522 Chestnut, Newhall, CA 91321"}},{"type":"Feature","id":164038,"properties":{"cluster":true,"cluster_id":164038,"point_count":4,"point_count_abbreviated":4},"geometry":{"type":"Point","coordinates":[-118.50425630807877,34.37293628300765]}},{"type":"Feature","geometry":{"type":"Point","coordinates":[-118.543566,34.362561]},"properties":{"listingKey":"20250828075402768983000000","listingId":"TR-25193785","listPrice":899999,"city":"Newhall","baths":3,"slug":"20250828075402768983000000","mlsSource":"CRMLS","propertyType":"A","propertySubType":"Single Family Residence","livingArea":2930,"associationFee":190,"unparsedAddress":"24220 Mentry Drive, Newhall, CA 91321"}},{"type":"Feature","id":669129,"properties":{"cluster":true,"cluster_id":669129,"point_count":5,"point_count_abbreviated":5},"geometry":{"type":"Point","coordinates":[-118.6148089170456,34.37298277368508]}},{"type":"Feature","id":70917,"properties":{"cluster":true,"cluster_id":70917,"point_count":8,"point_count_abbreviated":8},"geometry":{"type":"Point","coordinates":[-118.55280295014381,34.387529767450545]}},{"type":"Feature","id":48773,"properties":{"cluster":true,"cluster_id":48773,"point_count":4,"point_count_abbreviated":4},"geometry":{"type":"Point","coordinates":[-118.5899367928505,34.39578444691139]}},{"type":"Feature","id":218885,"properties":{"cluster":true,"cluster_id":218885,"point_count":3,"point_count_abbreviated":3},"geometry":{"type":"Point","coordinates":[-118.550586104393,34.445871998432]}},{"type":"Feature","geometry":{"type":"Point","coordinates":[-118.618667,34.449395]},"properties":{"listingKey":"20251114012620103040000000","listingId":"P1-24946","listPrice":720000,"city":"Castaic","baths":2.5,"slug":"20251114012620103040000000","mlsSource":"CRMLS","propertyType":"A","propertySubType":"Single Family Residence","livingArea":1512,"unparsedAddress":"27722 Buckskin Drive, Castaic, CA 91384"}},{"type":"Feature","id":117861,"properties":{"cluster":true,"cluster_id":117861,"point_count":5,"point_count_abbreviated":5},"geometry":{"type":"Point","coordinates":[-118.48131430149078,34.443537365440875]}}]