[{"type":"Feature","geometry":{"type":"Point","coordinates":[-120.67202,35.619703]},"properties":{"listingKey":"20251001202009402008000000","listingId":"NS-25229618","listPrice":779000,"city":"Paso Robles","baths":2.5,"slug":"20251001202009402008000000","mlsSource":"CRMLS","propertyType":"A","propertySubType":"Single Family Residence","livingArea":1966,"associationFee":0,"unparsedAddress":"470 Nickerson, Paso Robles, CA 93446"}},{"type":"Feature","geometry":{"type":"Point","coordinates":[-120.66883,35.614322]},"properties":{"listingKey":"20251113151230871933000000","listingId":"NS-25256460","listPrice":799000,"city":"Paso Robles","baths":2.5,"slug":"20251113151230871933000000","mlsSource":"CRMLS","propertyType":"A","propertySubType":"Single Family Residence","livingArea":1881,"associationFee":0,"unparsedAddress":"928 Moody Court, Paso Robles, CA 93446"}},{"type":"Feature","geometry":{"type":"Point","coordinates":[-120.6678,35.608074]},"properties":{"listingKey":"20250926094103916014000000","listingId":"NS-25201617","listPrice":759000,"city":"Paso Robles","baths":3,"slug":"20250926094103916014000000","mlsSource":"CRMLS","propertyType":"A","propertySubType":"Single Family Residence","livingArea":1585,"associationFee":0,"unparsedAddress":"919 Torrey Pines Drive, Paso Robles, CA 93446"}},{"type":"Feature","geometry":{"type":"Point","coordinates":[-120.665932,35.605458]},"properties":{"listingKey":"20251017202238089018000000","listingId":"NS-25240366","listPrice":669000,"city":"Paso Robles","baths":2,"slug":"20251017202238089018000000","mlsSource":"CRMLS","propertyType":"A","propertySubType":"Single Family Residence","livingArea":1610,"associationFee":0,"unparsedAddress":"907 Saint Ann Drive, Paso Robles, CA 93446"}},{"type":"Feature","geometry":{"type":"Point","coordinates":[-120.66914,35.612191]},"properties":{"listingKey":"20251101185937755257000000","listingId":"NS-25248626","listPrice":739000,"city":"Paso Robles","baths":2,"slug":"20251101185937755257000000","mlsSource":"CRMLS","propertyType":"A","propertySubType":"Single Family Residence","livingArea":1756,"associationFee":0,"unparsedAddress":"924 Moran Court, Paso Robles, CA 93446"}},{"type":"Feature","geometry":{"type":"Point","coordinates":[-120.659954,35.608414]},"properties":{"listingKey":"20251119215718880235000000","listingId":"SC-25263175","listPrice":489000,"city":"Paso Robles","baths":2.5,"slug":"20251119215718880235000000","mlsSource":"CRMLS","propertyType":"A","propertySubType":"Condominium","livingArea":1708,"associationFee":400,"unparsedAddress":"21 Green Court, Paso Robles, CA 93446"}},{"type":"Feature","geometry":{"type":"Point","coordinates":[-120.662807,35.608466]},"properties":{"listingKey":"20250713074738328073000000","listingId":"NS-25155320","listPrice":425000,"city":"Paso Robles","baths":2,"slug":"20250713074738328073000000","mlsSource":"CRMLS","propertyType":"A","propertySubType":"Condominium","livingArea":1100,"associationFee":400,"unparsedAddress":"128 Flag Way, A, Paso Robles, CA 93446"}},{"type":"Feature","id":409673,"properties":{"cluster":true,"cluster_id":409673,"point_count":2,"point_count_abbreviated":2},"geometry":{"type":"Point","coordinates":[-120.65599948167801,35.61811947977172]}}]