[{"type":"Feature","geometry":{"type":"Point","coordinates":[-120.653695,35.471749]},"properties":{"listingKey":"20251109175645507178000000","listingId":"SC-25257057","listPrice":1080000,"city":"Atascadero","baths":0,"slug":"20251109175645507178000000","mlsSource":"CRMLS","propertyType":"C","propertySubType":"Triplex","livingArea":2142,"unparsedAddress":"8740 El Camino Real, Atascadero, CA 93422"}},{"type":"Feature","geometry":{"type":"Point","coordinates":[-120.653446,35.463798]},"properties":{"listingKey":"20250808104955372472000000","listingId":"NS-25176970","listPrice":1029000,"city":"Atascadero","baths":4,"slug":"20250808104955372472000000","mlsSource":"CRMLS","propertyType":"A","propertySubType":"Single Family Residence","livingArea":2671,"associationFee":0,"unparsedAddress":"8670 Santa Rosa Road, Atascadero, CA 93422"}},{"type":"Feature","geometry":{"type":"Point","coordinates":[-120.669281,35.474027]},"properties":{"listingKey":"20250620200737247692000000","listingId":"NS-25138869","listPrice":2225000,"city":"Atascadero","baths":0,"slug":"20250620200737247692000000","mlsSource":"CRMLS","propertyType":"C","propertySubType":"Single Family Residence","livingArea":1780,"associationFee":200,"unparsedAddress":"7906 Curbaril Avenue, Atascadero, CA 93422"}},{"type":"Feature","id":522344,"properties":{"cluster":true,"cluster_id":522344,"point_count":2,"point_count_abbreviated":2},"geometry":{"type":"Point","coordinates":[-120.66737741231918,35.47209510343096]}},{"type":"Feature","geometry":{"type":"Point","coordinates":[-120.659607,35.474381]},"properties":{"listingKey":"20251013185339423922000000","listingId":"SC-25232595","listPrice":799999,"city":"Atascadero","baths":2,"slug":"20251013185339423922000000","mlsSource":"CRMLS","propertyType":"A","propertySubType":"Single Family Residence","livingArea":1568,"associationFee":0,"unparsedAddress":"8070 Coromar Ave, Atascadero, CA 93422"}},{"type":"Feature","geometry":{"type":"Point","coordinates":[-120.673163,35.460828]},"properties":{"listingKey":"20250916080223543955000000","listingId":"NS-25206743","listPrice":950000,"city":"Atascadero","baths":3,"slug":"20250916080223543955000000","mlsSource":"CRMLS","propertyType":"A","propertySubType":"Single Family Residence","livingArea":2995,"associationFee":0,"unparsedAddress":"7990 San Gabriel Road, Atascadero, CA 93422"}}]