[{"type":"Feature","geometry":{"type":"Point","coordinates":[-117.343419,33.150854]},"properties":{"listingKey":"20250829184342975514000000","listingId":"8N-2508482","listPrice":1200000,"city":"Carlsbad","baths":2.5,"slug":"20250829184342975514000000","mlsSource":"CRMLS","propertyType":"A","propertySubType":"Condominium","livingArea":1314,"associationFee":200,"unparsedAddress":"368 Hemlock Ave, Carlsbad, CA 92008"}},{"type":"Feature","geometry":{"type":"Point","coordinates":[-117.344313,33.146864]},"properties":{"listingKey":"20251120172258226024000000","listingId":"8N-2510895","listPrice":2450000,"city":"Carlsbad","baths":2,"slug":"20251120172258226024000000","mlsSource":"CRMLS","propertyType":"A","propertySubType":"Condominium","livingArea":1478,"associationFee":920,"unparsedAddress":"111 Sequoia, C, Carlsbad, CA 92008"}},{"type":"Feature","geometry":{"type":"Point","coordinates":[-117.339107,33.147577]},"properties":{"listingKey":"20250902051120292180000000","listingId":"8N-2508560","listPrice":4300,"city":"Carlsbad","baths":2,"slug":"20250902051120292180000000","mlsSource":"CRMLS","propertyType":"B","propertySubType":"Condominium","livingArea":1600,"unparsedAddress":"4008 Aguila, D, Carlsbad, CA 92008"}},{"type":"Feature","id":1005001,"properties":{"cluster":true,"cluster_id":1005001,"point_count":3,"point_count_abbreviated":3},"geometry":{"type":"Point","coordinates":[-117.34166085720062,33.14802580026772]}},{"type":"Feature","geometry":{"type":"Point","coordinates":[-117.344897,33.148476]},"properties":{"listingKey":"20251106063323804352000000","listingId":"8N-2510608","listPrice":3210,"city":"Carlsbad","baths":1.5,"slug":"20251106063323804352000000","mlsSource":"CRMLS","propertyType":"B","propertySubType":"Condominium","livingArea":1000,"associationFee":0,"unparsedAddress":"159 Redwood Ave., B, Carlsbad, CA 92008"}},{"type":"Feature","geometry":{"type":"Point","coordinates":[-117.339862,33.153892]},"properties":{"listingKey":"20250826051740761556000000","listingId":"8N-2508341","listPrice":4700,"city":"Carlsbad","baths":2,"slug":"20250826051740761556000000","mlsSource":"CRMLS","propertyType":"B","propertySubType":"Duplex","livingArea":1950,"associationFee":0,"unparsedAddress":"769 Magnolia Avenue, B, Carlsbad, CA 92008"}},{"type":"Feature","geometry":{"type":"Point","coordinates":[-117.341743,33.154322]},"properties":{"listingKey":"20251114013748518413000000","listingId":"8N-2510830","listPrice":1699900,"city":"Carlsbad","baths":2,"slug":"20251114013748518413000000","mlsSource":"CRMLS","propertyType":"A","propertySubType":"Single Family Residence","livingArea":1644,"associationFee":0,"unparsedAddress":"3575 Madison Street, Carlsbad, CA 92008"}},{"type":"Feature","geometry":{"type":"Point","coordinates":[-117.34031,33.147005]},"properties":{"listingKey":"20250809150354736557000000","listingId":"8N-2507859","listPrice":3550000,"city":"Carlsbad","baths":1,"slug":"20250809150354736557000000","mlsSource":"CRMLS","propertyType":"A","propertySubType":"Single Family Residence","livingArea":616,"associationFee":0,"unparsedAddress":"334 Date Avenue, Carlsbad, CA 92008"}},{"type":"Feature","geometry":{"type":"Point","coordinates":[-117.338542,33.151695]},"properties":{"listingKey":"20250723185423160010000000","listingId":"OC-25165021","listPrice":4395,"city":"Carlsbad","baths":2,"slug":"20250723185423160010000000","mlsSource":"CRMLS","propertyType":"B","propertySubType":"Apartment","livingArea":1200,"associationFee":0,"unparsedAddress":"664 Tamarack Avenue, 6, Carlsbad, CA 92008"}},{"type":"Feature","id":273929,"properties":{"cluster":true,"cluster_id":273929,"point_count":2,"point_count_abbreviated":2},"geometry":{"type":"Point","coordinates":[-117.33586460351944,33.14824138798336]}}]