[{"type":"Feature","geometry":{"type":"Point","coordinates":[-121.920974,37.224162]},"properties":{"listingKey":"20251114195527713979000000","listingId":"01-41117479","listPrice":5750000,"city":"Los Gatos","baths":3.5,"slug":"20251114195527713979000000","mlsSource":"CRMLS","propertyType":"A","propertySubType":"Single Family Residence","livingArea":5810,"associationFee":322,"unparsedAddress":"311 Santa Rosa Dr, Los Gatos, CA 95032"}},{"type":"Feature","id":236805,"properties":{"cluster":true,"cluster_id":236805,"point_count":2,"point_count_abbreviated":2},"geometry":{"type":"Point","coordinates":[-121.85326516628265,37.21330999855441]}},{"type":"Feature","geometry":{"type":"Point","coordinates":[-121.8255,37.266953]},"properties":{"listingKey":"20251014212247594976000000","listingId":"01-41114684","listPrice":1798000,"city":"San Jose","baths":2.5,"slug":"20251014212247594976000000","mlsSource":"CRMLS","propertyType":"A","propertySubType":"Single Family Residence","livingArea":2922,"unparsedAddress":"79 Park Sharon Dr, San Jose, CA 95136"}},{"type":"Feature","geometry":{"type":"Point","coordinates":[-121.892948,37.270125]},"properties":{"listingKey":"20251114042638230476000000","listingId":"01-41117430","listPrice":1849000,"city":"San Jose","baths":2,"slug":"20251114042638230476000000","mlsSource":"CRMLS","propertyType":"A","propertySubType":"Single Family Residence","livingArea":1266,"unparsedAddress":"1472 Fairhaven Court, San Jose, CA 95118"}},{"type":"Feature","id":183813,"properties":{"cluster":true,"cluster_id":183813,"point_count":2,"point_count_abbreviated":2},"geometry":{"type":"Point","coordinates":[-121.84662401676178,37.28590185514078]}},{"type":"Feature","id":630665,"properties":{"cluster":true,"cluster_id":630665,"point_count":2,"point_count_abbreviated":2},"geometry":{"type":"Point","coordinates":[-121.87414348125458,37.25322282480687]}},{"type":"Feature","geometry":{"type":"Point","coordinates":[-121.957696,37.249439]},"properties":{"listingKey":"20251120002517906569000000","listingId":"OC-25263353","listPrice":1325000,"city":"Los Gatos","baths":2.5,"slug":"20251120002517906569000000","mlsSource":"CRMLS","propertyType":"A","propertySubType":"Condominium","livingArea":1508,"associationFee":318,"unparsedAddress":"15021 Briggs Court, Los Gatos, CA 95032"}},{"type":"Feature","id":66117,"properties":{"cluster":true,"cluster_id":66117,"point_count":3,"point_count_abbreviated":3},"geometry":{"type":"Point","coordinates":[-121.83802306652068,37.24611309780842]}}]