[{"type":"Feature","geometry":{"type":"Point","coordinates":[-118.251543,34.166359]},"properties":{"listingKey":"20251009225932816521000000","listingId":"P1-24543","listPrice":14000,"city":"Glendale","baths":6,"slug":"20251009225932816521000000","mlsSource":"CRMLS","propertyType":"B","propertySubType":"Single Family Residence","livingArea":4153,"unparsedAddress":"1329 Campbell Street, Glendale, CA 91207"}},{"type":"Feature","geometry":{"type":"Point","coordinates":[-118.253343,34.177048]},"properties":{"listingKey":"20251027211933045631000000","listingId":"GD-25248188","listPrice":3995000,"city":"Glendale","baths":5,"slug":"20251027211933045631000000","mlsSource":"CRMLS","propertyType":"A","propertySubType":"Single Family Residence","livingArea":6154,"associationFee":0,"unparsedAddress":"2111 Rimcrest Drive, Glendale, CA 91207"}},{"type":"Feature","geometry":{"type":"Point","coordinates":[-118.243585,34.162395]},"properties":{"listingKey":"20250820062650338874000000","listingId":"TR-25187337","listPrice":9500,"city":"Glendale","baths":2.75,"slug":"20250820062650338874000000","mlsSource":"CRMLS","propertyType":"B","propertySubType":"Single Family Residence","livingArea":2794,"associationFee":0,"unparsedAddress":"1149 Cordova Avenue, Glendale, CA 91207"}},{"type":"Feature","geometry":{"type":"Point","coordinates":[-118.237046,34.169732]},"properties":{"listingKey":"20250914172319721986000000","listingId":"GD-25191659","listPrice":2988000,"city":"Glendale","baths":3.5,"slug":"20250914172319721986000000","mlsSource":"CRMLS","propertyType":"A","propertySubType":"Single Family Residence","livingArea":3360,"associationFee":0,"unparsedAddress":"1535 Royal Boulevard, Glendale, CA 91207"}},{"type":"Feature","id":278376,"properties":{"cluster":true,"cluster_id":278376,"point_count":2,"point_count_abbreviated":2},"geometry":{"type":"Point","coordinates":[-118.24430465698242,34.16618584153751]}},{"type":"Feature","geometry":{"type":"Point","coordinates":[-118.247664,34.167072]},"properties":{"listingKey":"20250923151700395377000000","listingId":"GD-25223289","listPrice":6950,"city":"Glendale","baths":4,"slug":"20250923151700395377000000","mlsSource":"CRMLS","propertyType":"B","propertySubType":"Single Family Residence","livingArea":2900,"associationFee":0,"unparsedAddress":"1338 North Jackson, Glendale, CA 91207"}},{"type":"Feature","geometry":{"type":"Point","coordinates":[-118.236431,34.177746]},"properties":{"listingKey":"20251013154240101750000000","listingId":"GD-25236263","listPrice":1899000,"city":"Glendale","baths":5,"slug":"20251013154240101750000000","mlsSource":"CRMLS","propertyType":"A","propertySubType":"Single Family Residence","livingArea":3243,"associationFee":0,"unparsedAddress":"1438 Hillside Drive, Glendale, CA 91208"}}]