[{"type":"Feature","id":97412,"properties":{"cluster":true,"cluster_id":97412,"point_count":13,"point_count_abbreviated":13},"geometry":{"type":"Point","coordinates":[-120.46361226301927,34.64522298413554]}},{"type":"Feature","id":114244,"properties":{"cluster":true,"cluster_id":114244,"point_count":6,"point_count_abbreviated":6},"geometry":{"type":"Point","coordinates":[-120.43906688690187,34.6987619583162]}},{"type":"Feature","id":102020,"properties":{"cluster":true,"cluster_id":102020,"point_count":16,"point_count_abbreviated":16},"geometry":{"type":"Point","coordinates":[-120.42008344084024,34.869518593912986]}},{"type":"Feature","geometry":{"type":"Point","coordinates":[-120.353963,34.666875]},"properties":{"listingKey":"20250727220147079062000000","listingId":"V1-31395","listPrice":3950000,"city":"Lompoc","baths":2,"slug":"20250727220147079062000000","mlsSource":"CRMLS","propertyType":"A","propertySubType":"Single Family Residence","livingArea":1857,"unparsedAddress":"1700 Gypsy Canyon Road, Lompoc, CA 93436"}},{"type":"Feature","geometry":{"type":"Point","coordinates":[-120.283659,34.745356]},"properties":{"listingKey":"20251007005300362781000000","listingId":"SC-25232963","listPrice":1200000,"city":"Los Alamos","baths":1,"slug":"20251007005300362781000000","mlsSource":"CRMLS","propertyType":"A","propertySubType":"Single Family Residence","livingArea":792,"associationFee":0,"unparsedAddress":"165 Leslie Street, Los Alamos, CA 93440"}},{"type":"Feature","geometry":{"type":"Point","coordinates":[-120.462211,34.869596]},"properties":{"listingKey":"20250910160850242253000000","listingId":"PI-25207086","listPrice":1450000,"city":"Santa Maria","baths":2.5,"slug":"20250910160850242253000000","mlsSource":"CRMLS","propertyType":"A","propertySubType":"Single Family Residence","livingArea":1391,"associationFee":0,"unparsedAddress":"1418 Solomon Road, Santa Maria, CA 93455"}},{"type":"Feature","geometry":{"type":"Point","coordinates":[-120.252253,34.818916]},"properties":{"listingKey":"20250706203340089131000000","listingId":"PI-25149969","listPrice":1199000,"city":"Santa Maria","baths":2,"slug":"20250706203340089131000000","mlsSource":"CRMLS","propertyType":"A","propertySubType":"Manufactured On Land","livingArea":1700,"associationFee":0,"unparsedAddress":"6870 Long Canyon Road, Santa Maria, CA 93454"}},{"type":"Feature","id":136580,"properties":{"cluster":true,"cluster_id":136580,"point_count":3,"point_count_abbreviated":3},"geometry":{"type":"Point","coordinates":[-120.36904871463776,34.867781724505804]}}]