[{"type":"Feature","id":67721,"properties":{"cluster":true,"cluster_id":67721,"point_count":2,"point_count_abbreviated":2},"geometry":{"type":"Point","coordinates":[-116.3665920495987,33.73793333890799]}},{"type":"Feature","geometry":{"type":"Point","coordinates":[-116.366031,33.740069]},"properties":{"listingKey":"20251028173902511895000000","listingId":"219138244","listPrice":310000,"city":"Palm Desert","baths":1.75,"slug":"20251028173902511895000000","mlsSource":"GPS","propertyType":"E","livingArea":1542,"associationFee":440,"unparsedAddress":"74578 Zircon Circle E, Palm Desert, CA 92260"}},{"type":"Feature","geometry":{"type":"Point","coordinates":[-116.362483,33.738313]},"properties":{"listingKey":"20251113204421382157000000","listingId":"219138812","listPrice":465000,"city":"Palm Desert","baths":2,"slug":"20251113204421382157000000","mlsSource":"GPS","propertyType":"A","propertySubType":"Single Family Residence","livingArea":1232,"associationFee":80,"unparsedAddress":"42671 Susan Circle, Palm Desert, CA 92260"}},{"type":"Feature","geometry":{"type":"Point","coordinates":[-116.361644,33.734992]},"properties":{"listingKey":"20250806051001495023000000","listingId":"SB-25169646","listPrice":1299000,"city":"Palm Desert","baths":4,"slug":"20250806051001495023000000","mlsSource":"CRMLS","propertyType":"A","propertySubType":"Single Family Residence","livingArea":2700,"associationFee":0,"unparsedAddress":"74626 Lavender Way, Palm Desert, CA 92260"}},{"type":"Feature","geometry":{"type":"Point","coordinates":[-116.365932,33.734275]},"properties":{"listingKey":"20251117180418568342000000","listingId":"219138873","listPrice":625000,"city":"Palm Desert","baths":2,"slug":"20251117180418568342000000","mlsSource":"GPS","propertyType":"A","propertySubType":"Single Family Residence","livingArea":1618,"associationFee":0,"unparsedAddress":"43255 Silktree Lane, Palm Desert, CA 92260"}}]