[{"type":"Feature","geometry":{"type":"Point","coordinates":[-116.36618,33.718057]},"properties":{"listingKey":"20251119230241519205000000","listingId":"NP-25263285","listPrice":1995,"city":"Palm Desert","baths":1.5,"slug":"20251119230241519205000000","mlsSource":"CRMLS","propertyType":"B","propertySubType":"Apartment","livingArea":900,"associationFee":0,"unparsedAddress":"74443 Driftwood Drive, 2, Palm Desert, CA 92260"}},{"type":"Feature","geometry":{"type":"Point","coordinates":[-116.365736,33.719184]},"properties":{"listingKey":"20251116181337830951000000","listingId":"219138842","listPrice":399000,"city":"Palm Desert","baths":1.75,"slug":"20251116181337830951000000","mlsSource":"GPS","propertyType":"A","propertySubType":"Condominium","livingArea":981,"associationFee":474,"unparsedAddress":"45301 Deep Canyon Road, 21, Palm Desert, CA 92260"}},{"type":"Feature","id":42121,"properties":{"cluster":true,"cluster_id":42121,"point_count":2,"point_count_abbreviated":2},"geometry":{"type":"Point","coordinates":[-116.36580884456635,33.71519718258091]}},{"type":"Feature","geometry":{"type":"Point","coordinates":[-116.364511,33.720173]},"properties":{"listingKey":"20250830041806856555000000","listingId":"IV-25179672","listPrice":1695,"city":"Palm Desert","baths":1,"slug":"20250830041806856555000000","mlsSource":"CRMLS","propertyType":"B","propertySubType":"Apartment","livingArea":750,"associationFee":0,"unparsedAddress":"45200 Deep Canyon, Palm Desert, CA 92260"}},{"type":"Feature","id":83465,"properties":{"cluster":true,"cluster_id":83465,"point_count":2,"point_count_abbreviated":2},"geometry":{"type":"Point","coordinates":[-116.36336535215378,33.72401841983465]}},{"type":"Feature","id":75017,"properties":{"cluster":true,"cluster_id":75017,"point_count":2,"point_count_abbreviated":2},"geometry":{"type":"Point","coordinates":[-116.36151731014252,33.71839202974792]}},{"type":"Feature","id":45545,"properties":{"cluster":true,"cluster_id":45545,"point_count":3,"point_count_abbreviated":3},"geometry":{"type":"Point","coordinates":[-116.36414408683775,33.716632498739116]}},{"type":"Feature","geometry":{"type":"Point","coordinates":[-116.363872,33.715363]},"properties":{"listingKey":"20251101170111564272000000","listingId":"219138022","listPrice":785000,"city":"Palm Desert","baths":1.5,"slug":"20251101170111564272000000","mlsSource":"GPS","propertyType":"A","propertySubType":"Single Family Residence","livingArea":1480,"associationFee":500,"unparsedAddress":"74576 Fairway Drive, Palm Desert, CA 92260"}},{"type":"Feature","geometry":{"type":"Point","coordinates":[-116.359963,33.718066]},"properties":{"listingKey":"20251017171024251933000000","listingId":"219137147","listPrice":12000,"city":"Indian Wells","baths":3,"slug":"20251017171024251933000000","mlsSource":"GPS","propertyType":"B","propertySubType":"Single Family Residence","livingArea":3128,"associationFee":1,"unparsedAddress":"74797 S Cove Drive, Indian Wells, CA 92210"}},{"type":"Feature","geometry":{"type":"Point","coordinates":[-116.357978,33.718783]},"properties":{"listingKey":"20250905051655500723000000","listingId":"219134908","listPrice":1729000,"city":"Indian Wells","baths":2.5,"slug":"20250905051655500723000000","mlsSource":"GPS","propertyType":"A","propertySubType":"Single Family Residence","livingArea":3604,"associationFee":128,"unparsedAddress":"45385 Taos Cove, Indian Wells, CA 92210"}}]