[{"type":"Feature","geometry":{"type":"Point","coordinates":[-120.946894,38.650393]},"properties":{"listingKey":"20251107230614106863000000","listingId":"01-41116982","listPrice":969000,"city":"Shingle Springs","baths":2,"slug":"20251107230614106863000000","mlsSource":"CRMLS","propertyType":"A","propertySubType":"Single Family Residence","livingArea":1340,"unparsedAddress":"3710 Lakeview Dr, Shingle Springs, CA 95682"}},{"type":"Feature","geometry":{"type":"Point","coordinates":[-121.272172,38.644626]},"properties":{"listingKey":"20251025041521609354000000","listingId":"DW-25247180","listPrice":299000,"baths":2,"slug":"20251025041521609354000000","mlsSource":"CRMLS","propertyType":"A","propertySubType":"Condominium","livingArea":1018,"associationFee":435,"unparsedAddress":"12400 Fair Oaks, 132, CA 95628"}},{"type":"Feature","id":41316,"properties":{"cluster":true,"cluster_id":41316,"point_count":2,"point_count_abbreviated":2},"geometry":{"type":"Point","coordinates":[-121.25592917203903,38.696299884004446]}},{"type":"Feature","geometry":{"type":"Point","coordinates":[-121.254637,38.726053]},"properties":{"listingKey":"20250819232211302731000000","listingId":"01-41108649","listPrice":498000,"city":"Roseville","baths":2,"slug":"20250819232211302731000000","mlsSource":"CRMLS","propertyType":"A","propertySubType":"Single Family Residence","livingArea":1080,"unparsedAddress":"1812 Wildwood Way, Roseville, CA 95661"}},{"type":"Feature","id":48740,"properties":{"cluster":true,"cluster_id":48740,"point_count":2,"point_count_abbreviated":2},"geometry":{"type":"Point","coordinates":[-120.9925228357315,38.670312060737984]}},{"type":"Feature","geometry":{"type":"Point","coordinates":[-121.229052,38.814688]},"properties":{"listingKey":"20251004213436865041000000","listingId":"01-41113813","listPrice":1898000,"city":"Rocklin","baths":3.5,"slug":"20251004213436865041000000","mlsSource":"CRMLS","propertyType":"A","propertySubType":"Single Family Residence","livingArea":3837,"unparsedAddress":"4072 Whitney Vista Ln, Rocklin, CA 95677"}}]