[{"type":"Feature","geometry":{"type":"Point","coordinates":[-118.427349,34.004797]},"properties":{"listingKey":"20250917135651360320000000","listingId":"SB-25219154","listPrice":2675,"city":"Mar Vista","baths":1,"slug":"20250917135651360320000000","mlsSource":"CRMLS","propertyType":"B","propertySubType":"Apartment","livingArea":650,"associationFee":0,"unparsedAddress":"3864 Inglewood Boulevard, 1, Mar Vista, CA 90066"}},{"type":"Feature","geometry":{"type":"Point","coordinates":[-118.418197,34.001011]},"properties":{"listingKey":"20251015192320193304000000","listingId":"SB-25239962","listPrice":1599999,"city":"Culver City","baths":0,"slug":"20251015192320193304000000","mlsSource":"CRMLS","propertyType":"C","propertySubType":"Triplex","livingArea":2020,"associationFee":0,"unparsedAddress":"4232 Mclaughlin, Culver City, CA 90066"}},{"type":"Feature","geometry":{"type":"Point","coordinates":[-118.421662,34.00992]},"properties":{"listingKey":"20250629061434615038000000","listingId":"TR-25145371","listPrice":1600,"city":"Los Angeles","baths":1,"slug":"20250629061434615038000000","mlsSource":"CRMLS","propertyType":"B","propertySubType":"Apartment","livingArea":260,"associationFee":0,"unparsedAddress":"11412 Venice Boulevard, 3B, Los Angeles, CA 90066"}},{"type":"Feature","geometry":{"type":"Point","coordinates":[-118.425405,34.014281]},"properties":{"listingKey":"20251115040130955509000000","listingId":"OC-25261024","listPrice":2380000,"city":"Los Angeles","baths":3,"slug":"20251115040130955509000000","mlsSource":"CRMLS","propertyType":"A","propertySubType":"Single Family Residence","livingArea":2368,"associationFee":0,"unparsedAddress":"3552 Butler, Los Angeles, CA 90066"}},{"type":"Feature","id":274185,"properties":{"cluster":true,"cluster_id":274185,"point_count":2,"point_count_abbreviated":2},"geometry":{"type":"Point","coordinates":[-118.41581583023071,33.9988277919057]}},{"type":"Feature","geometry":{"type":"Point","coordinates":[-118.421071,34.005173]},"properties":{"listingKey":"20251021211828676085000000","listingId":"PW-25242547","listPrice":8250,"city":"Los Angeles","baths":2,"slug":"20251021211828676085000000","mlsSource":"CRMLS","propertyType":"B","propertySubType":"Single Family Residence","livingArea":1161,"associationFee":0,"unparsedAddress":"3989 Coolidge, Los Angeles, CA 90066"}},{"type":"Feature","id":787017,"properties":{"cluster":true,"cluster_id":787017,"point_count":3,"point_count_abbreviated":3},"geometry":{"type":"Point","coordinates":[-118.42293977737427,34.00277696064225]}},{"type":"Feature","id":749960,"properties":{"cluster":true,"cluster_id":749960,"point_count":3,"point_count_abbreviated":3},"geometry":{"type":"Point","coordinates":[-118.41999471187592,34.012148089376794]}},{"type":"Feature","geometry":{"type":"Point","coordinates":[-118.425215,34.001055]},"properties":{"listingKey":"20250726204410561569000000","listingId":"OC-25168395","listPrice":2300000,"city":"Los Angeles","baths":0,"slug":"20250726204410561569000000","mlsSource":"CRMLS","propertyType":"C","propertySubType":"Apartment","livingArea":6490,"unparsedAddress":"4035 Inglewood Boulevard, Los Angeles, CA 90066"}},{"type":"Feature","id":197417,"properties":{"cluster":true,"cluster_id":197417,"point_count":3,"point_count_abbreviated":3},"geometry":{"type":"Point","coordinates":[-118.41402590274812,34.014282463180706]}}]