[{"type":"Feature","geometry":{"type":"Point","coordinates":[-117.572536,33.640061]},"properties":{"listingKey":"20250701075539002856000000","listingId":"OC-25146592","listPrice":5950,"city":"Rancho Santa Margarita","baths":3,"slug":"20250701075539002856000000","mlsSource":"CRMLS","propertyType":"B","propertySubType":"Single Family Residence","livingArea":2731,"unparsedAddress":"6 Lakeridge, Rancho Santa Margarita, CA 92679"}},{"type":"Feature","geometry":{"type":"Point","coordinates":[-117.5754,33.640799]},"properties":{"listingKey":"20250912232815322308000000","listingId":"OC-25192282","listPrice":1799900,"city":"Rancho Santa Margarita","baths":3.5,"slug":"20250912232815322308000000","mlsSource":"CRMLS","propertyType":"A","propertySubType":"Single Family Residence","livingArea":3762,"associationFee":320,"unparsedAddress":"3 Snowdon, Rancho Santa Margarita, CA 92679"}},{"type":"Feature","geometry":{"type":"Point","coordinates":[-117.572684,33.637752]},"properties":{"listingKey":"20251018184126653659000000","listingId":"OC-25239333","listPrice":1285000,"city":"Rancho Santa Margarita","baths":2.5,"slug":"20251018184126653659000000","mlsSource":"CRMLS","propertyType":"A","propertySubType":"Single Family Residence","livingArea":1800,"associationFee":320,"unparsedAddress":"14 Meridian, Rancho Santa Margarita, CA 92679"}},{"type":"Feature","geometry":{"type":"Point","coordinates":[-117.570819,33.6339]},"properties":{"listingKey":"20251011164043315335000000","listingId":"PW-25237719","listPrice":1749000,"city":"Rancho Santa Margarita","baths":4,"slug":"20251011164043315335000000","mlsSource":"CRMLS","propertyType":"A","propertySubType":"Single Family Residence","livingArea":3278,"associationFee":320,"unparsedAddress":"30 Wakonda, Rancho Santa Margarita, CA 92679"}},{"type":"Feature","geometry":{"type":"Point","coordinates":[-117.572698,33.635367]},"properties":{"listingKey":"20251104043253526894000000","listingId":"OC-25253251","listPrice":5850,"city":"Trabuco Canyon","baths":3,"slug":"20251104043253526894000000","mlsSource":"CRMLS","propertyType":"B","propertySubType":"Single Family Residence","livingArea":2293,"unparsedAddress":"4 Saint Annes, Trabuco Canyon, CA 92679"}}]