[{"type":"Feature","id":150405,"properties":{"cluster":true,"cluster_id":150405,"point_count":2,"point_count_abbreviated":2},"geometry":{"type":"Point","coordinates":[-122.23451972007751,39.776686609739926]}},{"type":"Feature","geometry":{"type":"Point","coordinates":[-122.201665,39.7115]},"properties":{"listingKey":"20251119052617303956000000","listingId":"SN-25262321","listPrice":525000,"city":"Orland","baths":1,"slug":"20251119052617303956000000","mlsSource":"CRMLS","propertyType":"A","propertySubType":"Single Family Residence","livingArea":1356,"associationFee":0,"unparsedAddress":"6460 County Road 24, Orland, CA 95963"}},{"type":"Feature","id":85988,"properties":{"cluster":true,"cluster_id":85988,"point_count":14,"point_count_abbreviated":14},"geometry":{"type":"Point","coordinates":[-122.18839645385742,39.74959336568358]}},{"type":"Feature","geometry":{"type":"Point","coordinates":[-122.139653,39.747226]},"properties":{"listingKey":"20251007005335514582000000","listingId":"SN-25233064","listPrice":545000,"city":"Orland","baths":3,"slug":"20251007005335514582000000","mlsSource":"CRMLS","propertyType":"A","propertySubType":"Single Family Residence","livingArea":2407,"associationFee":0,"unparsedAddress":"7012 State Hwy 32, Orland, CA 95963"}},{"type":"Feature","id":136421,"properties":{"cluster":true,"cluster_id":136421,"point_count":3,"point_count_abbreviated":3},"geometry":{"type":"Point","coordinates":[-122.17779099941254,39.87747127452198]}},{"type":"Feature","id":91236,"properties":{"cluster":true,"cluster_id":91236,"point_count":3,"point_count_abbreviated":3},"geometry":{"type":"Point","coordinates":[-122.11325883865358,39.88379156254405]}},{"type":"Feature","geometry":{"type":"Point","coordinates":[-122.07053,39.823961]},"properties":{"listingKey":"20251118223835136799000000","listingId":"SN-25262619","listPrice":1850,"city":"Orland","baths":2,"slug":"20251118223835136799000000","mlsSource":"CRMLS","propertyType":"B","propertySubType":"Single Family Residence","livingArea":1625,"associationFee":0,"unparsedAddress":"24520 Clark Road, Orland, CA 95963"}},{"type":"Feature","geometry":{"type":"Point","coordinates":[-122.120594,39.808559]},"properties":{"listingKey":"20250720224139918167000000","listingId":"SN-25156889","listPrice":1350000,"city":"Orland","baths":2,"slug":"20250720224139918167000000","mlsSource":"CRMLS","propertyType":"A","propertySubType":"Single Family Residence","livingArea":2600,"associationFee":0,"unparsedAddress":"24515 Moller Avenue, Orland, CA 95963"}},{"type":"Feature","geometry":{"type":"Point","coordinates":[-122.048731,39.771765]},"properties":{"listingKey":"20250916081242954032000000","listingId":"SN-25217797","listPrice":1275000,"city":"Orland","baths":1.5,"slug":"20250916081242954032000000","mlsSource":"CRMLS","propertyType":"A","propertySubType":"Single Family Residence","livingArea":1936,"associationFee":0,"unparsedAddress":"4705 1st Ave, Orland, CA 95963"}}]