[{"type":"Feature","geometry":{"type":"Point","coordinates":[-117.272441,32.983885]},"properties":{"listingKey":"20250923200732290354000000","listingId":"8N-2509287","listPrice":1295000,"city":"Solana Beach","baths":2.25,"slug":"20250923200732290354000000","mlsSource":"CRMLS","propertyType":"A","propertySubType":"Condominium","livingArea":1544,"associationFee":960,"unparsedAddress":"585 South Sierra Avenue, 27, Solana Beach, CA 92075"}},{"type":"Feature","geometry":{"type":"Point","coordinates":[-117.268613,32.98252]},"properties":{"listingKey":"20251120205227021409000000","listingId":"8N-2510980","listPrice":3595000,"city":"Solana Beach","baths":3.5,"slug":"20251120205227021409000000","mlsSource":"CRMLS","propertyType":"A","propertySubType":"Single Family Residence","livingArea":2797,"associationFee":0,"unparsedAddress":"747 S. Cedros, Solana Beach, CA 92075"}},{"type":"Feature","geometry":{"type":"Point","coordinates":[-117.272042,32.984965]},"properties":{"listingKey":"20251120173348841798000000","listingId":"8N-2510973","listPrice":4800,"city":"Solana Beach","baths":2.5,"slug":"20251120173348841798000000","mlsSource":"CRMLS","propertyType":"B","propertySubType":"Townhouse","livingArea":1608,"unparsedAddress":"527 South SIERRA Avenue, 185, Solana Beach, CA 92075"}},{"type":"Feature","geometry":{"type":"Point","coordinates":[-117.272237,32.982085]},"properties":{"listingKey":"20250718132409294827000000","listingId":"8N-2507074","listPrice":5800,"city":"Solana Beach","baths":2,"slug":"20250718132409294827000000","mlsSource":"CRMLS","propertyType":"B","propertySubType":"Condominium","livingArea":1175,"unparsedAddress":"190 Del Mar Shores, 54, Solana Beach, CA 92075"}},{"type":"Feature","geometry":{"type":"Point","coordinates":[-117.269991,32.981077]},"properties":{"listingKey":"20250825201640685584000000","listingId":"8N-2508333","listPrice":5600,"city":"Solana Beach","baths":2.5,"slug":"20250825201640685584000000","mlsSource":"CRMLS","propertyType":"B","propertySubType":"Townhouse","livingArea":1382,"unparsedAddress":"870 South SIERRA, Solana Beach, CA 92075"}},{"type":"Feature","geometry":{"type":"Point","coordinates":[-117.269293,32.985425]},"properties":{"listingKey":"20251112211039807211000000","listingId":"8N-2510777","listPrice":9799000,"city":"Solana Beach","baths":5.5,"slug":"20251112211039807211000000","mlsSource":"CRMLS","propertyType":"A","propertySubType":"Single Family Residence","livingArea":5571,"associationFee":0,"unparsedAddress":"601 North Cedros, Solana Beach, CA 92075"}},{"type":"Feature","id":356905,"properties":{"cluster":true,"cluster_id":356905,"point_count":2,"point_count_abbreviated":2},"geometry":{"type":"Point","coordinates":[-117.27275490760803,32.98643791905735]}},{"type":"Feature","geometry":{"type":"Point","coordinates":[-117.272544,32.988788]},"properties":{"listingKey":"20251111183452277851000000","listingId":"8N-2510736","listPrice":1750000,"city":"Solana Beach","baths":3,"slug":"20251111183452277851000000","mlsSource":"CRMLS","propertyType":"A","propertySubType":"Townhouse","livingArea":1710,"associationFee":325,"unparsedAddress":"241 South Sierra Avenue, Solana Beach, CA 92075"}},{"type":"Feature","geometry":{"type":"Point","coordinates":[-117.268126,32.986665]},"properties":{"listingKey":"20251114042739425252000000","listingId":"8N-2510836","listPrice":9998000,"city":"Solana Beach","baths":5,"slug":"20251114042739425252000000","mlsSource":"CRMLS","propertyType":"A","propertySubType":"Single Family Residence","livingArea":6400,"associationFee":0,"unparsedAddress":"501 S Rios Ave, Solana Beach, CA 92075"}}]