[{"type":"Feature","geometry":{"type":"Point","coordinates":[-118.267744,34.16663]},"properties":{"listingKey":"20251003000820228856000000","listingId":"GD-25230894","listPrice":1399000,"city":"Glendale","baths":2,"slug":"20251003000820228856000000","mlsSource":"CRMLS","propertyType":"A","propertySubType":"Single Family Residence","livingArea":1814,"associationFee":0,"unparsedAddress":"545 Spencer, Glendale, CA 91202"}},{"type":"Feature","geometry":{"type":"Point","coordinates":[-118.265309,34.169256]},"properties":{"listingKey":"20250923222111956859000000","listingId":"BB-25215297","listPrice":2995000,"city":"Glendale","baths":4.5,"slug":"20250923222111956859000000","mlsSource":"CRMLS","propertyType":"A","propertySubType":"Single Family Residence","livingArea":3857,"associationFee":0,"unparsedAddress":"430 West Kenneth Road, Glendale, CA 91202"}},{"type":"Feature","geometry":{"type":"Point","coordinates":[-118.260457,34.166848]},"properties":{"listingKey":"20250825192639290384000000","listingId":"P1-23830","listPrice":4750,"city":"Glendale","baths":2.5,"slug":"20250825192639290384000000","mlsSource":"CRMLS","propertyType":"B","propertySubType":"Condominium","livingArea":1491,"unparsedAddress":"1429 Valley View Road, 13, Glendale, CA 91202"}},{"type":"Feature","geometry":{"type":"Point","coordinates":[-118.263721,34.169639]},"properties":{"listingKey":"20250829234125887517000000","listingId":"P1-23886","listPrice":7500,"city":"Glendale","baths":2.5,"slug":"20250829234125887517000000","mlsSource":"CRMLS","propertyType":"B","propertySubType":"Single Family Residence","livingArea":2557,"unparsedAddress":"369 West Kenneth Road, Glendale, CA 91202"}},{"type":"Feature","id":222697,"properties":{"cluster":true,"cluster_id":222697,"point_count":2,"point_count_abbreviated":2},"geometry":{"type":"Point","coordinates":[-118.2620957493782,34.16465451593477]}},{"type":"Feature","geometry":{"type":"Point","coordinates":[-118.267542,34.161936]},"properties":{"listingKey":"20251013181756468199000000","listingId":"GD-25238437","listPrice":3495,"city":"Glendale","baths":3,"slug":"20251013181756468199000000","mlsSource":"CRMLS","propertyType":"B","propertySubType":"Condominium","livingArea":1300,"associationFee":0,"unparsedAddress":"569 Palm Drive, 1, Glendale, CA 91202"}},{"type":"Feature","geometry":{"type":"Point","coordinates":[-118.266823,34.163875]},"properties":{"listingKey":"20251115052843731081000000","listingId":"MB-25259511","listPrice":775000,"city":"Glendale","baths":3,"slug":"20251115052843731081000000","mlsSource":"CRMLS","propertyType":"A","propertySubType":"Condominium","livingArea":1328,"associationFee":350,"unparsedAddress":"543 West Stocker, Glendale, CA 91202"}},{"type":"Feature","id":159337,"properties":{"cluster":true,"cluster_id":159337,"point_count":2,"point_count_abbreviated":2},"geometry":{"type":"Point","coordinates":[-118.26098263263702,34.16186698817377]}},{"type":"Feature","geometry":{"type":"Point","coordinates":[-118.257228,34.163042]},"properties":{"listingKey":"20251104014429292530000000","listingId":"P1-24796","listPrice":1995,"city":"Glendale","baths":1,"slug":"20251104014429292530000000","mlsSource":"CRMLS","propertyType":"B","propertySubType":"Apartment","livingArea":675,"unparsedAddress":"1145 North Central Avenue, 10, Glendale, CA 91202"}},{"type":"Feature","geometry":{"type":"Point","coordinates":[-118.257784,34.164272]},"properties":{"listingKey":"20250702155257048260000000","listingId":"GD-25147384","listPrice":3700,"city":"Glendale","baths":2.5,"slug":"20250702155257048260000000","mlsSource":"CRMLS","propertyType":"B","propertySubType":"Condominium","livingArea":1117,"associationFee":0,"unparsedAddress":"1212 Viola Avenue, 102, Glendale, CA 91202"}}]