[{"type":"Feature","geometry":{"type":"Point","coordinates":[-118.258883,34.021226]},"properties":{"listingKey":"20251021223241170434000000","listingId":"SB-25243959","listPrice":649000,"city":"Los Angeles","baths":2,"slug":"20251021223241170434000000","mlsSource":"CRMLS","propertyType":"A","propertySubType":"Single Family Residence","livingArea":1176,"associationFee":0,"unparsedAddress":"2512 Stanford, Los Angeles, CA 90011"}},{"type":"Feature","geometry":{"type":"Point","coordinates":[-118.265889,34.02443]},"properties":{"listingKey":"20251105011844706846000000","listingId":"DW-25253848","listPrice":2799000,"city":"Los Angeles","baths":0,"slug":"20251105011844706846000000","mlsSource":"CRMLS","propertyType":"C","propertySubType":"Quadruplex","livingArea":7961,"unparsedAddress":"300 East 25th, Los Angeles, CA 90011"}},{"type":"Feature","id":747305,"properties":{"cluster":true,"cluster_id":747305,"point_count":2,"point_count_abbreviated":2},"geometry":{"type":"Point","coordinates":[-118.26458483934402,34.02143074239393]}},{"type":"Feature","geometry":{"type":"Point","coordinates":[-118.263187,34.025349]},"properties":{"listingKey":"20250726081832703358000000","listingId":"OC-25167848","listPrice":619900,"city":"Los Angeles","baths":2,"slug":"20250726081832703358000000","mlsSource":"CRMLS","propertyType":"A","propertySubType":"Single Family Residence","livingArea":1043,"associationFee":0,"unparsedAddress":"2301 Wall Street, Los Angeles, CA 90011"}},{"type":"Feature","id":250153,"properties":{"cluster":true,"cluster_id":250153,"point_count":2,"point_count_abbreviated":2},"geometry":{"type":"Point","coordinates":[-118.2622754573822,34.02161748182307]}},{"type":"Feature","geometry":{"type":"Point","coordinates":[-118.26217,34.023907]},"properties":{"listingKey":"20250913014028159012000000","listingId":"BB-25215113","listPrice":1030000,"city":"Los Angeles","baths":0,"slug":"20250913014028159012000000","mlsSource":"CRMLS","propertyType":"C","propertySubType":"Quadruplex","livingArea":4429,"unparsedAddress":"610 East 24th Street, Los Angeles, CA 90011"}},{"type":"Feature","id":828809,"properties":{"cluster":true,"cluster_id":828809,"point_count":2,"point_count_abbreviated":2},"geometry":{"type":"Point","coordinates":[-118.25974345207214,34.02333813294268]}}]