[{"type":"Feature","geometry":{"type":"Point","coordinates":[-118.259537,34.007773]},"properties":{"listingKey":"20250708165259062430000000","listingId":"PW-25141877","listPrice":799900,"city":"Los Angeles","baths":0,"slug":"20250708165259062430000000","mlsSource":"CRMLS","propertyType":"C","propertySubType":"Duplex","livingArea":1402,"associationFee":0,"unparsedAddress":"917 East 42nd Street, Los Angeles, CA 90011"}},{"type":"Feature","geometry":{"type":"Point","coordinates":[-118.258111,34.013515]},"properties":{"listingKey":"20251109030843788687000000","listingId":"PW-25256862","listPrice":3199,"city":"Los Angeles","baths":2,"slug":"20251109030843788687000000","mlsSource":"CRMLS","propertyType":"B","propertySubType":"Townhouse","livingArea":1400,"associationFee":0,"unparsedAddress":"1002 East 33rd Street, 3, Los Angeles, CA 90011"}},{"type":"Feature","id":243977,"properties":{"cluster":true,"cluster_id":243977,"point_count":2,"point_count_abbreviated":2},"geometry":{"type":"Point","coordinates":[-118.26244980096817,34.00983430827732]}},{"type":"Feature","geometry":{"type":"Point","coordinates":[-118.267029,34.014369]},"properties":{"listingKey":"20251026194327104897000000","listingId":"WS-25245547","listPrice":3800,"city":"Los Angeles","baths":2,"slug":"20251026194327104897000000","mlsSource":"CRMLS","propertyType":"B","propertySubType":"Duplex","livingArea":1892,"associationFee":0,"unparsedAddress":"533 East 36th, Los Angeles, CA 90011"}},{"type":"Feature","geometry":{"type":"Point","coordinates":[-118.261823,34.01199]},"properties":{"listingKey":"20251104212125832219000000","listingId":"MB-25253602","listPrice":649000,"city":"Los Angeles","baths":0,"slug":"20251104212125832219000000","mlsSource":"CRMLS","propertyType":"C","propertySubType":"Quadruplex","livingArea":1843,"associationFee":0,"unparsedAddress":"3729 Paloma Street, Los Angeles, CA 90011"}}]