[{"type":"Feature","id":269609,"properties":{"cluster":true,"cluster_id":269609,"point_count":2,"point_count_abbreviated":2},"geometry":{"type":"Point","coordinates":[-118.26130986213684,33.95883656914263]}},{"type":"Feature","id":791369,"properties":{"cluster":true,"cluster_id":791369,"point_count":2,"point_count_abbreviated":2},"geometry":{"type":"Point","coordinates":[-118.26354682445526,33.95623804594035]}},{"type":"Feature","geometry":{"type":"Point","coordinates":[-118.264528,33.95896]},"properties":{"listingKey":"20250906145406505139000000","listingId":"OC-25200579","listPrice":775000,"city":"Los Angeles","baths":0,"slug":"20250906145406505139000000","mlsSource":"CRMLS","propertyType":"C","propertySubType":"Triplex","livingArea":1705,"unparsedAddress":"612 East 87th Street, Los Angeles, CA 90002"}},{"type":"Feature","geometry":{"type":"Point","coordinates":[-118.259928,33.958077]},"properties":{"listingKey":"20251107031900364281000000","listingId":"CV-25255113","listPrice":3300,"city":"Los Angeles","baths":2,"slug":"20251107031900364281000000","mlsSource":"CRMLS","propertyType":"B","propertySubType":"Duplex","livingArea":1350,"associationFee":0,"unparsedAddress":"822 East 87th, Los Angeles, CA 90002"}},{"type":"Feature","geometry":{"type":"Point","coordinates":[-118.258761,33.95497]},"properties":{"listingKey":"20251008174549254521000000","listingId":"DW-25235175","listPrice":1900,"city":"Los Angeles","baths":1,"slug":"20251008174549254521000000","mlsSource":"CRMLS","propertyType":"B","propertySubType":"Quadruplex","livingArea":700,"associationFee":0,"unparsedAddress":"8921 Wadsworth Avenue, Los Angeles, CA 90002"}},{"type":"Feature","geometry":{"type":"Point","coordinates":[-118.260611,33.954456]},"properties":{"listingKey":"20251103160814496705000000","listingId":"DW-25252224","listPrice":937000,"city":"Los Angeles","baths":0,"slug":"20251103160814496705000000","mlsSource":"CRMLS","propertyType":"C","propertySubType":"Duplex","livingArea":2375,"associationFee":0,"unparsedAddress":"800 East 90th, Los Angeles, CA 90002"}},{"type":"Feature","geometry":{"type":"Point","coordinates":[-118.259644,33.953138]},"properties":{"listingKey":"20250720061410973897000000","listingId":"AR-25162885","listPrice":2750,"city":"Los Angeles","baths":1,"slug":"20250720061410973897000000","mlsSource":"CRMLS","propertyType":"B","propertySubType":"Apartment","livingArea":800,"associationFee":0,"unparsedAddress":"835 East 92nd Street, 4, Los Angeles, CA 90002"}},{"type":"Feature","geometry":{"type":"Point","coordinates":[-118.266191,33.955136]},"properties":{"listingKey":"20251012204337726083000000","listingId":"PW-25238082","listPrice":679900,"city":"Los Angeles","baths":2,"slug":"20251012204337726083000000","mlsSource":"CRMLS","propertyType":"A","propertySubType":"Single Family Residence","livingArea":1288,"associationFee":0,"unparsedAddress":"8912 Mettler, Los Angeles, CA 90003"}},{"type":"Feature","geometry":{"type":"Point","coordinates":[-118.26626,33.95318]},"properties":{"listingKey":"20251025085804627287000000","listingId":"DW-25245866","listPrice":610000,"city":"Los Angeles","baths":1,"slug":"20251025085804627287000000","mlsSource":"CRMLS","propertyType":"A","propertySubType":"Single Family Residence","livingArea":884,"associationFee":0,"unparsedAddress":"429 East 92nd, Los Angeles, CA 90003"}}]