[{"type":"Feature","geometry":{"type":"Point","coordinates":[-117.261278,34.403481]},"properties":{"listingKey":"20251031141602341934000000","listingId":"CV-25222340","listPrice":454999,"city":"Hesperia","baths":2,"slug":"20251031141602341934000000","mlsSource":"CRMLS","propertyType":"A","propertySubType":"Single Family Residence","livingArea":1500,"associationFee":0,"unparsedAddress":"18401 Westlawn St, Hesperia, CA 92345"}},{"type":"Feature","geometry":{"type":"Point","coordinates":[-117.258259,34.399871]},"properties":{"listingKey":"20251118203327589775000000","listingId":"DW-25262019","listPrice":429000,"city":"Hesperia","baths":3,"slug":"20251118203327589775000000","mlsSource":"CRMLS","propertyType":"A","propertySubType":"Single Family Residence","livingArea":2896,"associationFee":0,"unparsedAddress":"18550 Yuba, Hesperia, CA 92345"}},{"type":"Feature","geometry":{"type":"Point","coordinates":[-117.256377,34.410435]},"properties":{"listingKey":"20251028213837777375000000","listingId":"PW-25249052","listPrice":419900,"city":"Hesperia","baths":2,"slug":"20251028213837777375000000","mlsSource":"CRMLS","propertyType":"A","propertySubType":"Single Family Residence","livingArea":1868,"associationFee":0,"unparsedAddress":"18629 Orange, Hesperia, CA 92345"}},{"type":"Feature","geometry":{"type":"Point","coordinates":[-117.246609,34.398857]},"properties":{"listingKey":"20251111170005726226000000","listingId":"IG-25256489","listPrice":670000,"city":"Hesperia","baths":3.5,"slug":"20251111170005726226000000","mlsSource":"CRMLS","propertyType":"A","propertySubType":"Single Family Residence","livingArea":3317,"associationFee":0,"unparsedAddress":"19063 Mono Road, Hesperia, CA 92345"}},{"type":"Feature","geometry":{"type":"Point","coordinates":[-117.253721,34.410192]},"properties":{"listingKey":"20250711062639741654000000","listingId":"PW-25146807","listPrice":630900,"city":"Hesperia","baths":3,"slug":"20250711062639741654000000","mlsSource":"CRMLS","propertyType":"A","propertySubType":"Single Family Residence","livingArea":2212,"associationFee":0,"unparsedAddress":"18756 Centennial Street, Hesperia, CA 92345"}},{"type":"Feature","geometry":{"type":"Point","coordinates":[-117.258135,34.415529]},"properties":{"listingKey":"20250923041648901481000000","listingId":"CV-25222846","listPrice":325000,"city":"Hesperia","baths":1.5,"slug":"20250923041648901481000000","mlsSource":"CRMLS","propertyType":"A","propertySubType":"Single Family Residence","livingArea":930,"associationFee":0,"unparsedAddress":"18548 Main Street, Hesperia, CA 92345"}},{"type":"Feature","geometry":{"type":"Point","coordinates":[-117.265651,34.403169]},"properties":{"listingKey":"20251017033633843996000000","listingId":"PW-25241606","listPrice":439900,"city":"Hesperia","baths":2,"slug":"20251017033633843996000000","mlsSource":"CRMLS","propertyType":"A","propertySubType":"Single Family Residence","livingArea":1422,"associationFee":0,"unparsedAddress":"18236 Danbury, Hesperia, CA 92345"}},{"type":"Feature","geometry":{"type":"Point","coordinates":[-117.267347,34.398342]},"properties":{"listingKey":"20251118181947648627000000","listingId":"TR-25261415","listPrice":2800,"city":"Hesperia","baths":2.5,"slug":"20251118181947648627000000","mlsSource":"CRMLS","propertyType":"B","propertySubType":"Single Family Residence","livingArea":2106,"associationFee":0,"unparsedAddress":"8104 Corona Avenue, Hesperia, CA 92345"}}]