[{"type":"Feature","id":462600,"properties":{"cluster":true,"cluster_id":462600,"point_count":2,"point_count_abbreviated":2},"geometry":{"type":"Point","coordinates":[-117.26087272167206,33.97234850010781]}},{"type":"Feature","geometry":{"type":"Point","coordinates":[-117.259506,33.974281]},"properties":{"listingKey":"20250818193948516198000000","listingId":"IG-25185918","listPrice":649000,"city":"Moreno Valley","baths":3,"slug":"20250818193948516198000000","mlsSource":"CRMLS","propertyType":"A","propertySubType":"Single Family Residence","livingArea":2567,"associationFee":88,"unparsedAddress":"10086 Deville Drive, Moreno Valley, CA 92557"}},{"type":"Feature","geometry":{"type":"Point","coordinates":[-117.255519,33.977755]},"properties":{"listingKey":"20251104064148481429000000","listingId":"IV-25253302","listPrice":1450,"city":"Moreno Valley","baths":1,"slug":"20251104064148481429000000","mlsSource":"CRMLS","propertyType":"B","propertySubType":"Studio","livingArea":500,"unparsedAddress":"9840 Shadow Mountain, Moreno Valley, CA 92557"}},{"type":"Feature","geometry":{"type":"Point","coordinates":[-117.25706,33.975835]},"properties":{"listingKey":"20251109002940090643000000","listingId":"OC-25245300","listPrice":750000,"city":"Moreno Valley","baths":3,"slug":"20251109002940090643000000","mlsSource":"CRMLS","propertyType":"A","propertySubType":"Single Family Residence","livingArea":2646,"associationFee":0,"unparsedAddress":"23247 Montalvo, Moreno Valley, CA 92557"}},{"type":"Feature","id":427272,"properties":{"cluster":true,"cluster_id":427272,"point_count":2,"point_count_abbreviated":2},"geometry":{"type":"Point","coordinates":[-117.25055694580078,33.96635137191055]}},{"type":"Feature","geometry":{"type":"Point","coordinates":[-117.254286,33.974576]},"properties":{"listingKey":"20250821160357977284000000","listingId":"TR-25187905","listPrice":3350,"city":"Moreno Valley","baths":2,"slug":"20250821160357977284000000","mlsSource":"CRMLS","propertyType":"B","propertySubType":"Single Family Residence","livingArea":2128,"unparsedAddress":"10088 Sand Crest, Moreno Valley, CA 92557"}},{"type":"Feature","geometry":{"type":"Point","coordinates":[-117.248233,33.961937]},"properties":{"listingKey":"20251031171028600155000000","listingId":"IV-25251235","listPrice":525000,"city":"Moreno Valley","baths":2,"slug":"20251031171028600155000000","mlsSource":"CRMLS","propertyType":"A","propertySubType":"Single Family Residence","livingArea":1441,"associationFee":133,"unparsedAddress":"23760 Redbark, Moreno Valley, CA 92557"}},{"type":"Feature","geometry":{"type":"Point","coordinates":[-117.247959,33.966826]},"properties":{"listingKey":"20251105152155888909000000","listingId":"IV-25229207","listPrice":599000,"city":"Moreno Valley","baths":2.5,"slug":"20251105152155888909000000","mlsSource":"CRMLS","propertyType":"A","propertySubType":"Single Family Residence","livingArea":1861,"associationFee":127,"unparsedAddress":"23760 Timber Bluff Court, Moreno Valley, CA 92557"}}]