[{"type":"Feature","geometry":{"type":"Point","coordinates":[-117.246303,33.69492]},"properties":{"listingKey":"20251007155617580497000000","listingId":"SW-25224313","listPrice":599900,"city":"Menifee","baths":3,"slug":"20251007155617580497000000","mlsSource":"CRMLS","propertyType":"A","propertySubType":"Single Family Residence","livingArea":2233,"associationFee":100,"unparsedAddress":"23678 Cheyenne Canyon Drive, Menifee, CA 92587"}},{"type":"Feature","id":575529,"properties":{"cluster":true,"cluster_id":575529,"point_count":2,"point_count_abbreviated":2},"geometry":{"type":"Point","coordinates":[-117.25064814090729,33.69509279855805]}},{"type":"Feature","geometry":{"type":"Point","coordinates":[-117.247726,33.68838]},"properties":{"listingKey":"20251026182741931582000000","listingId":"SW-25242954","listPrice":539900,"city":"Canyon Lake","baths":2,"slug":"20251026182741931582000000","mlsSource":"CRMLS","propertyType":"A","propertySubType":"Single Family Residence","livingArea":1309,"associationFee":350,"unparsedAddress":"23592 Schooner, Canyon Lake, CA 92587"}},{"type":"Feature","geometry":{"type":"Point","coordinates":[-117.250849,33.705902]},"properties":{"listingKey":"20251023191823532762000000","listingId":"PW-25245882","listPrice":459000,"city":"Canyon Lake","baths":2,"slug":"20251023191823532762000000","mlsSource":"CRMLS","propertyType":"A","propertySubType":"Single Family Residence","livingArea":1056,"associationFee":0,"unparsedAddress":"28545 Connecticut, Canyon Lake, CA 92587"}},{"type":"Feature","id":469384,"properties":{"cluster":true,"cluster_id":469384,"point_count":2,"point_count_abbreviated":2},"geometry":{"type":"Point","coordinates":[-117.25067764520645,33.69859187971427]}},{"type":"Feature","id":369160,"properties":{"cluster":true,"cluster_id":369160,"point_count":2,"point_count_abbreviated":2},"geometry":{"type":"Point","coordinates":[-117.24755018949509,33.704170477137055]}},{"type":"Feature","id":590248,"properties":{"cluster":true,"cluster_id":590248,"point_count":2,"point_count_abbreviated":2},"geometry":{"type":"Point","coordinates":[-117.26543247699738,33.68793798374816]}},{"type":"Feature","geometry":{"type":"Point","coordinates":[-117.264601,33.691918]},"properties":{"listingKey":"20251113202254647935000000","listingId":"IV-25259873","listPrice":3300,"city":"Canyon Lake","baths":2.5,"slug":"20251113202254647935000000","mlsSource":"CRMLS","propertyType":"B","propertySubType":"Single Family Residence","livingArea":2801,"unparsedAddress":"22244 San Joaquin Drive West, Canyon Lake, CA 92587"}},{"type":"Feature","geometry":{"type":"Point","coordinates":[-117.263366,33.69431]},"properties":{"listingKey":"20251001025943155166000000","listingId":"IV-25227112","listPrice":985000,"city":"Canyon Lake","baths":4,"slug":"20251001025943155166000000","mlsSource":"CRMLS","propertyType":"A","propertySubType":"Single Family Residence","livingArea":3505,"associationFee":362,"unparsedAddress":"22711 Inspiration Point, Canyon Lake, CA 92587"}},{"type":"Feature","id":169128,"properties":{"cluster":true,"cluster_id":169128,"point_count":2,"point_count_abbreviated":2},"geometry":{"type":"Point","coordinates":[-117.26477533578873,33.696516549028985]}},{"type":"Feature","geometry":{"type":"Point","coordinates":[-117.259439,33.691198]},"properties":{"listingKey":"20250702061628404800000000","listingId":"SW-25140659","listPrice":899000,"city":"Canyon Lake","baths":3.5,"slug":"20250702061628404800000000","mlsSource":"CRMLS","propertyType":"A","propertySubType":"Single Family Residence","livingArea":3337,"associationFee":303,"unparsedAddress":"22941 Gold Rush Place, Canyon Lake, CA 92587"}},{"type":"Feature","geometry":{"type":"Point","coordinates":[-117.260135,33.68874]},"properties":{"listingKey":"20251111184507820923000000","listingId":"IG-25252754","listPrice":779000,"city":"Canyon Lake","baths":2.5,"slug":"20251111184507820923000000","mlsSource":"CRMLS","propertyType":"A","propertySubType":"Single Family Residence","livingArea":2517,"associationFee":345,"unparsedAddress":"29707 Yellow Gold Drive, Canyon Lake, CA 92587"}}]