[{"type":"Feature","geometry":{"type":"Point","coordinates":[-117.250634,33.059005]},"properties":{"listingKey":"20250925013157638690000000","listingId":"8N-2509328","listPrice":1725000,"city":"Encinitas","baths":1.75,"slug":"20250925013157638690000000","mlsSource":"CRMLS","propertyType":"A","propertySubType":"Single Family Residence","livingArea":1703,"associationFee":74,"unparsedAddress":"1633 Willowspring Drive North, Encinitas, CA 92024"}},{"type":"Feature","geometry":{"type":"Point","coordinates":[-117.252397,33.04786]},"properties":{"listingKey":"20251022001409213397000000","listingId":"8N-2509577","listPrice":2099000,"city":"Encinitas","baths":4,"slug":"20251022001409213397000000","mlsSource":"CRMLS","propertyType":"A","propertySubType":"Single Family Residence","livingArea":3284,"associationFee":0,"unparsedAddress":"1641 Tucker Ln, Encinitas, CA 92024"}},{"type":"Feature","geometry":{"type":"Point","coordinates":[-117.256786,33.055279]},"properties":{"listingKey":"20251030031043370845000000","listingId":"8N-2510381","listPrice":1800000,"city":"Encinitas","baths":2.5,"slug":"20251030031043370845000000","mlsSource":"CRMLS","propertyType":"A","propertySubType":"Single Family Residence","livingArea":2753,"associationFee":108,"unparsedAddress":"1519 Valleda Ln., Encinitas, CA 92024"}},{"type":"Feature","geometry":{"type":"Point","coordinates":[-117.264673,33.049152]},"properties":{"listingKey":"20251015213229795968000000","listingId":"8N-2509957","listPrice":2099900,"city":"Encinitas","baths":2.5,"slug":"20251015213229795968000000","mlsSource":"CRMLS","propertyType":"A","propertySubType":"Single Family Residence","livingArea":2767,"associationFee":230,"unparsedAddress":"213 Via Palacio, Encinitas, CA 92024"}},{"type":"Feature","id":513577,"properties":{"cluster":true,"cluster_id":513577,"point_count":2,"point_count_abbreviated":2},"geometry":{"type":"Point","coordinates":[-117.26408064365387,33.056847655037444]}}]