[{"type":"Feature","geometry":{"type":"Point","coordinates":[-117.322725,33.986542]},"properties":{"listingKey":"20251003215631865248000000","listingId":"IV-25232134","listPrice":599900,"city":"Riverside","baths":2,"slug":"20251003215631865248000000","mlsSource":"CRMLS","propertyType":"A","propertySubType":"Single Family Residence","livingArea":1420,"associationFee":0,"unparsedAddress":"514 Massachusetts Avenue, Riverside, CA 92507"}},{"type":"Feature","geometry":{"type":"Point","coordinates":[-117.313061,33.981811]},"properties":{"listingKey":"20250905214408677684000000","listingId":"OC-25200101","listPrice":749000,"city":"Riverside","baths":2,"slug":"20250905214408677684000000","mlsSource":"CRMLS","propertyType":"A","propertySubType":"Single Family Residence","livingArea":2600,"associationFee":0,"unparsedAddress":"138 Green Oaks Drive, Riverside, CA 92507"}},{"type":"Feature","geometry":{"type":"Point","coordinates":[-117.31734,33.98019]},"properties":{"listingKey":"20250912133457698474000000","listingId":"IV-25214956","listPrice":2850,"city":"Riverside","baths":2,"slug":"20250912133457698474000000","mlsSource":"CRMLS","propertyType":"B","propertySubType":"Single Family Residence","livingArea":1572,"associationFee":0,"unparsedAddress":"270 W Campus View Drive, Riverside, CA 92507"}},{"type":"Feature","geometry":{"type":"Point","coordinates":[-117.321215,33.984402]},"properties":{"listingKey":"20251015215253093178000000","listingId":"IV-25240432","listPrice":2995,"city":"Riverside","baths":2,"slug":"20251015215253093178000000","mlsSource":"CRMLS","propertyType":"B","propertySubType":"Single Family Residence","livingArea":1650,"associationFee":0,"unparsedAddress":"3195 Newell, Riverside, CA 92507"}},{"type":"Feature","geometry":{"type":"Point","coordinates":[-117.321291,33.987678]},"properties":{"listingKey":"20250914051413835910000000","listingId":"TR-25216901","listPrice":3250,"city":"Riverside","baths":2,"slug":"20250914051413835910000000","mlsSource":"CRMLS","propertyType":"B","propertySubType":"Single Family Residence","livingArea":1618,"associationFee":0,"unparsedAddress":"455 Glenhill Drive, Riverside, CA 92507"}}]