[{"type":"Feature","geometry":{"type":"Point","coordinates":[-117.479324,34.147362]},"properties":{"listingKey":"20251031163847286367000000","listingId":"CV-25251199","listPrice":780000,"city":"Fontana","baths":2.5,"slug":"20251031163847286367000000","mlsSource":"CRMLS","propertyType":"A","propertySubType":"Single Family Residence","livingArea":2530,"associationFee":0,"unparsedAddress":"5876 Half Dome Drive, Fontana, CA 92336"}},{"type":"Feature","geometry":{"type":"Point","coordinates":[-117.472328,34.148244]},"properties":{"listingKey":"20251012070247611663000000","listingId":"IV-25237604","listPrice":820000,"city":"Fontana","baths":2.5,"slug":"20251012070247611663000000","mlsSource":"CRMLS","propertyType":"A","propertySubType":"Single Family Residence","livingArea":2473,"associationFee":0,"unparsedAddress":"5825 Opal, Fontana, CA 92336"}},{"type":"Feature","id":180648,"properties":{"cluster":true,"cluster_id":180648,"point_count":2,"point_count_abbreviated":2},"geometry":{"type":"Point","coordinates":[-117.48082727193832,34.154205251492115]}},{"type":"Feature","geometry":{"type":"Point","coordinates":[-117.477655,34.154276]},"properties":{"listingKey":"20251009200751372628000000","listingId":"CV-25236254","listPrice":720000,"city":"Fontana","baths":2.5,"slug":"20251009200751372628000000","mlsSource":"CRMLS","propertyType":"A","propertySubType":"Single Family Residence","livingArea":1629,"associationFee":0,"unparsedAddress":"14998 Mustang lane, Fontana, CA 92336"}},{"type":"Feature","geometry":{"type":"Point","coordinates":[-117.487243,34.156493]},"properties":{"listingKey":"20251104022234751321000000","listingId":"CV-25253050","listPrice":830000,"city":"Fontana","baths":2.5,"slug":"20251104022234751321000000","mlsSource":"CRMLS","propertyType":"A","propertySubType":"Single Family Residence","livingArea":2560,"associationFee":0,"unparsedAddress":"5370 Wrangler Drive, Fontana, CA 92336"}},{"type":"Feature","geometry":{"type":"Point","coordinates":[-117.486061,34.151759]},"properties":{"listingKey":"20251107031812903314000000","listingId":"CV-25255809","listPrice":780000,"city":"Fontana","baths":3,"slug":"20251107031812903314000000","mlsSource":"CRMLS","propertyType":"A","propertySubType":"Single Family Residence","livingArea":1776,"associationFee":0,"unparsedAddress":"5630 Hunt Club, Fontana, CA 92336"}},{"type":"Feature","id":633545,"properties":{"cluster":true,"cluster_id":633545,"point_count":2,"point_count_abbreviated":2},"geometry":{"type":"Point","coordinates":[-117.4673867225647,34.14551726185202]}}]