[{"type":"Feature","geometry":{"type":"Point","coordinates":[-117.302372,34.53282]},"properties":{"listingKey":"20251021223246524624000000","listingId":"OC-25243978","listPrice":349900,"city":"Victorville","baths":2.5,"slug":"20251021223246524624000000","mlsSource":"CRMLS","propertyType":"A","propertySubType":"Single Family Residence","livingArea":988,"associationFee":0,"unparsedAddress":"16611 Yucca Avenue, Victorville, CA 92395"}},{"type":"Feature","geometry":{"type":"Point","coordinates":[-117.307166,34.526998]},"properties":{"listingKey":"20251111055020395074000000","listingId":"DW-25246225","listPrice":375000,"city":"Victorville","baths":1.5,"slug":"20251111055020395074000000","mlsSource":"CRMLS","propertyType":"A","propertySubType":"Single Family Residence","livingArea":1220,"associationFee":0,"unparsedAddress":"15067 Tatum Road, Victorville, CA 92395"}},{"type":"Feature","geometry":{"type":"Point","coordinates":[-117.3099,34.527221]},"properties":{"listingKey":"20251016185107163567000000","listingId":"OC-25240983","listPrice":339900,"city":"Victorville","baths":2,"slug":"20251016185107163567000000","mlsSource":"CRMLS","propertyType":"A","propertySubType":"Single Family Residence","livingArea":1222,"associationFee":0,"unparsedAddress":"15212 Las Piedras Drive, Victorville, CA 92395"}},{"type":"Feature","geometry":{"type":"Point","coordinates":[-117.308321,34.528078]},"properties":{"listingKey":"20250723100406753649000000","listingId":"DW-25157791","listPrice":395000,"city":"Victorville","baths":2,"slug":"20250723100406753649000000","mlsSource":"CRMLS","propertyType":"A","propertySubType":"Single Family Residence","livingArea":1420,"associationFee":0,"unparsedAddress":"15267 Del Rey Drive, Victorville, CA 92395"}},{"type":"Feature","geometry":{"type":"Point","coordinates":[-117.305391,34.525069]},"properties":{"listingKey":"20251008230208421241000000","listingId":"CV-25235594","listPrice":379900,"city":"Victorville","baths":2,"slug":"20251008230208421241000000","mlsSource":"CRMLS","propertyType":"A","propertySubType":"Single Family Residence","livingArea":1356,"associationFee":0,"unparsedAddress":"15015 Tatum Road, Victorville, CA 92395"}}]