[{"type":"Feature","geometry":{"type":"Point","coordinates":[-118.502331,34.21365]},"properties":{"listingKey":"20250930203440278463000000","listingId":"GD-25228635","listPrice":4400,"city":"Van Nuys","baths":3,"slug":"20250930203440278463000000","mlsSource":"CRMLS","propertyType":"B","propertySubType":"Single Family Residence","livingArea":2150,"associationFee":0,"unparsedAddress":"7856 Paso Robles, Van Nuys, CA 91406"}},{"type":"Feature","geometry":{"type":"Point","coordinates":[-118.501793,34.207474]},"properties":{"listingKey":"20251113232049784457000000","listingId":"TR-25259976","listPrice":4899,"city":"Van Nuys","baths":2,"slug":"20251113232049784457000000","mlsSource":"CRMLS","propertyType":"B","propertySubType":"Single Family Residence","livingArea":1409,"associationFee":0,"unparsedAddress":"16913 Covello, Van Nuys, CA 91406"}},{"type":"Feature","geometry":{"type":"Point","coordinates":[-118.51194,34.206616]},"properties":{"listingKey":"20251010195123972373000000","listingId":"P1-24511","listPrice":899000,"city":"Van Nuys","baths":2.5,"slug":"20251010195123972373000000","mlsSource":"CRMLS","propertyType":"A","propertySubType":"Single Family Residence","livingArea":1516,"unparsedAddress":"17402 Cohasset Street, Van Nuys, CA 91406"}},{"type":"Feature","id":204263,"properties":{"cluster":true,"cluster_id":204263,"point_count":2,"point_count_abbreviated":2},"geometry":{"type":"Point","coordinates":[-118.5051092505455,34.20172254322877]}},{"type":"Feature","id":126247,"properties":{"cluster":true,"cluster_id":126247,"point_count":3,"point_count_abbreviated":3},"geometry":{"type":"Point","coordinates":[-118.48283529281618,34.19932964082176]}},{"type":"Feature","id":512969,"properties":{"cluster":true,"cluster_id":512969,"point_count":2,"point_count_abbreviated":2},"geometry":{"type":"Point","coordinates":[-118.50102692842484,34.203106787035054]}},{"type":"Feature","geometry":{"type":"Point","coordinates":[-118.518181,34.198672]},"properties":{"listingKey":"20251029185019142742000000","listingId":"BB-25248802","listPrice":4200,"city":"Van Nuys","baths":2,"slug":"20251029185019142742000000","mlsSource":"CRMLS","propertyType":"B","propertySubType":"Single Family Residence","livingArea":1200,"associationFee":0,"unparsedAddress":"7044 White Oak, A, Van Nuys, CA 91406"}},{"type":"Feature","geometry":{"type":"Point","coordinates":[-118.510635,34.213514]},"properties":{"listingKey":"20251022055112014084000000","listingId":"BB-25244796","listPrice":2150,"city":"Northridge","baths":1,"slug":"20251022055112014084000000","mlsSource":"CRMLS","propertyType":"B","propertySubType":"Single Family Residence","livingArea":500,"associationFee":0,"unparsedAddress":"7844 Lasaine, Northridge, CA 91325"}},{"type":"Feature","geometry":{"type":"Point","coordinates":[-118.495376,34.233087]},"properties":{"listingKey":"20251113181229949787000000","listingId":"GD-25259782","listPrice":999999,"city":"North Hills","baths":3,"slug":"20251113181229949787000000","mlsSource":"CRMLS","propertyType":"A","propertySubType":"Single Family Residence","livingArea":2206,"associationFee":0,"unparsedAddress":"8930 Rubio, North Hills, CA 91343"}},{"type":"Feature","geometry":{"type":"Point","coordinates":[-118.48203,34.228081]},"properties":{"listingKey":"20250921223634959643000000","listingId":"BB-25207928","listPrice":1150000,"city":"North Hills","baths":1.5,"slug":"20250921223634959643000000","mlsSource":"CRMLS","propertyType":"A","propertySubType":"Single Family Residence","livingArea":1595,"associationFee":0,"unparsedAddress":"16040 Parthenia, North Hills, CA 91343"}},{"type":"Feature","id":612903,"properties":{"cluster":true,"cluster_id":612903,"point_count":2,"point_count_abbreviated":2},"geometry":{"type":"Point","coordinates":[-118.51087063550949,34.23394468187816]}},{"type":"Feature","id":889897,"properties":{"cluster":true,"cluster_id":889897,"point_count":2,"point_count_abbreviated":2},"geometry":{"type":"Point","coordinates":[-118.52026104927063,34.21672617889325]}},{"type":"Feature","id":566439,"properties":{"cluster":true,"cluster_id":566439,"point_count":2,"point_count_abbreviated":2},"geometry":{"type":"Point","coordinates":[-118.48122417926788,34.22311366949941]}},{"type":"Feature","geometry":{"type":"Point","coordinates":[-118.503322,34.220444]},"properties":{"listingKey":"20251108230707295676000000","listingId":"GD-25256866","listPrice":1049000,"city":"Van Nuys","baths":2,"slug":"20251108230707295676000000","mlsSource":"CRMLS","propertyType":"A","propertySubType":"Single Family Residence","livingArea":1375,"associationFee":0,"unparsedAddress":"17011 Burton Street, Van Nuys, CA 91406"}},{"type":"Feature","geometry":{"type":"Point","coordinates":[-118.501227,34.233849]},"properties":{"listingKey":"20251015215253175836000000","listingId":"GD-25240072","listPrice":3300,"city":"Northridge","baths":2,"slug":"20251015215253175836000000","mlsSource":"CRMLS","propertyType":"B","propertySubType":"Apartment","livingArea":1000,"associationFee":0,"unparsedAddress":"8965 Mclennan Avenue, Northridge, CA 91343"}}]