[{"type":"Feature","geometry":{"type":"Point","coordinates":[-116.198088,33.68143]},"properties":{"listingKey":"20251008005213667531000000","listingId":"219136742","listPrice":539900,"city":"Coachella","baths":2,"slug":"20251008005213667531000000","mlsSource":"GPS","propertyType":"A","propertySubType":"Single Family Residence","livingArea":1951,"associationFee":0,"unparsedAddress":"50252 Paseo Barcelona, Coachella, CA 92236"}},{"type":"Feature","geometry":{"type":"Point","coordinates":[-116.200415,33.680877]},"properties":{"listingKey":"20251117203603641981000000","listingId":"219138952","listPrice":500000,"city":"Coachella","baths":3,"slug":"20251117203603641981000000","mlsSource":"GPS","propertyType":"A","propertySubType":"Single Family Residence","livingArea":2824,"associationFee":0,"unparsedAddress":"83920 Pyramid Ranch Drive, Coachella, CA 92236"}},{"type":"Feature","geometry":{"type":"Point","coordinates":[-116.201815,33.680889]},"properties":{"listingKey":"20250930203253346129000000","listingId":"219136091","listPrice":625259,"city":"Coachella","baths":2,"slug":"20250930203253346129000000","mlsSource":"GPS","propertyType":"A","propertySubType":"Single Family Residence","livingArea":2824,"associationFee":0,"unparsedAddress":"83-834 Pyramid Ranch Drive, Coachella, CA 92236"}},{"type":"Feature","geometry":{"type":"Point","coordinates":[-116.194483,33.684382]},"properties":{"listingKey":"20251004004438985514000000","listingId":"OC-25232353","listPrice":3800,"city":"Coachella","baths":3.5,"slug":"20251004004438985514000000","mlsSource":"CRMLS","propertyType":"B","propertySubType":"Single Family Residence","livingArea":3093,"unparsedAddress":"84476 Ruebens Way, Coachella, CA 92236"}},{"type":"Feature","geometry":{"type":"Point","coordinates":[-116.192857,33.679784]},"properties":{"listingKey":"20251008180314192196000000","listingId":"CV-25234224","listPrice":499990,"city":"Coachella","baths":2,"slug":"20251008180314192196000000","mlsSource":"CRMLS","propertyType":"A","propertySubType":"Single Family Residence","livingArea":1256,"associationFee":0,"unparsedAddress":"50855 Chiapas Drive, Coachella, CA 92236"}},{"type":"Feature","geometry":{"type":"Point","coordinates":[-116.195603,33.679769]},"properties":{"listingKey":"20251009164713375356000000","listingId":"219136792","listPrice":630000,"city":"Coachella","baths":2.5,"slug":"20251009164713375356000000","mlsSource":"GPS","propertyType":"A","propertySubType":"Single Family Residence","livingArea":2404,"associationFee":0,"unparsedAddress":"84440 Calle Chavez, Coachella, CA 92236"}}]