[{"type":"Feature","id":61475,"properties":{"cluster":true,"cluster_id":61475,"point_count":6,"point_count_abbreviated":6},"geometry":{"type":"Point","coordinates":[-123.33981692790987,39.38462253816385]}},{"type":"Feature","geometry":{"type":"Point","coordinates":[-123.210427,39.374707]},"properties":{"listingKey":"20250910005357880291000000","listingId":"OC-25181342","listPrice":435000,"city":"Redwood Valley","baths":2,"slug":"20250910005357880291000000","mlsSource":"CRMLS","propertyType":"A","propertySubType":"Single Family Residence","livingArea":1356,"associationFee":0,"unparsedAddress":"19899 Scenic Drive, Redwood Valley, CA 95470"}},{"type":"Feature","id":62211,"properties":{"cluster":true,"cluster_id":62211,"point_count":2,"point_count_abbreviated":2},"geometry":{"type":"Point","coordinates":[-123.35430443286896,39.46487815662729]}},{"type":"Feature","geometry":{"type":"Point","coordinates":[-123.250027,39.789647]},"properties":{"listingKey":"20251023191817269086000000","listingId":"LC-25243539","listPrice":349000,"city":"Covelo","baths":2,"slug":"20251023191817269086000000","mlsSource":"CRMLS","propertyType":"A","propertySubType":"Single Family Residence","livingArea":2500,"associationFee":0,"unparsedAddress":"23925 Eberle Street, Covelo, CA 95428"}},{"type":"Feature","geometry":{"type":"Point","coordinates":[-123.603069,39.83006]},"properties":{"listingKey":"20250625221037273446000000","listingId":"C1-11060","listPrice":150000,"city":"Leggett","baths":1,"slug":"20250625221037273446000000","mlsSource":"CRMLS","propertyType":"A","propertySubType":"Cabin","livingArea":256,"unparsedAddress":"58901 Hwy 101, Leggett, CA 95585"}},{"type":"Feature","geometry":{"type":"Point","coordinates":[-123.505708,39.67385]},"properties":{"listingKey":"20251101193341311838000000","listingId":"C1-11187","listPrice":425000,"city":"Laytonville","baths":2,"slug":"20251101193341311838000000","mlsSource":"CRMLS","propertyType":"A","propertySubType":"Single Family Residence","livingArea":3100,"unparsedAddress":"1840 Branscomb Road Road, Laytonville, CA 95454"}},{"type":"Feature","geometry":{"type":"Point","coordinates":[-123.740475,39.504391]},"properties":{"listingKey":"20251016185545809076000000","listingId":"C1-11170","listPrice":1225000,"city":"Fort Bragg","baths":2,"slug":"20251016185545809076000000","mlsSource":"CRMLS","propertyType":"A","propertySubType":"Single Family Residence","livingArea":2072,"unparsedAddress":"31600 Little Valley Road, Fort Bragg, CA 95437"}},{"type":"Feature","geometry":{"type":"Point","coordinates":[-123.69102,39.846936]},"properties":{"listingKey":"20250704173623190880000000","listingId":"C1-11075","listPrice":525000,"city":"Leggett","baths":2,"slug":"20250704173623190880000000","mlsSource":"CRMLS","propertyType":"A","propertySubType":"Single Family Residence","livingArea":2760,"unparsedAddress":"65235 Hwy 271, Leggett, CA 95585"}}]