[{"type":"Feature","geometry":{"type":"Point","coordinates":[-123.585076,39.196023]},"properties":{"listingKey":"20250710004503399735000000","listingId":"C1-11089","listPrice":638000,"city":"Navarro","baths":2,"slug":"20250710004503399735000000","mlsSource":"CRMLS","propertyType":"A","propertySubType":"Single Family Residence","livingArea":1550,"associationFee":1235,"unparsedAddress":"19200 Tramway, Navarro, CA 95463"}},{"type":"Feature","geometry":{"type":"Point","coordinates":[-123.142592,39.337338]},"properties":{"listingKey":"20251003123803648463000000","listingId":"LC-25229845","listPrice":671000,"city":"Potter Valley","baths":2,"slug":"20251003123803648463000000","mlsSource":"CRMLS","propertyType":"A","propertySubType":"Single Family Residence","livingArea":2066,"associationFee":0,"unparsedAddress":"8451 Gibson Lane, Potter Valley, CA 95469"}},{"type":"Feature","geometry":{"type":"Point","coordinates":[-123.13897,39.255858]},"properties":{"listingKey":"20251027223603216867000000","listingId":"LC-25247983","listPrice":749000,"city":"Redwood Valley","baths":2,"slug":"20251027223603216867000000","mlsSource":"CRMLS","propertyType":"A","propertySubType":"Single Family Residence","livingArea":1808,"associationFee":0,"unparsedAddress":"8500 Black Bart, Redwood Valley, CA 95470"}},{"type":"Feature","id":92708,"properties":{"cluster":true,"cluster_id":92708,"point_count":4,"point_count_abbreviated":4},"geometry":{"type":"Point","coordinates":[-123.21002706885338,39.1345584224415]}},{"type":"Feature","id":77155,"properties":{"cluster":true,"cluster_id":77155,"point_count":2,"point_count_abbreviated":2},"geometry":{"type":"Point","coordinates":[-123.57636988162994,39.26861848224553]}},{"type":"Feature","geometry":{"type":"Point","coordinates":[-123.147049,39.0555]},"properties":{"listingKey":"20251024194832542616000000","listingId":"LC-25246679","listPrice":565000,"city":"Ukiah","baths":2,"slug":"20251024194832542616000000","mlsSource":"CRMLS","propertyType":"A","propertySubType":"Single Family Residence","livingArea":1977,"associationFee":0,"unparsedAddress":"641 Blue Oak Drive, Ukiah, CA 95482"}},{"type":"Feature","id":71843,"properties":{"cluster":true,"cluster_id":71843,"point_count":2,"point_count_abbreviated":2},"geometry":{"type":"Point","coordinates":[-123.6847123503685,38.99713256324176]}},{"type":"Feature","geometry":{"type":"Point","coordinates":[-123.410199,39.048999]},"properties":{"listingKey":"20250729042154601964000000","listingId":"C1-11104","listPrice":895000,"city":"Boonville","baths":2,"slug":"20250729042154601964000000","mlsSource":"CRMLS","propertyType":"A","propertySubType":"Single Family Residence","livingArea":1500,"unparsedAddress":"13635 Denmark Creek Road, Boonville, CA 95415"}},{"type":"Feature","geometry":{"type":"Point","coordinates":[-123.220321,39.014925]},"properties":{"listingKey":"20250702061647156053000000","listingId":"LC-25147921","listPrice":995000,"city":"Ukiah","baths":1,"slug":"20250702061647156053000000","mlsSource":"CRMLS","propertyType":"A","propertySubType":"Single Family Residence","livingArea":2304,"associationFee":0,"unparsedAddress":"4300 Young Creek Road, Ukiah, CA 95482"}},{"type":"Feature","geometry":{"type":"Point","coordinates":[-123.643203,38.862739]},"properties":{"listingKey":"20251014202715876331000000","listingId":"C1-11168","listPrice":4495000,"city":"Point Arena","baths":0,"slug":"20251014202715876331000000","mlsSource":"CRMLS","propertyType":"A","propertySubType":"Single Family Residence","livingArea":4200,"unparsedAddress":"28651 South Highway 1, Point Arena, CA 95468"}}]