[{"type":"Feature","geometry":{"type":"Point","coordinates":[-118.944754,34.186009]},"properties":{"listingKey":"20250912235138482631000000","listingId":"PW-25215972","listPrice":749000,"city":"Newbury Park","baths":2,"slug":"20250912235138482631000000","mlsSource":"CRMLS","propertyType":"A","propertySubType":"Single Family Residence","livingArea":1633,"associationFee":0,"unparsedAddress":"585 North Wendy Drive, Newbury Park, CA 91320"}},{"type":"Feature","id":485223,"properties":{"cluster":true,"cluster_id":485223,"point_count":2,"point_count_abbreviated":2},"geometry":{"type":"Point","coordinates":[-118.95448923110962,34.182274177484445]}},{"type":"Feature","geometry":{"type":"Point","coordinates":[-118.93405,34.178379]},"properties":{"listingKey":"20250731022928967799000000","listingId":"V1-31464","listPrice":549000,"city":"Newbury Park","baths":2.5,"slug":"20250731022928967799000000","mlsSource":"CRMLS","propertyType":"A","propertySubType":"Condominium","livingArea":1365,"associationFee":546,"unparsedAddress":"2742 Borchard Road, Newbury Park, CA 91320"}},{"type":"Feature","id":218727,"properties":{"cluster":true,"cluster_id":218727,"point_count":2,"point_count_abbreviated":2},"geometry":{"type":"Point","coordinates":[-118.95885586738586,34.16278137844294]}},{"type":"Feature","id":118407,"properties":{"cluster":true,"cluster_id":118407,"point_count":2,"point_count_abbreviated":2},"geometry":{"type":"Point","coordinates":[-118.93919259309769,34.16667408444005]}},{"type":"Feature","geometry":{"type":"Point","coordinates":[-118.957703,34.176592]},"properties":{"listingKey":"20250905010647420516000000","listingId":"V1-32183","listPrice":979000,"city":"Newbury Park","baths":2.25,"slug":"20250905010647420516000000","mlsSource":"CRMLS","propertyType":"A","propertySubType":"Single Family Residence","livingArea":1693,"unparsedAddress":"3886 Northland Street, Newbury Park, CA 91320"}},{"type":"Feature","geometry":{"type":"Point","coordinates":[-118.959604,34.192893]},"properties":{"listingKey":"20250819222323864582000000","listingId":"V1-31886","listPrice":999999,"city":"Newbury Park","baths":3,"slug":"20250819222323864582000000","mlsSource":"CRMLS","propertyType":"A","propertySubType":"Single Family Residence","livingArea":2200,"associationFee":90,"unparsedAddress":"933 Cayo Grande Court, Newbury Park, CA 91320"}}]