[{"type":"Feature","geometry":{"type":"Point","coordinates":[-120.486034,37.309001]},"properties":{"listingKey":"20251011011220208273000000","listingId":"MC-25237433","listPrice":225000,"city":"Merced","baths":1,"slug":"20251011011220208273000000","mlsSource":"CRMLS","propertyType":"A","propertySubType":"Single Family Residence","livingArea":665,"associationFee":0,"unparsedAddress":"2222 P Street, Merced, CA 95340"}},{"type":"Feature","id":340392,"properties":{"cluster":true,"cluster_id":340392,"point_count":3,"point_count_abbreviated":3},"geometry":{"type":"Point","coordinates":[-120.48881292343138,37.31153709800232]}},{"type":"Feature","geometry":{"type":"Point","coordinates":[-120.479388,37.301536]},"properties":{"listingKey":"20251007005428578705000000","listingId":"TR-25230788","listPrice":365500,"city":"Merced","baths":1.5,"slug":"20251007005428578705000000","mlsSource":"CRMLS","propertyType":"A","propertySubType":"Single Family Residence","livingArea":1097,"associationFee":0,"unparsedAddress":"259 West 18th Street, Merced, CA 95340"}},{"type":"Feature","geometry":{"type":"Point","coordinates":[-120.487863,37.313061]},"properties":{"listingKey":"20251105181955978632000000","listingId":"MC-25254303","listPrice":389000,"city":"Merced","baths":2.5,"slug":"20251105181955978632000000","mlsSource":"CRMLS","propertyType":"A","propertySubType":"Single Family Residence","livingArea":1901,"associationFee":0,"unparsedAddress":"2525 R, Merced, CA 95340"}},{"type":"Feature","geometry":{"type":"Point","coordinates":[-120.477064,37.307935]},"properties":{"listingKey":"20251114075307955648000000","listingId":"MC-25260454","listPrice":2400000,"city":"Merced","baths":0,"slug":"20251114075307955648000000","mlsSource":"CRMLS","propertyType":"C","propertySubType":"Commercial/Residential","livingArea":7,"unparsedAddress":"2400 K, Merced, CA 95340"}},{"type":"Feature","id":419145,"properties":{"cluster":true,"cluster_id":419145,"point_count":2,"point_count_abbreviated":2},"geometry":{"type":"Point","coordinates":[-120.4973816871643,37.312879642065525]}},{"type":"Feature","geometry":{"type":"Point","coordinates":[-120.489949,37.304697]},"properties":{"listingKey":"20250916075050038097000000","listingId":"MC-25217601","listPrice":349000,"city":"Merced","baths":2,"slug":"20250916075050038097000000","mlsSource":"CRMLS","propertyType":"A","propertySubType":"Single Family Residence","livingArea":1176,"associationFee":0,"unparsedAddress":"944 West 18th St, Merced, CA 95340"}},{"type":"Feature","geometry":{"type":"Point","coordinates":[-120.48804,37.306429]},"properties":{"listingKey":"20251017230417380411000000","listingId":"MC-25242208","listPrice":345000,"city":"Merced","baths":1,"slug":"20251017230417380411000000","mlsSource":"CRMLS","propertyType":"A","propertySubType":"Single Family Residence","livingArea":1378,"associationFee":0,"unparsedAddress":"902 West 20th Street, Merced, CA 95340"}},{"type":"Feature","geometry":{"type":"Point","coordinates":[-120.477903,37.314315]},"properties":{"listingKey":"20250709141804196012000000","listingId":"MC-25152486","listPrice":387500,"city":"Merced","baths":2.5,"slug":"20250709141804196012000000","mlsSource":"CRMLS","propertyType":"A","propertySubType":"Condominium","livingArea":1916,"associationFee":500,"unparsedAddress":"524 St Kevin Court, Merced, CA 95348"}},{"type":"Feature","id":428841,"properties":{"cluster":true,"cluster_id":428841,"point_count":2,"point_count_abbreviated":2},"geometry":{"type":"Point","coordinates":[-120.4962632060051,37.31537124928654]}}]