[{"type":"Feature","geometry":{"type":"Point","coordinates":[-121.718471,37.967956]},"properties":{"listingKey":"20250916140957095046000000","listingId":"01-41111687","listPrice":1199500,"city":"Brentwood","baths":3.5,"slug":"20250916140957095046000000","mlsSource":"CRMLS","propertyType":"A","propertySubType":"Single Family Residence","livingArea":4314,"unparsedAddress":"1148 Breton Dr, Brentwood, CA 94513"}},{"type":"Feature","geometry":{"type":"Point","coordinates":[-121.720538,37.961954]},"properties":{"listingKey":"20250920041754401064000000","listingId":"01-41112194","listPrice":798000,"city":"Brentwood","baths":3,"slug":"20250920041754401064000000","mlsSource":"CRMLS","propertyType":"A","propertySubType":"Single Family Residence","livingArea":2853,"associationFee":45,"unparsedAddress":"1124 Europena Drive, Brentwood, CA 94513"}},{"type":"Feature","geometry":{"type":"Point","coordinates":[-121.722956,37.970091]},"properties":{"listingKey":"20251111023521862783000000","listingId":"01-41117148","listPrice":3200,"city":"Oakley","baths":2,"slug":"20251111023521862783000000","mlsSource":"CRMLS","propertyType":"B","propertySubType":"Single Family Residence","livingArea":1490,"unparsedAddress":"47 Sugarbush Ct, Oakley, CA 94561"}},{"type":"Feature","id":244745,"properties":{"cluster":true,"cluster_id":244745,"point_count":2,"point_count_abbreviated":2},"geometry":{"type":"Point","coordinates":[-121.72319680452347,37.96629396283777]}},{"type":"Feature","geometry":{"type":"Point","coordinates":[-121.725483,37.964449]},"properties":{"listingKey":"20251120054054239213000000","listingId":"01-41117855","listPrice":669000,"city":"Brentwood","baths":2,"slug":"20251120054054239213000000","mlsSource":"CRMLS","propertyType":"A","propertySubType":"Single Family Residence","livingArea":1801,"associationFee":50,"unparsedAddress":"1553 Solitude Way, Brentwood, CA"}},{"type":"Feature","geometry":{"type":"Point","coordinates":[-121.723709,37.963769]},"properties":{"listingKey":"20250710054038230952000000","listingId":"01-41104158","listPrice":735000,"city":"Brentwood","baths":3,"slug":"20250710054038230952000000","mlsSource":"CRMLS","propertyType":"A","propertySubType":"Single Family Residence","livingArea":2654,"associationFee":50,"unparsedAddress":"1357 Tiffany Dr, Brentwood, CA 94513"}}]