[{"type":"Feature","geometry":{"type":"Point","coordinates":[-117.52039,34.000187]},"properties":{"listingKey":"20251111221912507527000000","listingId":"IG-25258429","listPrice":2000,"city":"Jurupa Valley","baths":1,"slug":"20251111221912507527000000","mlsSource":"CRMLS","propertyType":"B","propertySubType":"Single Family Residence","livingArea":576,"associationFee":0,"unparsedAddress":"10830 Bellegrave, Jurupa Valley, CA 91752"}},{"type":"Feature","id":495943,"properties":{"cluster":true,"cluster_id":495943,"point_count":2,"point_count_abbreviated":2},"geometry":{"type":"Point","coordinates":[-117.52626925706863,33.990808813520076]}},{"type":"Feature","geometry":{"type":"Point","coordinates":[-117.532819,33.991709]},"properties":{"listingKey":"20251030235302690470000000","listingId":"IV-25250368","listPrice":775000,"city":"Jurupa Valley","baths":2,"slug":"20251030235302690470000000","mlsSource":"CRMLS","propertyType":"A","propertySubType":"Single Family Residence","livingArea":1892,"associationFee":0,"unparsedAddress":"11428 Humber Drive, Jurupa Valley, CA 91752"}},{"type":"Feature","id":530887,"properties":{"cluster":true,"cluster_id":530887,"point_count":2,"point_count_abbreviated":2},"geometry":{"type":"Point","coordinates":[-117.52901047468185,34.0025546024158]}},{"type":"Feature","id":533671,"properties":{"cluster":true,"cluster_id":533671,"point_count":3,"point_count_abbreviated":3},"geometry":{"type":"Point","coordinates":[-117.53969728946684,33.997603275120255]}},{"type":"Feature","geometry":{"type":"Point","coordinates":[-117.53309,33.997989]},"properties":{"listingKey":"20251028075348748720000000","listingId":"CV-25243886","listPrice":820000,"city":"Jurupa Valley","baths":3,"slug":"20251028075348748720000000","mlsSource":"CRMLS","propertyType":"A","propertySubType":"Single Family Residence","livingArea":2463,"associationFee":0,"unparsedAddress":"4991 Northwest Graphite Creek Road, Jurupa Valley, CA 91752"}},{"type":"Feature","geometry":{"type":"Point","coordinates":[-117.531661,33.986641]},"properties":{"listingKey":"20251021203841127518000000","listingId":"SW-25243684","listPrice":2700,"city":"Jurupa Valley","baths":1,"slug":"20251021203841127518000000","mlsSource":"CRMLS","propertyType":"B","propertySubType":"Duplex","livingArea":1300,"associationFee":0,"unparsedAddress":"5540 Trail Canyon, Jurupa Valley, CA"}},{"type":"Feature","geometry":{"type":"Point","coordinates":[-117.54192,33.984482]},"properties":{"listingKey":"20251021210042307675000000","listingId":"WS-25243385","listPrice":973000,"city":"Jurupa Valley","baths":3,"slug":"20251021210042307675000000","mlsSource":"CRMLS","propertyType":"A","propertySubType":"Single Family Residence","livingArea":3780,"associationFee":0,"unparsedAddress":"5594 Skimmer Dr, Jurupa Valley, CA 91752"}},{"type":"Feature","geometry":{"type":"Point","coordinates":[-117.514734,33.980047]},"properties":{"listingKey":"20251105193527979840000000","listingId":"CV-25254279","listPrice":1300000,"city":"Jurupa Valley","baths":3,"slug":"20251105193527979840000000","mlsSource":"CRMLS","propertyType":"A","propertySubType":"Single Family Residence","livingArea":1012,"associationFee":0,"unparsedAddress":"10527 60th, Jurupa Valley, CA 91752"}}]