[{"type":"Feature","geometry":{"type":"Point","coordinates":[-117.190852,34.251219]},"properties":{"listingKey":"20251118203237092712000000","listingId":"IG-25261793","listPrice":565000,"city":"Lake Arrowhead","baths":1,"slug":"20251118203237092712000000","mlsSource":"CRMLS","propertyType":"A","propertySubType":"Condominium","livingArea":923,"associationFee":520.86,"unparsedAddress":"101 Village Bay, 1, Lake Arrowhead, CA 92352"}},{"type":"Feature","id":258889,"properties":{"cluster":true,"cluster_id":258889,"point_count":2,"point_count_abbreviated":2},"geometry":{"type":"Point","coordinates":[-117.18728095293045,34.24879181547564]}},{"type":"Feature","geometry":{"type":"Point","coordinates":[-117.187751,34.244231]},"properties":{"listingKey":"20250817083150874450000000","listingId":"IG-25185208","listPrice":453000,"city":"Lake Arrowhead","baths":2,"slug":"20250817083150874450000000","mlsSource":"CRMLS","propertyType":"A","propertySubType":"Single Family Residence","livingArea":1824,"associationFee":280,"unparsedAddress":"501 Wellsley Drive, Lake Arrowhead, CA 92352"}},{"type":"Feature","geometry":{"type":"Point","coordinates":[-117.186912,34.249728]},"properties":{"listingKey":"20250810065241515947000000","listingId":"IG-25179854","listPrice":4500000,"city":"Lake Arrowhead","baths":5,"slug":"20250810065241515947000000","mlsSource":"CRMLS","propertyType":"A","propertySubType":"Single Family Residence","livingArea":4176,"associationFee":0,"unparsedAddress":"207 Blue Lake Road, Lake Arrowhead, CA 92352"}},{"type":"Feature","id":477257,"properties":{"cluster":true,"cluster_id":477257,"point_count":2,"point_count_abbreviated":2},"geometry":{"type":"Point","coordinates":[-117.18397110700607,34.2438164549275]}},{"type":"Feature","geometry":{"type":"Point","coordinates":[-117.186052,34.24695]},"properties":{"listingKey":"20250216200833604529000000","listingId":"IG-25034809","listPrice":699000,"city":"Lake Arrowhead","baths":3,"slug":"20250216200833604529000000","mlsSource":"CRMLS","propertyType":"A","propertySubType":"Single Family Residence","livingArea":2585,"associationFee":0,"unparsedAddress":"384 Primrose Circle, Lake Arrowhead, CA 92352"}},{"type":"Feature","geometry":{"type":"Point","coordinates":[-117.184445,34.246209]},"properties":{"listingKey":"20251120000443407200000000","listingId":"IG-25262490","listPrice":285000,"city":"Lake Arrowhead","baths":2,"slug":"20251120000443407200000000","mlsSource":"CRMLS","propertyType":"A","propertySubType":"Condominium","livingArea":1012,"associationFee":615,"unparsedAddress":"142 Rockledge Lane, Lake Arrowhead, CA 92352"}},{"type":"Feature","id":176649,"properties":{"cluster":true,"cluster_id":176649,"point_count":4,"point_count_abbreviated":4},"geometry":{"type":"Point","coordinates":[-117.1847677230835,34.24542616258479]}},{"type":"Feature","geometry":{"type":"Point","coordinates":[-117.180465,34.245723]},"properties":{"listingKey":"20251113200421548135000000","listingId":"IG-25259726","listPrice":649000,"city":"Lake Arrowhead","baths":2,"slug":"20251113200421548135000000","mlsSource":"CRMLS","propertyType":"A","propertySubType":"Single Family Residence","livingArea":1746,"associationFee":0,"unparsedAddress":"416 Klamath Drive, Lake Arrowhead, CA 92352"}},{"type":"Feature","id":586697,"properties":{"cluster":true,"cluster_id":586697,"point_count":2,"point_count_abbreviated":2},"geometry":{"type":"Point","coordinates":[-117.18247979879379,34.24657466796181]}},{"type":"Feature","geometry":{"type":"Point","coordinates":[-117.180345,34.249445]},"properties":{"listingKey":"20250629112317942514000000","listingId":"IG-25145354","listPrice":1095000,"city":"Lake Arrowhead","baths":4,"slug":"20250629112317942514000000","mlsSource":"CRMLS","propertyType":"A","propertySubType":"Single Family Residence","livingArea":2550,"associationFee":0,"unparsedAddress":"215 Chippewa Lane, Lake Arrowhead, CA 92352"}}]