[{"type":"Feature","geometry":{"type":"Point","coordinates":[-117.443214,34.075325]},"properties":{"listingKey":"20251030000445588735000000","listingId":"CV-25250018","listPrice":675000,"city":"Fontana","baths":2,"slug":"20251030000445588735000000","mlsSource":"CRMLS","propertyType":"A","propertySubType":"Single Family Residence","livingArea":1599,"associationFee":0,"unparsedAddress":"9825 Chantry, Fontana, CA 92335"}},{"type":"Feature","geometry":{"type":"Point","coordinates":[-117.442891,34.078808]},"properties":{"listingKey":"20251007005457971239000000","listingId":"IV-25232498","listPrice":875000,"city":"Fontana","baths":3,"slug":"20251007005457971239000000","mlsSource":"CRMLS","propertyType":"A","propertySubType":"Single Family Residence","livingArea":2564,"associationFee":0,"unparsedAddress":"16565 West London, Fontana, CA 92335"}},{"type":"Feature","geometry":{"type":"Point","coordinates":[-117.434097,34.074849]},"properties":{"listingKey":"20251105195022864599000000","listingId":"OC-25253732","listPrice":379000,"city":"Fontana","baths":2,"slug":"20251105195022864599000000","mlsSource":"CRMLS","propertyType":"A","propertySubType":"Condominium","livingArea":1066,"associationFee":265,"unparsedAddress":"16970 Marygold Avenue, 30, Fontana, CA 92335"}},{"type":"Feature","id":482248,"properties":{"cluster":true,"cluster_id":482248,"point_count":3,"point_count_abbreviated":3},"geometry":{"type":"Point","coordinates":[-117.4285125732422,34.07912107502702]}},{"type":"Feature","id":162248,"properties":{"cluster":true,"cluster_id":162248,"point_count":2,"point_count_abbreviated":2},"geometry":{"type":"Point","coordinates":[-117.43827939033508,34.08569373087313]}},{"type":"Feature","geometry":{"type":"Point","coordinates":[-117.432559,34.084296]},"properties":{"listingKey":"20251114211846656143000000","listingId":"CV-25260345","listPrice":2300,"city":"Fontana","baths":1,"slug":"20251114211846656143000000","mlsSource":"CRMLS","propertyType":"B","propertySubType":"Duplex","livingArea":681,"associationFee":0,"unparsedAddress":"9338 Emerald Avenue, 2, Fontana, CA 92335"}},{"type":"Feature","id":192617,"properties":{"cluster":true,"cluster_id":192617,"point_count":2,"point_count_abbreviated":2},"geometry":{"type":"Point","coordinates":[-117.43403881788254,34.088332720429136]}},{"type":"Feature","geometry":{"type":"Point","coordinates":[-117.422273,34.088466]},"properties":{"listingKey":"20250725082437649549000000","listingId":"DW-25166233","listPrice":959999,"city":"Fontana","baths":2.5,"slug":"20250725082437649549000000","mlsSource":"CRMLS","propertyType":"A","propertySubType":"Single Family Residence","livingArea":2560,"associationFee":0,"unparsedAddress":"9105 Tamarind Avenue, Fontana, CA 92335"}},{"type":"Feature","geometry":{"type":"Point","coordinates":[-117.427784,34.083341]},"properties":{"listingKey":"20251013034514871799000000","listingId":"PW-25238184","listPrice":510000,"city":"Fontana","baths":1,"slug":"20251013034514871799000000","mlsSource":"CRMLS","propertyType":"A","propertySubType":"Single Family Residence","livingArea":1009,"associationFee":0,"unparsedAddress":"9387 Kaiser Ave., Fontana, CA 92335"}}]