[{"type":"Feature","geometry":{"type":"Point","coordinates":[-116.958458,33.950852]},"properties":{"listingKey":"20251107231431739283000000","listingId":"IV-25256335","listPrice":535000,"city":"Beaumont","baths":3,"slug":"20251107231431739283000000","mlsSource":"CRMLS","propertyType":"A","propertySubType":"Single Family Residence","livingArea":2067,"associationFee":161,"unparsedAddress":"1410 Opal Court, Beaumont, CA 92223"}},{"type":"Feature","geometry":{"type":"Point","coordinates":[-116.957136,33.952834]},"properties":{"listingKey":"20251105143805334406000000","listingId":"IG-25253624","listPrice":575000,"city":"Beaumont","baths":2,"slug":"20251105143805334406000000","mlsSource":"CRMLS","propertyType":"A","propertySubType":"Single Family Residence","livingArea":1971,"associationFee":161,"unparsedAddress":"1569 Taurus, Beaumont, CA 92223"}},{"type":"Feature","geometry":{"type":"Point","coordinates":[-116.958408,33.94775]},"properties":{"listingKey":"20251101014911234597000000","listingId":"IV-25248069","listPrice":479900,"city":"Beaumont","baths":3,"slug":"20251101014911234597000000","mlsSource":"CRMLS","propertyType":"A","propertySubType":"Single Family Residence","livingArea":1919,"associationFee":153,"unparsedAddress":"1411 Chinaberry Lane, Beaumont, CA 92223"}},{"type":"Feature","geometry":{"type":"Point","coordinates":[-116.95338,33.943521]},"properties":{"listingKey":"20250804040254228699000000","listingId":"IG-25174163","listPrice":525000,"city":"Beaumont","baths":2,"slug":"20250804040254228699000000","mlsSource":"CRMLS","propertyType":"A","propertySubType":"Single Family Residence","livingArea":1918,"associationFee":52,"unparsedAddress":"1312 Daylily Dr., Beaumont, CA 92223"}},{"type":"Feature","geometry":{"type":"Point","coordinates":[-116.950642,33.943766]},"properties":{"listingKey":"20251015134347131680000000","listingId":"IV-25239663","listPrice":624000,"city":"Beaumont","baths":2.25,"slug":"20251015134347131680000000","mlsSource":"CRMLS","propertyType":"A","propertySubType":"Single Family Residence","livingArea":1959,"associationFee":47,"unparsedAddress":"1371 Sunburst Drive, Beaumont, CA 92223"}},{"type":"Feature","geometry":{"type":"Point","coordinates":[-116.950388,33.946374]},"properties":{"listingKey":"20251014041737301249000000","listingId":"RS-25239032","listPrice":595000,"city":"Beaumont","baths":2.5,"slug":"20251014041737301249000000","mlsSource":"CRMLS","propertyType":"A","propertySubType":"Single Family Residence","livingArea":2378,"associationFee":44,"unparsedAddress":"1564 Big Sky, Beaumont, CA 92223"}},{"type":"Feature","id":490632,"properties":{"cluster":true,"cluster_id":490632,"point_count":3,"point_count_abbreviated":3},"geometry":{"type":"Point","coordinates":[-116.94111585617065,33.94519047019658]}},{"type":"Feature","id":390728,"properties":{"cluster":true,"cluster_id":390728,"point_count":4,"point_count_abbreviated":4},"geometry":{"type":"Point","coordinates":[-116.95159256458282,33.94883137442284]}},{"type":"Feature","geometry":{"type":"Point","coordinates":[-116.953354,33.950681]},"properties":{"listingKey":"20251114085737765494000000","listingId":"IG-25259660","listPrice":512000,"city":"Beaumont","baths":2,"slug":"20251114085737765494000000","mlsSource":"CRMLS","propertyType":"A","propertySubType":"Single Family Residence","livingArea":1923,"associationFee":332,"unparsedAddress":"1521 Summerfield, Beaumont, CA 92223"}},{"type":"Feature","id":470057,"properties":{"cluster":true,"cluster_id":470057,"point_count":2,"point_count_abbreviated":2},"geometry":{"type":"Point","coordinates":[-116.94796353578568,33.94985708892747]}},{"type":"Feature","geometry":{"type":"Point","coordinates":[-116.947395,33.954099]},"properties":{"listingKey":"20250816063215406763000000","listingId":"IG-25184712","listPrice":495000,"city":"Beaumont","baths":2,"slug":"20250816063215406763000000","mlsSource":"CRMLS","propertyType":"A","propertySubType":"Single Family Residence","livingArea":1763,"associationFee":325,"unparsedAddress":"1580 Sunswept Way, Beaumont, CA 92223"}},{"type":"Feature","id":379496,"properties":{"cluster":true,"cluster_id":379496,"point_count":8,"point_count_abbreviated":8},"geometry":{"type":"Point","coordinates":[-116.95317976176739,33.95379184648712]}},{"type":"Feature","geometry":{"type":"Point","coordinates":[-116.954426,33.959238]},"properties":{"listingKey":"20251007174824866437000000","listingId":"CV-25222992","listPrice":658888,"city":"Cherry Valley","baths":2.5,"slug":"20251007174824866437000000","mlsSource":"CRMLS","propertyType":"A","propertySubType":"Single Family Residence","livingArea":2100,"associationFee":0,"unparsedAddress":"40581 Norman, Cherry Valley, CA 92223"}}]