[{"type":"Feature","geometry":{"type":"Point","coordinates":[-116.94491,33.743243]},"properties":{"listingKey":"20251029192946999531000000","listingId":"SW-25249634","listPrice":500000,"city":"Hemet","baths":4,"slug":"20251029192946999531000000","mlsSource":"CRMLS","propertyType":"A","propertySubType":"Duplex","livingArea":2338,"associationFee":0,"unparsedAddress":"41041 Alder, Hemet, CA 92544"}},{"type":"Feature","geometry":{"type":"Point","coordinates":[-116.951579,33.754613]},"properties":{"listingKey":"20251112210918160457000000","listingId":"IV-25258171","listPrice":485000,"city":"Hemet","baths":2,"slug":"20251112210918160457000000","mlsSource":"CRMLS","propertyType":"A","propertySubType":"Single Family Residence","livingArea":1644,"associationFee":0,"unparsedAddress":"1929 East Oakland, Hemet, CA 92544"}},{"type":"Feature","geometry":{"type":"Point","coordinates":[-116.957217,33.750972]},"properties":{"listingKey":"20250704213625139483000000","listingId":"IV-25149926","listPrice":429900,"city":"Hemet","baths":2,"slug":"20250704213625139483000000","mlsSource":"CRMLS","propertyType":"A","propertySubType":"Single Family Residence","livingArea":1114,"associationFee":0,"unparsedAddress":"1443 East Devonshire Avenue, Hemet, CA 92544"}},{"type":"Feature","geometry":{"type":"Point","coordinates":[-116.951361,33.750954]},"properties":{"listingKey":"20250708170021405574000000","listingId":"SW-25151943","listPrice":1350,"city":"Hemet","baths":1,"slug":"20250708170021405574000000","mlsSource":"CRMLS","propertyType":"B","propertySubType":"Quadruplex","livingArea":500,"associationFee":0,"unparsedAddress":"1955 East Devonshire Avenue, Hemet, CA 92544"}},{"type":"Feature","geometry":{"type":"Point","coordinates":[-116.960285,33.746419]},"properties":{"listingKey":"20250929081613520469000000","listingId":"IV-25227607","listPrice":429000,"city":"Hemet","baths":2,"slug":"20250929081613520469000000","mlsSource":"CRMLS","propertyType":"A","propertySubType":"Single Family Residence","livingArea":1556,"associationFee":0,"unparsedAddress":"1135 East Morton Place, Hemet, CA 92543"}}]