[{"type":"Feature","geometry":{"type":"Point","coordinates":[-116.95565,32.772365]},"properties":{"listingKey":"20251016002947606269000000","listingId":"8P-2507748","listPrice":980000,"city":"El Cajon","baths":2,"slug":"20251016002947606269000000","mlsSource":"CRMLS","propertyType":"A","propertySubType":"Single Family Residence","livingArea":1590,"associationFee":0,"unparsedAddress":"10979 Skywood Drive, El Cajon, CA 92020"}},{"type":"Feature","geometry":{"type":"Point","coordinates":[-116.958733,32.780009]},"properties":{"listingKey":"20251109223448126776000000","listingId":"8P-2508453","listPrice":775000,"city":"El Cajon","baths":2,"slug":"20251109223448126776000000","mlsSource":"CRMLS","propertyType":"A","propertySubType":"Single Family Residence","livingArea":1265,"associationFee":0,"unparsedAddress":"1117 Lorna Avenue, El Cajon, CA 92020"}},{"type":"Feature","geometry":{"type":"Point","coordinates":[-116.950199,32.786506]},"properties":{"listingKey":"20251120223923101000000000","listingId":"8P-2508697","listPrice":699000,"city":"El Cajon","baths":1.5,"slug":"20251120223923101000000000","mlsSource":"CRMLS","propertyType":"A","propertySubType":"Townhouse","livingArea":1344,"associationFee":330,"unparsedAddress":"749 South Mollison Avenue, 4, El Cajon, CA 92020"}},{"type":"Feature","geometry":{"type":"Point","coordinates":[-116.945456,32.787017]},"properties":{"listingKey":"20251107235315773312000000","listingId":"8P-2508434","listPrice":3850,"city":"El Cajon","baths":2.5,"slug":"20251107235315773312000000","mlsSource":"CRMLS","propertyType":"B","propertySubType":"Single Family Residence","livingArea":1521,"associationFee":0,"unparsedAddress":"727 Anastasia Ct, El Cajon, CA 92020"}},{"type":"Feature","geometry":{"type":"Point","coordinates":[-116.948703,32.771803]},"properties":{"listingKey":"20251001062005949649000000","listingId":"8P-2507456","listPrice":1999000,"city":"El Cajon","baths":4,"slug":"20251001062005949649000000","mlsSource":"CRMLS","propertyType":"A","propertySubType":"Single Family Residence","livingArea":4536,"associationFee":0,"unparsedAddress":"11201 Constellation Drive, El Cajon, CA 92020"}},{"type":"Feature","geometry":{"type":"Point","coordinates":[-116.948111,32.777644]},"properties":{"listingKey":"20250902214640701534000000","listingId":"8P-2506686","listPrice":1650000,"city":"El Cajon","baths":3,"slug":"20250902214640701534000000","mlsSource":"CRMLS","propertyType":"A","propertySubType":"Single Family Residence","livingArea":2122,"associationFee":0,"unparsedAddress":"1135 OLD CHASE AVENUE, El Cajon, CA 92020"}},{"type":"Feature","geometry":{"type":"Point","coordinates":[-116.943342,32.781661]},"properties":{"listingKey":"20251002114921037568000000","listingId":"8P-2507497","listPrice":4750,"city":"El Cajon","baths":2,"slug":"20251002114921037568000000","mlsSource":"CRMLS","propertyType":"B","propertySubType":"Single Family Residence","livingArea":2344,"associationFee":0,"unparsedAddress":"1153 Merritt Drive, El Cajon, CA 92020"}}]