[{"type":"Feature","geometry":{"type":"Point","coordinates":[-116.968685,33.741305]},"properties":{"listingKey":"20251113171754829011000000","listingId":"CV-25244768","listPrice":425000,"city":"Hemet","baths":2,"slug":"20251113171754829011000000","mlsSource":"CRMLS","propertyType":"A","propertySubType":"Single Family Residence","livingArea":1112,"associationFee":0,"unparsedAddress":"429 South Juanita Street, Hemet, CA 92543"}},{"type":"Feature","geometry":{"type":"Point","coordinates":[-116.966122,33.737331]},"properties":{"listingKey":"20251008175709589128000000","listingId":"SW-25233325","listPrice":389900,"city":"Hemet","baths":2,"slug":"20251008175709589128000000","mlsSource":"CRMLS","propertyType":"A","propertySubType":"Single Family Residence","livingArea":1175,"associationFee":0,"unparsedAddress":"527 Fern, Hemet, CA 92543"}},{"type":"Feature","id":426665,"properties":{"cluster":true,"cluster_id":426665,"point_count":3,"point_count_abbreviated":3},"geometry":{"type":"Point","coordinates":[-116.96700274944304,33.738404714303385]}},{"type":"Feature","geometry":{"type":"Point","coordinates":[-116.963811,33.739939]},"properties":{"listingKey":"20250623185147315426000000","listingId":"IV-25140459","listPrice":344900,"city":"Hemet","baths":1,"slug":"20250623185147315426000000","mlsSource":"CRMLS","propertyType":"A","propertySubType":"Single Family Residence","livingArea":812,"associationFee":0,"unparsedAddress":"516 South Taylor Street South, Hemet, CA 92543"}},{"type":"Feature","id":373513,"properties":{"cluster":true,"cluster_id":373513,"point_count":2,"point_count_abbreviated":2},"geometry":{"type":"Point","coordinates":[-116.9614228606224,33.73806716814789]}},{"type":"Feature","geometry":{"type":"Point","coordinates":[-116.960602,33.734032]},"properties":{"listingKey":"20251103222548332793000000","listingId":"CV-25252920","listPrice":1950,"city":"Hemet","baths":2,"slug":"20251103222548332793000000","mlsSource":"CRMLS","propertyType":"B","propertySubType":"Single Family Residence","livingArea":1082,"associationFee":0,"unparsedAddress":"1100 Val Monte Drive, Hemet, CA 92543"}}]