[{"type":"Feature","geometry":{"type":"Point","coordinates":[-116.965671,33.788612]},"properties":{"listingKey":"20251026022047243914000000","listingId":"RS-25247473","listPrice":479900,"city":"San Jacinto","baths":2.5,"slug":"20251026022047243914000000","mlsSource":"CRMLS","propertyType":"A","propertySubType":"Single Family Residence","livingArea":1968,"associationFee":0,"unparsedAddress":"395 Virginia, San Jacinto, CA 92583"}},{"type":"Feature","geometry":{"type":"Point","coordinates":[-116.968647,33.789143]},"properties":{"listingKey":"20251115223207074519000000","listingId":"8N-2510875","listPrice":3275,"city":"San Jacinto","baths":2.5,"slug":"20251115223207074519000000","mlsSource":"CRMLS","propertyType":"B","propertySubType":"Single Family Residence","livingArea":1933,"associationFee":0,"unparsedAddress":"475 West Camellia Way, San Jacinto, CA 92583"}},{"type":"Feature","geometry":{"type":"Point","coordinates":[-116.965284,33.797262]},"properties":{"listingKey":"20251118232426393553000000","listingId":"CV-25261597","listPrice":438000,"city":"San Jacinto","baths":2,"slug":"20251118232426393553000000","mlsSource":"CRMLS","propertyType":"A","propertySubType":"Single Family Residence","livingArea":1197,"associationFee":0,"unparsedAddress":"813 Yorkshire Lane, San Jacinto, CA 92583"}},{"type":"Feature","geometry":{"type":"Point","coordinates":[-116.9647,33.795962]},"properties":{"listingKey":"20250823063210802631000000","listingId":"SW-25186262","listPrice":429900,"city":"San Jacinto","baths":2,"slug":"20250823063210802631000000","mlsSource":"CRMLS","propertyType":"A","propertySubType":"Single Family Residence","livingArea":1398,"associationFee":103,"unparsedAddress":"680 Attenborough, San Jacinto, CA 92583"}},{"type":"Feature","geometry":{"type":"Point","coordinates":[-116.963967,33.791589]},"properties":{"listingKey":"20250901034012414269000000","listingId":"SW-25196102","listPrice":2200,"city":"San Jacinto","baths":1,"slug":"20250901034012414269000000","mlsSource":"CRMLS","propertyType":"B","propertySubType":"Single Family Residence","livingArea":572,"associationFee":0,"unparsedAddress":"308 North Wateka Street, San Jacinto, CA 92583"}}]