[{"type":"Feature","geometry":{"type":"Point","coordinates":[-117.74646,33.707949]},"properties":{"listingKey":"20251022033155777903000000","listingId":"OC-25244707","listPrice":5500,"city":"Irvine","baths":2.5,"slug":"20251022033155777903000000","mlsSource":"CRMLS","propertyType":"B","propertySubType":"Single Family Residence","livingArea":1729,"associationFee":183,"unparsedAddress":"55 Rembrandt, Irvine, CA 92620"}},{"type":"Feature","geometry":{"type":"Point","coordinates":[-117.74615,33.712643]},"properties":{"listingKey":"20251023174300487804000000","listingId":"OC-25245784","listPrice":1999888,"city":"Irvine","baths":3,"slug":"20251023174300487804000000","mlsSource":"CRMLS","propertyType":"A","propertySubType":"Condominium","livingArea":2246,"associationFee":175,"unparsedAddress":"58 Tollson, Irvine, CA 92620"}},{"type":"Feature","id":318697,"properties":{"cluster":true,"cluster_id":318697,"point_count":2,"point_count_abbreviated":2},"geometry":{"type":"Point","coordinates":[-117.7510330080986,33.714108408621314]}},{"type":"Feature","id":272873,"properties":{"cluster":true,"cluster_id":272873,"point_count":2,"point_count_abbreviated":2},"geometry":{"type":"Point","coordinates":[-117.74469494819641,33.70684361262735]}},{"type":"Feature","geometry":{"type":"Point","coordinates":[-117.74745,33.715115]},"properties":{"listingKey":"20251101031844554053000000","listingId":"OC-25225555","listPrice":5100,"city":"Irvine","baths":3,"slug":"20251101031844554053000000","mlsSource":"CRMLS","propertyType":"B","propertySubType":"Condominium","livingArea":1907,"unparsedAddress":"57 Quill, Irvine, CA 92620"}},{"type":"Feature","id":291849,"properties":{"cluster":true,"cluster_id":291849,"point_count":4,"point_count_abbreviated":4},"geometry":{"type":"Point","coordinates":[-117.74902805685997,33.712276649148805]}},{"type":"Feature","geometry":{"type":"Point","coordinates":[-117.748048,33.707036]},"properties":{"listingKey":"20251025011039047541000000","listingId":"PW-25234025","listPrice":1590000,"city":"Irvine","baths":2.5,"slug":"20251025011039047541000000","mlsSource":"CRMLS","propertyType":"A","propertySubType":"Condominium","livingArea":1654,"associationFee":152,"unparsedAddress":"112 Gemstone, Irvine, CA 92620"}},{"type":"Feature","id":316809,"properties":{"cluster":true,"cluster_id":316809,"point_count":2,"point_count_abbreviated":2},"geometry":{"type":"Point","coordinates":[-117.7434504032135,33.709971834154004]}},{"type":"Feature","geometry":{"type":"Point","coordinates":[-117.741759,33.71464]},"properties":{"listingKey":"20250913150836298376000000","listingId":"TR-25162264","listPrice":2890000,"city":"Irvine","baths":4.5,"slug":"20250913150836298376000000","mlsSource":"CRMLS","propertyType":"A","propertySubType":"Single Family Residence","livingArea":3063,"associationFee":140,"unparsedAddress":"54 Hearst, Irvine, CA 92620"}}]