[{"type":"Feature","geometry":{"type":"Point","coordinates":[-117.751015,33.690348]},"properties":{"listingKey":"20250719125920785595000000","listingId":"WS-25162420","listPrice":3290000,"city":"Irvine","baths":4.5,"slug":"20250719125920785595000000","mlsSource":"CRMLS","propertyType":"A","propertySubType":"Single Family Residence","livingArea":3174,"associationFee":280,"unparsedAddress":"57 Statuary, Irvine, CA 92620"}},{"type":"Feature","geometry":{"type":"Point","coordinates":[-117.748082,33.69092]},"properties":{"listingKey":"20251017074423913183000000","listingId":"OC-25241636","listPrice":3418000,"city":"Irvine","baths":4.5,"slug":"20251017074423913183000000","mlsSource":"CRMLS","propertyType":"A","propertySubType":"Single Family Residence","livingArea":3801,"associationFee":210,"unparsedAddress":"65 Rolling Green, Irvine, CA 92620"}},{"type":"Feature","geometry":{"type":"Point","coordinates":[-117.743331,33.69055]},"properties":{"listingKey":"20250621155450954468000000","listingId":"WS-25139481","listPrice":1790000,"city":"Irvine","baths":2.5,"slug":"20250621155450954468000000","mlsSource":"CRMLS","propertyType":"A","propertySubType":"Condominium","livingArea":2064,"associationFee":134,"unparsedAddress":"320 Bronze, Irvine, CA 92618"}},{"type":"Feature","geometry":{"type":"Point","coordinates":[-117.747561,33.689251]},"properties":{"listingKey":"20251108205432816136000000","listingId":"OC-25256000","listPrice":6300,"city":"Irvine","baths":3,"slug":"20251108205432816136000000","mlsSource":"CRMLS","propertyType":"B","propertySubType":"Single Family Residence","livingArea":2473,"unparsedAddress":"8 Clocktower, Irvine, CA 92620"}},{"type":"Feature","geometry":{"type":"Point","coordinates":[-117.743592,33.688695]},"properties":{"listingKey":"20251011002337749948000000","listingId":"OC-25237405","listPrice":5000,"city":"Irvine","baths":2.5,"slug":"20251011002337749948000000","mlsSource":"CRMLS","propertyType":"B","propertySubType":"Condominium","livingArea":2064,"unparsedAddress":"100 Blaze, Irvine, CA 92618"}},{"type":"Feature","id":307081,"properties":{"cluster":true,"cluster_id":307081,"point_count":2,"point_count_abbreviated":2},"geometry":{"type":"Point","coordinates":[-117.75007009506226,33.69331196147051]}},{"type":"Feature","geometry":{"type":"Point","coordinates":[-117.746455,33.694364]},"properties":{"listingKey":"20251115215340728696000000","listingId":"PW-25261240","listPrice":1488888,"city":"Irvine","baths":3.5,"slug":"20251115215340728696000000","mlsSource":"CRMLS","propertyType":"A","propertySubType":"Condominium","livingArea":1423,"associationFee":210,"unparsedAddress":"23 Herringbone, Irvine, CA 92620"}},{"type":"Feature","id":307017,"properties":{"cluster":true,"cluster_id":307017,"point_count":2,"point_count_abbreviated":2},"geometry":{"type":"Point","coordinates":[-117.750383913517,33.69441438878124]}},{"type":"Feature","id":296841,"properties":{"cluster":true,"cluster_id":296841,"point_count":2,"point_count_abbreviated":2},"geometry":{"type":"Point","coordinates":[-117.74250626564026,33.69165606229461]}}]