[{"type":"Feature","geometry":{"type":"Point","coordinates":[-117.948121,33.994437]},"properties":{"listingKey":"20250715015819309110000000","listingId":"AR-25146770","listPrice":1298800,"city":"Hacienda Heights","baths":4,"slug":"20250715015819309110000000","mlsSource":"CRMLS","propertyType":"A","propertySubType":"Single Family Residence","livingArea":2931,"associationFee":0,"unparsedAddress":"1740 Rada Road, Hacienda Heights, CA 91745"}},{"type":"Feature","geometry":{"type":"Point","coordinates":[-117.946536,33.993579]},"properties":{"listingKey":"20251023021326823229000000","listingId":"AR-25243031","listPrice":2500,"city":"Hacienda Heights","baths":2,"slug":"20251023021326823229000000","mlsSource":"CRMLS","propertyType":"B","propertySubType":"Single Family Residence","livingArea":800,"associationFee":0,"unparsedAddress":"16429 Ember Glen, Hacienda Heights, CA 91745"}},{"type":"Feature","geometry":{"type":"Point","coordinates":[-117.946959,33.990289]},"properties":{"listingKey":"20251107025946677016000000","listingId":"WS-25255805","listPrice":4500,"city":"Hacienda Heights","baths":3,"slug":"20251107025946677016000000","mlsSource":"CRMLS","propertyType":"B","propertySubType":"Single Family Residence","livingArea":2289,"associationFee":0,"unparsedAddress":"16352 Ranmore, Hacienda Heights, CA 91745"}},{"type":"Feature","geometry":{"type":"Point","coordinates":[-117.944665,33.989008]},"properties":{"listingKey":"20250703121308825603000000","listingId":"TR-25147849","listPrice":4500,"city":"Hacienda Heights","baths":2,"slug":"20250703121308825603000000","mlsSource":"CRMLS","propertyType":"B","propertySubType":"Single Family Residence","livingArea":1646,"associationFee":0,"unparsedAddress":"16851 Dawn Haven Road, Hacienda Heights, CA 91745"}},{"type":"Feature","geometry":{"type":"Point","coordinates":[-117.94264,33.991779]},"properties":{"listingKey":"20251025154408907496000000","listingId":"TR-25247244","listPrice":3950,"city":"Hacienda Heights","baths":3,"slug":"20251025154408907496000000","mlsSource":"CRMLS","propertyType":"B","propertySubType":"Townhouse","livingArea":1589,"unparsedAddress":"1707 Landau, Hacienda Heights, CA 91745"}},{"type":"Feature","geometry":{"type":"Point","coordinates":[-117.940515,33.996342]},"properties":{"listingKey":"20251103230144037210000000","listingId":"CV-25252971","listPrice":1859000,"city":"Hacienda Heights","baths":4,"slug":"20251103230144037210000000","mlsSource":"CRMLS","propertyType":"A","propertySubType":"Single Family Residence","livingArea":2835,"associationFee":0,"unparsedAddress":"1507 Eagle Park, Hacienda Heights, CA 91745"}},{"type":"Feature","geometry":{"type":"Point","coordinates":[-117.940156,33.989022]},"properties":{"listingKey":"20251114012558510980000000","listingId":"WS-25260264","listPrice":858888,"city":"Hacienda Heights","baths":2,"slug":"20251114012558510980000000","mlsSource":"CRMLS","propertyType":"A","propertySubType":"Single Family Residence","livingArea":1573,"associationFee":330,"unparsedAddress":"1910 PEWTER CT, Hacienda Heights, CA 91745"}}]