[{"type":"Feature","geometry":{"type":"Point","coordinates":[-116.088855,34.134538]},"properties":{"listingKey":"20250923180408928890000000","listingId":"JT-25221825","listPrice":515000,"city":"29 Palms","baths":0,"slug":"20250923180408928890000000","mlsSource":"CRMLS","propertyType":"C","propertySubType":"Commercial/Residential","livingArea":1440,"associationFee":0,"unparsedAddress":"72121 Hatch Rd, 29 Palms, CA 92277"}},{"type":"Feature","geometry":{"type":"Point","coordinates":[-116.092109,34.138093]},"properties":{"listingKey":"20251004170806710771000000","listingId":"JT-25230949","listPrice":325000,"city":"29 Palms","baths":2,"slug":"20251004170806710771000000","mlsSource":"CRMLS","propertyType":"A","propertySubType":"Single Family Residence","livingArea":1326,"associationFee":0,"unparsedAddress":"6355 Mojave Avenue, 29 Palms, CA 92277"}},{"type":"Feature","geometry":{"type":"Point","coordinates":[-116.09165,34.143088]},"properties":{"listingKey":"20251014175039233103000000","listingId":"JT-25231930","listPrice":248900,"city":"29 Palms","baths":2,"slug":"20251014175039233103000000","mlsSource":"CRMLS","propertyType":"A","propertySubType":"Single Family Residence","livingArea":1077,"associationFee":0,"unparsedAddress":"6064 Cahuilla, 29 Palms, CA 92277"}},{"type":"Feature","geometry":{"type":"Point","coordinates":[-116.090668,34.137017]},"properties":{"listingKey":"20251004190225641979000000","listingId":"JT-25231768","listPrice":150000,"city":"29 Palms","baths":1,"slug":"20251004190225641979000000","mlsSource":"CRMLS","propertyType":"A","propertySubType":"Single Family Residence","livingArea":860,"associationFee":0,"unparsedAddress":"6414 Mariposa Avenue, 29 Palms, CA 92277"}},{"type":"Feature","geometry":{"type":"Point","coordinates":[-116.090152,34.140053]},"properties":{"listingKey":"20251119204858810165000000","listingId":"DW-25262759","listPrice":328888,"city":"29 Palms","baths":2,"slug":"20251119204858810165000000","mlsSource":"CRMLS","propertyType":"A","propertySubType":"Single Family Residence","livingArea":1232,"associationFee":0,"unparsedAddress":"6225 Mariposa, 29 Palms, CA 92277"}}]