[{"type":"Feature","geometry":{"type":"Point","coordinates":[-116.439725,33.773937]},"properties":{"listingKey":"20250912232110461171000000","listingId":"219135301","listPrice":3000,"city":"Rancho Mirage","baths":2,"slug":"20250912232110461171000000","mlsSource":"GPS","propertyType":"B","propertySubType":"Condominium","livingArea":1387,"associationFee":0,"unparsedAddress":"37800 Da Vall Drive, 12, Rancho Mirage, CA 92270"}},{"type":"Feature","id":59785,"properties":{"cluster":true,"cluster_id":59785,"point_count":2,"point_count_abbreviated":2},"geometry":{"type":"Point","coordinates":[-116.44364386796951,33.77715866829662]}},{"type":"Feature","geometry":{"type":"Point","coordinates":[-116.438111,33.772056]},"properties":{"listingKey":"20251003182205208959000000","listingId":"219136453","listPrice":665000,"city":"Rancho Mirage","baths":2,"slug":"20251003182205208959000000","mlsSource":"GPS","propertyType":"A","propertySubType":"Condominium","livingArea":1899,"associationFee":1050,"unparsedAddress":"23 Tennis Club Drive, Rancho Mirage, CA 92270"}},{"type":"Feature","geometry":{"type":"Point","coordinates":[-116.439076,33.775406]},"properties":{"listingKey":"20250923225732189412000000","listingId":"219136759","listPrice":1395000,"city":"Rancho Mirage","baths":3,"slug":"20250923225732189412000000","mlsSource":"GPS","propertyType":"A","propertySubType":"Single Family Residence","livingArea":3118,"associationFee":825,"unparsedAddress":"1405 Tamarisk West Street, Rancho Mirage, CA 92270"}},{"type":"Feature","geometry":{"type":"Point","coordinates":[-116.438245,33.774071]},"properties":{"listingKey":"20250826145153518097000000","listingId":"219134487","listPrice":725000,"city":"Rancho Mirage","baths":1.75,"slug":"20250826145153518097000000","mlsSource":"GPS","propertyType":"A","propertySubType":"Condominium","livingArea":2100,"associationFee":510,"unparsedAddress":"70164 Frank Sinatra Drive, Rancho Mirage, CA 92270"}},{"type":"Feature","id":46985,"properties":{"cluster":true,"cluster_id":46985,"point_count":4,"point_count_abbreviated":4},"geometry":{"type":"Point","coordinates":[-116.43737688660622,33.77579868159815]}},{"type":"Feature","geometry":{"type":"Point","coordinates":[-116.435419,33.777391]},"properties":{"listingKey":"20251104005257067343000000","listingId":"219138385","listPrice":1599000,"city":"Rancho Mirage","baths":1.5,"slug":"20251104005257067343000000","mlsSource":"GPS","propertyType":"A","propertySubType":"Single Family Residence","livingArea":2208,"associationFee":0,"unparsedAddress":"70320 Mottle Circle, Rancho Mirage, CA 92270"}},{"type":"Feature","geometry":{"type":"Point","coordinates":[-116.433434,33.77602]},"properties":{"listingKey":"20251001023309562025000000","listingId":"219136110","listPrice":3795,"city":"Rancho Mirage","baths":3,"slug":"20251001023309562025000000","mlsSource":"GPS","propertyType":"B","propertySubType":"Single Family Residence","livingArea":2261,"associationFee":0,"unparsedAddress":"37723 Peacock Circle, Rancho Mirage, CA 92270"}},{"type":"Feature","geometry":{"type":"Point","coordinates":[-116.437798,33.779042]},"properties":{"listingKey":"20250918164244607067000000","listingId":"219135522","listPrice":1195000,"city":"Rancho Mirage","baths":3,"slug":"20250918164244607067000000","mlsSource":"GPS","propertyType":"A","propertySubType":"Single Family Residence","livingArea":2518,"associationFee":786,"unparsedAddress":"24 Calle Ardilla, Rancho Mirage, CA 92270"}}]