[{"type":"Feature","geometry":{"type":"Point","coordinates":[-116.439151,33.79331]},"properties":{"listingKey":"20251115150911959039000000","listingId":"219138815","listPrice":399900,"city":"Rancho Mirage","baths":2,"slug":"20251115150911959039000000","mlsSource":"GPS","propertyType":"A","propertySubType":"Condominium","livingArea":1984,"associationFee":840,"unparsedAddress":"535 Desert West Drive, Rancho Mirage, CA 92270"}},{"type":"Feature","geometry":{"type":"Point","coordinates":[-116.434542,33.790123]},"properties":{"listingKey":"20250814230208031975000000","listingId":"219133974","listPrice":2800,"city":"Rancho Mirage","baths":1.75,"slug":"20250814230208031975000000","mlsSource":"GPS","propertyType":"B","propertySubType":"Condominium","livingArea":1624,"associationFee":700,"unparsedAddress":"35058 Mission Hills Drive, Rancho Mirage, CA 92270"}},{"type":"Feature","id":83241,"properties":{"cluster":true,"cluster_id":83241,"point_count":3,"point_count_abbreviated":3},"geometry":{"type":"Point","coordinates":[-116.43564999103548,33.79447543028091]}},{"type":"Feature","geometry":{"type":"Point","coordinates":[-116.439135,33.791852]},"properties":{"listingKey":"20251013183611074015000000","listingId":"219136886","listPrice":4500,"city":"Rancho Mirage","baths":2,"slug":"20251013183611074015000000","mlsSource":"GPS","propertyType":"B","propertySubType":"Condominium","livingArea":1984,"associationFee":1,"unparsedAddress":"522 Desert West Drive, Rancho Mirage, CA 92270"}},{"type":"Feature","geometry":{"type":"Point","coordinates":[-116.435348,33.788642]},"properties":{"listingKey":"20251016000746624647000000","listingId":"8N-2509709","listPrice":429000,"city":"Rancho Mirage","baths":2,"slug":"20251016000746624647000000","mlsSource":"CRMLS","propertyType":"A","propertySubType":"Townhouse","livingArea":1596,"associationFee":735,"unparsedAddress":"35090 Mission Hills Drive, Rancho Mirage, CA 92270"}},{"type":"Feature","geometry":{"type":"Point","coordinates":[-116.441721,33.793127]},"properties":{"listingKey":"20250930175947223230000000","listingId":"219136202","listPrice":1596000,"city":"Rancho Mirage","baths":4,"slug":"20250930175947223230000000","mlsSource":"GPS","propertyType":"A","propertySubType":"Single Family Residence","livingArea":3620,"associationFee":400,"unparsedAddress":"69806 Camino Pacifico, Rancho Mirage, CA 92270"}},{"type":"Feature","geometry":{"type":"Point","coordinates":[-116.441693,33.795122]},"properties":{"listingKey":"20250929202206109804000000","listingId":"219136048","listPrice":1395000,"city":"Rancho Mirage","baths":2,"slug":"20250929202206109804000000","mlsSource":"GPS","propertyType":"A","propertySubType":"Single Family Residence","livingArea":3650,"associationFee":400,"unparsedAddress":"35001 Vista Del Ladero, Rancho Mirage, CA 92270"}},{"type":"Feature","id":115881,"properties":{"cluster":true,"cluster_id":115881,"point_count":2,"point_count_abbreviated":2},"geometry":{"type":"Point","coordinates":[-116.44176632165909,33.796459233221114]}}]