[{"type":"Feature","id":132360,"properties":{"cluster":true,"cluster_id":132360,"point_count":7,"point_count_abbreviated":7},"geometry":{"type":"Point","coordinates":[-118.02285764898572,34.05963072135347]}},{"type":"Feature","id":481832,"properties":{"cluster":true,"cluster_id":481832,"point_count":2,"point_count_abbreviated":2},"geometry":{"type":"Point","coordinates":[-118.02889376878738,34.05859712582894]}},{"type":"Feature","geometry":{"type":"Point","coordinates":[-118.02147,34.058002]},"properties":{"listingKey":"20251014203244707958000000","listingId":"AR-25239472","listPrice":1928800,"city":"El Monte","baths":0,"slug":"20251014203244707958000000","mlsSource":"CRMLS","propertyType":"C","propertySubType":"Apartment","livingArea":3425,"unparsedAddress":"2730 Penn Mar, El Monte, CA 91732"}},{"type":"Feature","geometry":{"type":"Point","coordinates":[-118.034366,34.055561]},"properties":{"listingKey":"20250928072329814657000000","listingId":"CV-25224945","listPrice":1499900,"city":"El Monte","baths":0,"slug":"20250928072329814657000000","mlsSource":"CRMLS","propertyType":"C","propertySubType":"Duplex","livingArea":2826,"associationFee":0,"unparsedAddress":"11032 Klingerman, El Monte, CA 91733"}},{"type":"Feature","geometry":{"type":"Point","coordinates":[-118.017913,34.056951]},"properties":{"listingKey":"20250717110230896354000000","listingId":"TR-25160693","listPrice":2280000,"city":"El Monte","baths":0,"slug":"20250717110230896354000000","mlsSource":"CRMLS","propertyType":"C","propertySubType":"Apartment","livingArea":5080,"unparsedAddress":"12223 Magnolia Street, El Monte, CA 91732"}},{"type":"Feature","geometry":{"type":"Point","coordinates":[-118.023438,34.054897]},"properties":{"listingKey":"20250729014218075427000000","listingId":"IG-25169336","listPrice":949000,"city":"El Monte","baths":0,"slug":"20250729014218075427000000","mlsSource":"CRMLS","propertyType":"C","propertySubType":"Quadruplex","livingArea":1866,"associationFee":0,"unparsedAddress":"12127 Morehouse Street, El Monte, CA 91732"}},{"type":"Feature","geometry":{"type":"Point","coordinates":[-118.029248,34.053205]},"properties":{"listingKey":"20250814020351423212000000","listingId":"CV-25182464","listPrice":2100,"city":"El Monte","baths":1,"slug":"20250814020351423212000000","mlsSource":"CRMLS","propertyType":"B","propertySubType":"Single Family Residence","livingArea":350,"associationFee":0,"unparsedAddress":"2290 Cogswell Road, B, El Monte, CA 91732"}},{"type":"Feature","id":508552,"properties":{"cluster":true,"cluster_id":508552,"point_count":2,"point_count_abbreviated":2},"geometry":{"type":"Point","coordinates":[-118.03511917591095,34.061690256179716]}},{"type":"Feature","geometry":{"type":"Point","coordinates":[-118.020622,34.054239]},"properties":{"listingKey":"20250901200810097950000000","listingId":"OC-25196005","listPrice":794990,"city":"El Monte","baths":3.5,"slug":"20250901200810097950000000","mlsSource":"CRMLS","propertyType":"A","propertySubType":"Townhouse","livingArea":1703,"associationFee":296,"unparsedAddress":"2601 Durfee Avenue, D, El Monte, CA 91732"}},{"type":"Feature","geometry":{"type":"Point","coordinates":[-118.034903,34.068752]},"properties":{"listingKey":"20250816194139224848000000","listingId":"SB-25183588","listPrice":960000,"city":"El Monte","baths":3,"slug":"20250816194139224848000000","mlsSource":"CRMLS","propertyType":"A","propertySubType":"Townhouse","livingArea":2427,"associationFee":300,"unparsedAddress":"3315 California Avenue, El Monte, CA 91731"}},{"type":"Feature","geometry":{"type":"Point","coordinates":[-118.031347,34.063535]},"properties":{"listingKey":"20251025233206427695000000","listingId":"OC-25247424","listPrice":2000,"city":"El Monte","baths":1,"slug":"20251025233206427695000000","mlsSource":"CRMLS","propertyType":"B","propertySubType":"Quadruplex","livingArea":600,"associationFee":0,"unparsedAddress":"11222 Concert, El Monte, CA 91731"}},{"type":"Feature","geometry":{"type":"Point","coordinates":[-118.028868,34.062428]},"properties":{"listingKey":"20250722114305056595000000","listingId":"AR-25164257","listPrice":890000,"city":"El Monte","baths":0,"slug":"20250722114305056595000000","mlsSource":"CRMLS","propertyType":"C","propertySubType":"Commercial/Residential","livingArea":2575,"associationFee":0,"unparsedAddress":"11408 Garvey Avenue, El Monte, CA 91732"}},{"type":"Feature","geometry":{"type":"Point","coordinates":[-118.017532,34.070772]},"properties":{"listingKey":"20251017141510605189000000","listingId":"TR-25241115","listPrice":510000,"city":"El Monte","baths":2.5,"slug":"20251017141510605189000000","mlsSource":"CRMLS","propertyType":"A","propertySubType":"Townhouse","livingArea":1224,"associationFee":300,"unparsedAddress":"3551 Whistler, El Monte, CA 91732"}},{"type":"Feature","geometry":{"type":"Point","coordinates":[-118.01804,34.067897]},"properties":{"listingKey":"20251026175423128543000000","listingId":"TR-25247585","listPrice":3800,"city":"El Monte","baths":3,"slug":"20251026175423128543000000","mlsSource":"CRMLS","propertyType":"B","propertySubType":"Single Family Residence","livingArea":1911,"unparsedAddress":"3428 Whistler, El Monte, CA 91732"}}]