[{"type":"Feature","geometry":{"type":"Point","coordinates":[-119.207836,34.3006]},"properties":{"listingKey":"20251109194947146369000000","listingId":"V1-33313","listPrice":2500000,"city":"Ventura","baths":3,"slug":"20251109194947146369000000","mlsSource":"CRMLS","propertyType":"A","propertySubType":"Single Family Residence","livingArea":2775,"unparsedAddress":"1184 Colina Vista Vista, Ventura, CA 93003"}},{"type":"Feature","id":598279,"properties":{"cluster":true,"cluster_id":598279,"point_count":6,"point_count_abbreviated":6},"geometry":{"type":"Point","coordinates":[-119.2077934741974,34.29352432141782]}},{"type":"Feature","id":228071,"properties":{"cluster":true,"cluster_id":228071,"point_count":2,"point_count_abbreviated":2},"geometry":{"type":"Point","coordinates":[-119.222192466259,34.28704614301387]}},{"type":"Feature","geometry":{"type":"Point","coordinates":[-119.201565,34.289092]},"properties":{"listingKey":"20250903165638068513000000","listingId":"V1-32133","listPrice":1350000,"city":"Ventura","baths":1.75,"slug":"20250903165638068513000000","mlsSource":"CRMLS","propertyType":"A","propertySubType":"Single Family Residence","livingArea":1710,"unparsedAddress":"7050 El Malabar Drive, Ventura, CA 93003"}},{"type":"Feature","id":343209,"properties":{"cluster":true,"cluster_id":343209,"point_count":3,"point_count_abbreviated":3},"geometry":{"type":"Point","coordinates":[-119.21356558799745,34.285868641669]}},{"type":"Feature","id":201607,"properties":{"cluster":true,"cluster_id":201607,"point_count":3,"point_count_abbreviated":3},"geometry":{"type":"Point","coordinates":[-119.218048453331,34.28171696828244]}},{"type":"Feature","geometry":{"type":"Point","coordinates":[-119.219914,34.274122]},"properties":{"listingKey":"20250917223116814252000000","listingId":"V1-32410","listPrice":875000,"city":"Ventura","baths":2,"slug":"20250917223116814252000000","mlsSource":"CRMLS","propertyType":"A","propertySubType":"Single Family Residence","livingArea":1324,"unparsedAddress":"5535 Larkin Street, Ventura, CA 93003"}},{"type":"Feature","id":496455,"properties":{"cluster":true,"cluster_id":496455,"point_count":2,"point_count_abbreviated":2},"geometry":{"type":"Point","coordinates":[-119.19650763273239,34.278970250288424]}},{"type":"Feature","geometry":{"type":"Point","coordinates":[-119.211255,34.27924]},"properties":{"listingKey":"20251117193518217132000000","listingId":"V1-33429","listPrice":4100,"city":"Ventura","baths":2.5,"slug":"20251117193518217132000000","mlsSource":"CRMLS","propertyType":"B","propertySubType":"Single Family Residence","livingArea":2229,"unparsedAddress":"6237 Hunter Street, Ventura, CA 93003"}},{"type":"Feature","geometry":{"type":"Point","coordinates":[-119.196705,34.283235]},"properties":{"listingKey":"20251022032921949542000000","listingId":"V1-33006","listPrice":1650000,"city":"Ventura","baths":2.75,"slug":"20251022032921949542000000","mlsSource":"CRMLS","propertyType":"A","propertySubType":"Single Family Residence","livingArea":3085,"unparsedAddress":"7405 Loma Vista Road, Ventura, CA 93003"}},{"type":"Feature","geometry":{"type":"Point","coordinates":[-119.193633,34.275472]},"properties":{"listingKey":"20251008234640664979000000","listingId":"V1-32796","listPrice":924900,"city":"Ventura","baths":2,"slug":"20251008234640664979000000","mlsSource":"CRMLS","propertyType":"A","propertySubType":"Single Family Residence","livingArea":1610,"unparsedAddress":"7505 Eisenhower Street, Ventura, CA 93003"}},{"type":"Feature","geometry":{"type":"Point","coordinates":[-119.187133,34.276084]},"properties":{"listingKey":"20250918022622095053000000","listingId":"V1-32418","listPrice":848000,"city":"Ventura","baths":2,"slug":"20250918022622095053000000","mlsSource":"CRMLS","propertyType":"A","propertySubType":"Single Family Residence","livingArea":1244,"unparsedAddress":"445 Mara Avenue, Ventura, CA 93004"}},{"type":"Feature","id":168839,"properties":{"cluster":true,"cluster_id":168839,"point_count":6,"point_count_abbreviated":6},"geometry":{"type":"Point","coordinates":[-119.18502241373062,34.27225895659977]}}]