[{"type":"Feature","geometry":{"type":"Point","coordinates":[-117.488254,33.910998]},"properties":{"listingKey":"20251114023015063499000000","listingId":"P1-24929","listPrice":649000,"city":"Riverside","baths":2,"slug":"20251114023015063499000000","mlsSource":"CRMLS","propertyType":"A","propertySubType":"Single Family Residence","livingArea":1000,"unparsedAddress":"4383 Morristown Drive, Riverside, CA 92505"}},{"type":"Feature","id":595881,"properties":{"cluster":true,"cluster_id":595881,"point_count":2,"point_count_abbreviated":2},"geometry":{"type":"Point","coordinates":[-117.49050468206406,33.911895194656196]}},{"type":"Feature","geometry":{"type":"Point","coordinates":[-117.494557,33.907454]},"properties":{"listingKey":"20250723193646572405000000","listingId":"WS-25165475","listPrice":938000,"city":"Riverside","baths":4.5,"slug":"20250723193646572405000000","mlsSource":"CRMLS","propertyType":"A","propertySubType":"Single Family Residence","livingArea":4264,"associationFee":200,"unparsedAddress":"11587 Trailway Drive, Riverside, CA 92505"}},{"type":"Feature","geometry":{"type":"Point","coordinates":[-117.490908,33.910382]},"properties":{"listingKey":"20250916081040315705000000","listingId":"IG-25217846","listPrice":599000,"city":"Riverside","baths":2.5,"slug":"20250916081040315705000000","mlsSource":"CRMLS","propertyType":"A","propertySubType":"Single Family Residence","livingArea":1741,"associationFee":105,"unparsedAddress":"11376 Riverpass Court, Riverside, CA 92505"}},{"type":"Feature","geometry":{"type":"Point","coordinates":[-117.490737,33.908817]},"properties":{"listingKey":"20251011021449174430000000","listingId":"PW-25237504","listPrice":3825,"city":"Riverside","baths":4.5,"slug":"20251011021449174430000000","mlsSource":"CRMLS","propertyType":"B","propertySubType":"Single Family Residence","livingArea":4252,"unparsedAddress":"4371 Gardenwood Lane, Riverside, CA 92505"}}]