[{"type":"Feature","geometry":{"type":"Point","coordinates":[-116.505261,33.962133]},"properties":{"listingKey":"20251027050348088706000000","listingId":"219137664","listPrice":44000,"city":"Desert Hot Springs","baths":0,"slug":"20251027050348088706000000","mlsSource":"GPS","propertyType":"D","associationFee":0,"unparsedAddress":"Lot 30 First Street, Desert Hot Springs, CA 92240"}},{"type":"Feature","geometry":{"type":"Point","coordinates":[-116.509659,33.969643]},"properties":{"listingKey":"20251120223844785023000000","listingId":"8P-2508695","listPrice":369999,"city":"Desert Hot Springs","baths":2,"slug":"20251120223844785023000000","mlsSource":"CRMLS","propertyType":"A","propertySubType":"Single Family Residence","livingArea":1239,"associationFee":0,"unparsedAddress":"10981 Santa Cruz Road, Desert Hot Springs, CA 92240"}},{"type":"Feature","geometry":{"type":"Point","coordinates":[-116.506043,33.968424]},"properties":{"listingKey":"20251006232519800681000000","listingId":"PW-25233220","listPrice":795000,"city":"Desert Hot Springs","baths":0,"slug":"20251006232519800681000000","mlsSource":"CRMLS","propertyType":"C","propertySubType":"Apartment","livingArea":2364,"unparsedAddress":"66229 8th, Desert Hot Springs, CA 92240"}},{"type":"Feature","geometry":{"type":"Point","coordinates":[-116.507269,33.967183]},"properties":{"listingKey":"20251105202826150660000000","listingId":"219138269","listPrice":249000,"city":"Desert Hot Springs","baths":1,"slug":"20251105202826150660000000","mlsSource":"GPS","propertyType":"A","propertySubType":"Single Family Residence","livingArea":960,"associationFee":0,"unparsedAddress":"66164 6th Street, Desert Hot Springs, CA 92240"}},{"type":"Feature","id":65609,"properties":{"cluster":true,"cluster_id":65609,"point_count":3,"point_count_abbreviated":3},"geometry":{"type":"Point","coordinates":[-116.50747239589691,33.96287658115105]}},{"type":"Feature","id":73353,"properties":{"cluster":true,"cluster_id":73353,"point_count":3,"point_count_abbreviated":3},"geometry":{"type":"Point","coordinates":[-116.5076780319214,33.970431066684384]}},{"type":"Feature","geometry":{"type":"Point","coordinates":[-116.505531,33.965353]},"properties":{"listingKey":"20250816194952027372000000","listingId":"219134061","listPrice":365000,"city":"Desert Hot Springs","baths":3,"slug":"20250816194952027372000000","mlsSource":"GPS","propertyType":"A","propertySubType":"Single Family Residence","livingArea":1889,"associationFee":0,"unparsedAddress":"66262 4th Street, Desert Hot Springs, CA 92240"}},{"type":"Feature","geometry":{"type":"Point","coordinates":[-116.504031,33.964457]},"properties":{"listingKey":"20250806085845202392000000","listingId":"PF-25175690","listPrice":536000,"city":"Desert Hot Springs","baths":0,"slug":"20250806085845202392000000","mlsSource":"CRMLS","propertyType":"C","propertySubType":"Triplex","livingArea":2,"associationFee":0,"unparsedAddress":"66348 3rd Street, Desert Hot Springs, CA 92240"}},{"type":"Feature","geometry":{"type":"Point","coordinates":[-116.501134,33.964682]},"properties":{"listingKey":"20251002221538882769000000","listingId":"219136277","listPrice":95000,"city":"Desert Hot Springs","baths":0,"slug":"20251002221538882769000000","mlsSource":"GPS","propertyType":"D","associationFee":0,"unparsedAddress":"12061 Palm Drive Drive, Desert Hot Springs, CA 92240"}},{"type":"Feature","geometry":{"type":"Point","coordinates":[-116.503871,33.965748]},"properties":{"listingKey":"20250827041321940051000000","listingId":"OC-25192890","listPrice":329999,"city":"Desert Hot Springs","baths":2,"slug":"20250827041321940051000000","mlsSource":"CRMLS","propertyType":"A","propertySubType":"Single Family Residence","livingArea":1260,"associationFee":0,"unparsedAddress":"66355 5th Street, Desert Hot Springs, CA 92240"}},{"type":"Feature","id":187241,"properties":{"cluster":true,"cluster_id":187241,"point_count":4,"point_count_abbreviated":4},"geometry":{"type":"Point","coordinates":[-116.50618895888329,33.96392882150627]}},{"type":"Feature","geometry":{"type":"Point","coordinates":[-116.503352,33.962636]},"properties":{"listingKey":"20251004041307930574000000","listingId":"219136394","listPrice":2200,"city":"Desert Hot Springs","baths":1,"slug":"20251004041307930574000000","mlsSource":"GPS","propertyType":"B","propertySubType":"Single Family Residence","livingArea":993,"associationFee":0,"unparsedAddress":"66384 1st Street Street, Desert Hot Springs, CA 92240"}}]