[{"type":"Feature","geometry":{"type":"Point","coordinates":[-119.170823,34.274745]},"properties":{"listingKey":"20250712000804641474000000","listingId":"V1-31847","listPrice":949990,"city":"Ventura","baths":2,"slug":"20250712000804641474000000","mlsSource":"CRMLS","propertyType":"A","propertySubType":"Single Family Residence","livingArea":1209,"unparsedAddress":"918 Ann Arbor Avenue, Ventura, CA 93004"}},{"type":"Feature","geometry":{"type":"Point","coordinates":[-119.162266,34.285224]},"properties":{"listingKey":"20250801000101002044000000","listingId":"V1-31490","listPrice":1400000,"city":"Ventura","baths":4,"slug":"20250801000101002044000000","mlsSource":"CRMLS","propertyType":"A","propertySubType":"Single Family Residence","livingArea":4450,"unparsedAddress":"10560 Henderson Road, Ventura, CA 93004"}},{"type":"Feature","geometry":{"type":"Point","coordinates":[-119.16143,34.272171]},"properties":{"listingKey":"20251114180019055482000000","listingId":"V1-33384","listPrice":3800,"city":"Ventura","baths":2,"slug":"20251114180019055482000000","mlsSource":"CRMLS","propertyType":"B","propertySubType":"Single Family Residence","livingArea":1443,"unparsedAddress":"10042 Brazos Court, Ventura, CA 93004"}},{"type":"Feature","geometry":{"type":"Point","coordinates":[-119.176851,34.278668]},"properties":{"listingKey":"20251105225926319028000000","listingId":"V1-33281","listPrice":1295000,"city":"Ventura","baths":3,"slug":"20251105225926319028000000","mlsSource":"CRMLS","propertyType":"A","propertySubType":"Single Family Residence","livingArea":2029,"unparsedAddress":"9305 Hollister Street, Ventura, CA 93004"}},{"type":"Feature","geometry":{"type":"Point","coordinates":[-119.16448,34.276386]},"properties":{"listingKey":"20250928161423506834000000","listingId":"V1-32709","listPrice":1595000,"city":"Ventura","baths":3,"slug":"20250928161423506834000000","mlsSource":"CRMLS","propertyType":"A","propertySubType":"Single Family Residence","livingArea":3487,"unparsedAddress":"10101 Telephone Road, Ventura, CA 93004"}},{"type":"Feature","geometry":{"type":"Point","coordinates":[-119.173256,34.276707]},"properties":{"listingKey":"20251018205049200088000000","listingId":"V1-32946","listPrice":1400000,"city":"Ventura","baths":3.5,"slug":"20251018205049200088000000","mlsSource":"CRMLS","propertyType":"A","propertySubType":"Single Family Residence","livingArea":3438,"unparsedAddress":"676 Chesapeake Place, Ventura, CA 93004"}}]