[{"type":"Feature","id":254152,"properties":{"cluster":true,"cluster_id":254152,"point_count":2,"point_count_abbreviated":2},"geometry":{"type":"Point","coordinates":[-117.96200215816498,33.91486011621039]}},{"type":"Feature","geometry":{"type":"Point","coordinates":[-117.95465,33.910345]},"properties":{"listingKey":"20250629054656347594000000","listingId":"AR-25145184","listPrice":1680000,"city":"La Habra","baths":2,"slug":"20250629054656347594000000","mlsSource":"CRMLS","propertyType":"A","propertySubType":"Single Family Residence","livingArea":2123,"associationFee":0,"unparsedAddress":"761 West Country Hills Drive, La Habra, CA 90631"}},{"type":"Feature","id":222249,"properties":{"cluster":true,"cluster_id":222249,"point_count":2,"point_count_abbreviated":2},"geometry":{"type":"Point","coordinates":[-117.96129405498505,33.919859292364066]}},{"type":"Feature","geometry":{"type":"Point","coordinates":[-117.956335,33.918749]},"properties":{"listingKey":"20251023031352863750000000","listingId":"PW-25244672","listPrice":1050000,"city":"La Habra","baths":2.5,"slug":"20251023031352863750000000","mlsSource":"CRMLS","propertyType":"A","propertySubType":"Single Family Residence","livingArea":1969,"associationFee":0,"unparsedAddress":"920 Sonora Avenue, La Habra, CA 90631"}},{"type":"Feature","geometry":{"type":"Point","coordinates":[-117.966389,33.920948]},"properties":{"listingKey":"20251113233916031994000000","listingId":"PW-25260106","listPrice":600000,"city":"La Habra","baths":2,"slug":"20251113233916031994000000","mlsSource":"CRMLS","propertyType":"A","propertySubType":"Condominium","livingArea":1231,"associationFee":519,"unparsedAddress":"945 Glencliff, La Habra, CA 90631"}},{"type":"Feature","id":177896,"properties":{"cluster":true,"cluster_id":177896,"point_count":4,"point_count_abbreviated":4},"geometry":{"type":"Point","coordinates":[-117.95723855495453,33.920115252973716]}},{"type":"Feature","id":357768,"properties":{"cluster":true,"cluster_id":357768,"point_count":4,"point_count_abbreviated":4},"geometry":{"type":"Point","coordinates":[-117.96081259846687,33.92312662744588]}},{"type":"Feature","geometry":{"type":"Point","coordinates":[-117.951391,33.916396]},"properties":{"listingKey":"20251114003236364183000000","listingId":"PW-25260207","listPrice":4000,"city":"La Habra","baths":2,"slug":"20251114003236364183000000","mlsSource":"CRMLS","propertyType":"B","propertySubType":"Single Family Residence","livingArea":1374,"associationFee":0,"unparsedAddress":"530 West Parkwood Avenue, La Habra, CA 90631"}}]