[{"type":"Feature","geometry":{"type":"Point","coordinates":[-121.716563,38.199506]},"properties":{"listingKey":"20250924062845407052000000","listingId":"01-41112532","listPrice":450000,"city":"Rio Vista","baths":2,"slug":"20250924062845407052000000","mlsSource":"CRMLS","propertyType":"A","propertySubType":"Single Family Residence","livingArea":1686,"associationFee":315,"unparsedAddress":"2071 Lavender Pl, Rio Vista, CA 94571"}},{"type":"Feature","geometry":{"type":"Point","coordinates":[-121.715137,38.186571]},"properties":{"listingKey":"20250817082119480021000000","listingId":"01-41108458","listPrice":349950,"city":"Rio Vista","baths":2,"slug":"20250817082119480021000000","mlsSource":"CRMLS","propertyType":"A","propertySubType":"Single Family Residence","livingArea":1172,"associationFee":284,"unparsedAddress":"308 Willow Brook Way, Rio Vista, CA 94571"}},{"type":"Feature","geometry":{"type":"Point","coordinates":[-121.704492,38.184413]},"properties":{"listingKey":"20250923221937946237000000","listingId":"01-41112442","listPrice":540000,"city":"Rio Vista","baths":3.5,"slug":"20250923221937946237000000","mlsSource":"CRMLS","propertyType":"A","propertySubType":"Single Family Residence","livingArea":2367,"associationFee":240,"unparsedAddress":"604 American Falls Dr, Rio Vista, CA 94571"}},{"type":"Feature","id":390568,"properties":{"cluster":true,"cluster_id":390568,"point_count":2,"point_count_abbreviated":2},"geometry":{"type":"Point","coordinates":[-121.69731885194778,38.17270309932175]}},{"type":"Feature","geometry":{"type":"Point","coordinates":[-121.707568,38.188504]},"properties":{"listingKey":"20251028022334532993000000","listingId":"01-41115965","listPrice":450000,"city":"Rio Vista","baths":2,"slug":"20251028022334532993000000","mlsSource":"CRMLS","propertyType":"A","propertySubType":"Single Family Residence","livingArea":1767,"associationFee":285,"unparsedAddress":"900 Brookside Ln, Rio Vista, CA 94571"}},{"type":"Feature","geometry":{"type":"Point","coordinates":[-121.70574,38.178381]},"properties":{"listingKey":"20250821185353032085000000","listingId":"01-41108231","listPrice":348600,"city":"Rio Vista","baths":2,"slug":"20250821185353032085000000","mlsSource":"CRMLS","propertyType":"A","propertySubType":"Single Family Residence","livingArea":1768,"associationFee":285,"unparsedAddress":"329 Brockton Pl, Rio Vista, CA 94571"}}]