[{"type":"Feature","geometry":{"type":"Point","coordinates":[-122.079071,37.913776]},"properties":{"listingKey":"20251025194459212817000000","listingId":"01-41115844","listPrice":1399000,"city":"Walnut Creek","baths":2.5,"slug":"20251025194459212817000000","mlsSource":"CRMLS","propertyType":"A","propertySubType":"Single Family Residence","livingArea":1965,"unparsedAddress":"1008 Rachele Rd, Walnut Creek, CA 94597"}},{"type":"Feature","id":484072,"properties":{"cluster":true,"cluster_id":484072,"point_count":2,"point_count_abbreviated":2},"geometry":{"type":"Point","coordinates":[-122.06009835004807,37.92040592218045]}},{"type":"Feature","geometry":{"type":"Point","coordinates":[-122.064702,37.926039]},"properties":{"listingKey":"20250830081155349740000000","listingId":"01-41109807","listPrice":975000,"city":"Walnut Creek","baths":2.5,"slug":"20250830081155349740000000","mlsSource":"CRMLS","propertyType":"A","propertySubType":"Condominium","livingArea":2124,"associationFee":482,"unparsedAddress":"1539 Geary Rd, C, Walnut Creek, CA 94597"}},{"type":"Feature","id":529704,"properties":{"cluster":true,"cluster_id":529704,"point_count":2,"point_count_abbreviated":2},"geometry":{"type":"Point","coordinates":[-122.06940561532974,37.91753670377652]}},{"type":"Feature","geometry":{"type":"Point","coordinates":[-122.066095,37.910091]},"properties":{"listingKey":"20251024211142637811000000","listingId":"01-41115758","listPrice":850000,"city":"Walnut Creek","baths":2,"slug":"20251024211142637811000000","mlsSource":"CRMLS","propertyType":"A","propertySubType":"Condominium","livingArea":1074,"associationFee":592,"unparsedAddress":"1605 Riviera Ave, 404, Walnut Creek, CA 94596"}},{"type":"Feature","geometry":{"type":"Point","coordinates":[-122.076877,37.918479]},"properties":{"listingKey":"20250916080459762579000000","listingId":"01-41111657","listPrice":1399800,"city":"Walnut Creek","baths":2,"slug":"20250916080459762579000000","mlsSource":"CRMLS","propertyType":"A","propertySubType":"Single Family Residence","livingArea":2124,"unparsedAddress":"645 Keith Ct, Walnut Creek, CA"}},{"type":"Feature","geometry":{"type":"Point","coordinates":[-122.068354,37.92574]},"properties":{"listingKey":"20251114193506042170000000","listingId":"01-41117478","listPrice":1100000,"city":"Walnut Creek","baths":3.5,"slug":"20251114193506042170000000","mlsSource":"CRMLS","propertyType":"A","propertySubType":"Condominium","livingArea":2697,"associationFee":695,"unparsedAddress":"1637 Geary Rd, Walnut Creek, CA 94597"}},{"type":"Feature","id":157960,"properties":{"cluster":true,"cluster_id":157960,"point_count":9,"point_count_abbreviated":9},"geometry":{"type":"Point","coordinates":[-122.05943465232848,37.91135730059054]}},{"type":"Feature","geometry":{"type":"Point","coordinates":[-122.059097,37.92293]},"properties":{"listingKey":"20251120214829938158000000","listingId":"01-41117910","listPrice":2750,"city":"Walnut Creek","baths":2,"slug":"20251120214829938158000000","mlsSource":"CRMLS","propertyType":"B","propertySubType":"Condominium","livingArea":1216,"unparsedAddress":"2723 Oak Rd, Walnut Creek, CA 94597"}},{"type":"Feature","id":321544,"properties":{"cluster":true,"cluster_id":321544,"point_count":3,"point_count_abbreviated":3},"geometry":{"type":"Point","coordinates":[-122.05859720706938,37.91456157003803]}},{"type":"Feature","id":379464,"properties":{"cluster":true,"cluster_id":379464,"point_count":4,"point_count_abbreviated":4},"geometry":{"type":"Point","coordinates":[-122.05838039517403,37.917775809585265]}}]