[{"type":"Feature","id":145736,"properties":{"cluster":true,"cluster_id":145736,"point_count":4,"point_count_abbreviated":4},"geometry":{"type":"Point","coordinates":[-117.5985923409462,33.40858399848558]}},{"type":"Feature","geometry":{"type":"Point","coordinates":[-117.608048,33.410926]},"properties":{"listingKey":"20250812070934892474000000","listingId":"SW-25161822","listPrice":5999000,"city":"San Clemente","baths":5.5,"slug":"20250812070934892474000000","mlsSource":"CRMLS","propertyType":"A","propertySubType":"Single Family Residence","livingArea":8254,"associationFee":0,"unparsedAddress":"237 West Avenida Alessandro, San Clemente, CA 92672"}},{"type":"Feature","geometry":{"type":"Point","coordinates":[-117.604178,33.411938]},"properties":{"listingKey":"20251107221140398762000000","listingId":"OC-25255877","listPrice":3500000,"city":"San Clemente","baths":3,"slug":"20251107221140398762000000","mlsSource":"CRMLS","propertyType":"A","propertySubType":"Single Family Residence","livingArea":3700,"associationFee":0,"unparsedAddress":"173 West Avenida Junipero, San Clemente, CA 92672"}},{"type":"Feature","geometry":{"type":"Point","coordinates":[-117.607999,33.407604]},"properties":{"listingKey":"20251118203418143066000000","listingId":"8N-2510920","listPrice":1950000,"city":"San Clemente","baths":2.25,"slug":"20251118203418143066000000","mlsSource":"CRMLS","propertyType":"A","propertySubType":"Condominium","livingArea":1648,"associationFee":1000,"unparsedAddress":"268 Avenida Montalvo, 2, San Clemente, CA 92672"}},{"type":"Feature","id":889705,"properties":{"cluster":true,"cluster_id":889705,"point_count":2,"point_count_abbreviated":2},"geometry":{"type":"Point","coordinates":[-117.603240609169,33.40869594917501]}},{"type":"Feature","geometry":{"type":"Point","coordinates":[-117.610423,33.411789]},"properties":{"listingKey":"20251112211931312876000000","listingId":"OC-25257654","listPrice":4995000,"city":"San Clemente","baths":2.5,"slug":"20251112211931312876000000","mlsSource":"CRMLS","propertyType":"A","propertySubType":"Single Family Residence","livingArea":3223,"associationFee":0,"unparsedAddress":"1907 Calle De Los Alamos, San Clemente, CA 92672"}},{"type":"Feature","id":186345,"properties":{"cluster":true,"cluster_id":186345,"point_count":4,"point_count_abbreviated":4},"geometry":{"type":"Point","coordinates":[-117.60488212108612,33.40669872720308]}}]