[{"type":"Feature","geometry":{"type":"Point","coordinates":[-122.129317,38.001929]},"properties":{"listingKey":"20250925011409202682000000","listingId":"01-41112597","listPrice":585000,"city":"Martinez","baths":2,"slug":"20250925011409202682000000","mlsSource":"CRMLS","propertyType":"A","propertySubType":"Manufactured On Land","livingArea":1300,"unparsedAddress":"626 E Street, Martinez, CA 94553"}},{"type":"Feature","geometry":{"type":"Point","coordinates":[-122.134783,37.996442]},"properties":{"listingKey":"20250714095405724542000000","listingId":"01-41104681","listPrice":869950,"city":"Martinez","baths":3,"slug":"20250714095405724542000000","mlsSource":"CRMLS","propertyType":"A","propertySubType":"Single Family Residence","livingArea":2222,"unparsedAddress":"3810 CANYON WAY, Martinez, CA 94553"}},{"type":"Feature","geometry":{"type":"Point","coordinates":[-122.132697,37.99929]},"properties":{"listingKey":"20251010200649743034000000","listingId":"01-41114414","listPrice":710000,"city":"Martinez","baths":3,"slug":"20251010200649743034000000","mlsSource":"CRMLS","propertyType":"A","propertySubType":"Single Family Residence","livingArea":1426,"unparsedAddress":"431 Gilger, Martinez, CA 94553"}},{"type":"Feature","geometry":{"type":"Point","coordinates":[-122.139981,38.012017]},"properties":{"listingKey":"20251022224936455239000000","listingId":"01-41115519","listPrice":1195000,"city":"Martinez","baths":2.5,"slug":"20251022224936455239000000","mlsSource":"CRMLS","propertyType":"A","propertySubType":"Single Family Residence","livingArea":2635,"unparsedAddress":"1087 Hillside Dr, Martinez, CA 94553"}},{"type":"Feature","id":223337,"properties":{"cluster":true,"cluster_id":223337,"point_count":2,"point_count_abbreviated":2},"geometry":{"type":"Point","coordinates":[-122.12810307741165,38.012136436628055]}}]