[{"type":"Feature","geometry":{"type":"Point","coordinates":[-122.139938,37.715544]},"properties":{"listingKey":"20251112021848818658000000","listingId":"01-41117218","listPrice":2500,"city":"San Leandro","baths":1,"slug":"20251112021848818658000000","mlsSource":"CRMLS","propertyType":"B","propertySubType":"Townhouse","livingArea":811,"unparsedAddress":"1504 137Th Ave, San Leandro, CA 94578"}},{"type":"Feature","id":843113,"properties":{"cluster":true,"cluster_id":843113,"point_count":2,"point_count_abbreviated":2},"geometry":{"type":"Point","coordinates":[-122.13171869516373,37.71823812344999]}},{"type":"Feature","geometry":{"type":"Point","coordinates":[-122.133367,37.702984]},"properties":{"listingKey":"20251102012258206592000000","listingId":"01-41116486","listPrice":825000,"city":"San Leandro","baths":2,"slug":"20251102012258206592000000","mlsSource":"CRMLS","propertyType":"A","propertySubType":"Single Family Residence","livingArea":1366,"unparsedAddress":"963 Dillo St, San Leandro, CA 94578"}},{"type":"Feature","geometry":{"type":"Point","coordinates":[-122.133327,37.710277]},"properties":{"listingKey":"20251018004722205948000000","listingId":"01-41115154","listPrice":669500,"city":"San Leandro","baths":1,"slug":"20251018004722205948000000","mlsSource":"CRMLS","propertyType":"A","propertySubType":"Single Family Residence","livingArea":1065,"unparsedAddress":"14625 Bancroft Ave, San Leandro, CA 94578"}},{"type":"Feature","geometry":{"type":"Point","coordinates":[-122.143197,37.710219]},"properties":{"listingKey":"20251024182002908278000000","listingId":"01-41115724","listPrice":648000,"city":"San Leandro","baths":1,"slug":"20251024182002908278000000","mlsSource":"CRMLS","propertyType":"A","propertySubType":"Single Family Residence","livingArea":830,"unparsedAddress":"1255 Primrose Dr, San Leandro, CA 94578"}},{"type":"Feature","geometry":{"type":"Point","coordinates":[-122.140943,37.71206]},"properties":{"listingKey":"20251112035121046826000000","listingId":"01-41117224","listPrice":495000,"city":"San Leandro","baths":2,"slug":"20251112035121046826000000","mlsSource":"CRMLS","propertyType":"A","propertySubType":"Townhouse","livingArea":1084,"associationFee":406,"unparsedAddress":"14033 Reed Ave, San Leandro, CA 94578"}}]