[{"type":"Feature","geometry":{"type":"Point","coordinates":[-117.728056,33.697793]},"properties":{"listingKey":"20251119045337863840000000","listingId":"OC-25262857","listPrice":2350000,"city":"Irvine","baths":4,"slug":"20251119045337863840000000","mlsSource":"CRMLS","propertyType":"A","propertySubType":"Single Family Residence","livingArea":2590,"associationFee":240,"unparsedAddress":"181 Compass, Irvine, CA 92618"}},{"type":"Feature","geometry":{"type":"Point","coordinates":[-117.725014,33.697898]},"properties":{"listingKey":"20251023031456922725000000","listingId":"SW-25245316","listPrice":4800,"city":"Irvine","baths":3,"slug":"20251023031456922725000000","mlsSource":"CRMLS","propertyType":"B","propertySubType":"Condominium","livingArea":2062,"unparsedAddress":"146 Violet Bloom, Irvine, CA 92618"}},{"type":"Feature","geometry":{"type":"Point","coordinates":[-117.724229,33.700191]},"properties":{"listingKey":"20251121035040498752000000","listingId":"OC-25264213","listPrice":5500,"city":"Irvine","baths":2,"slug":"20251121035040498752000000","mlsSource":"CRMLS","propertyType":"B","propertySubType":"Single Family Residence","livingArea":1746,"unparsedAddress":"122 Bumblebee, Irvine, CA 92618"}},{"type":"Feature","geometry":{"type":"Point","coordinates":[-117.71968,33.698583]},"properties":{"listingKey":"20250813043521799885000000","listingId":"TR-25176455","listPrice":4500,"city":"Irvine","baths":2.5,"slug":"20250813043521799885000000","mlsSource":"CRMLS","propertyType":"B","propertySubType":"Single Family Residence","livingArea":1921,"unparsedAddress":"23 Keepsake, Irvine, CA 92618"}},{"type":"Feature","geometry":{"type":"Point","coordinates":[-117.717495,33.694247]},"properties":{"listingKey":"20251118181937287325000000","listingId":"WS-25257288","listPrice":4995,"city":"Irvine","baths":3,"slug":"20251118181937287325000000","mlsSource":"CRMLS","propertyType":"B","propertySubType":"Single Family Residence","livingArea":2398,"unparsedAddress":"59 Pathway, Irvine, CA 92618"}},{"type":"Feature","id":235432,"properties":{"cluster":true,"cluster_id":235432,"point_count":5,"point_count_abbreviated":5},"geometry":{"type":"Point","coordinates":[-117.71401154994965,33.69765285457707]}},{"type":"Feature","geometry":{"type":"Point","coordinates":[-117.712842,33.691009]},"properties":{"listingKey":"20251009080152714099000000","listingId":"OC-25235455","listPrice":5800,"city":"Irvine","baths":3.5,"slug":"20251009080152714099000000","mlsSource":"CRMLS","propertyType":"B","propertySubType":"Condominium","livingArea":2547,"unparsedAddress":"115 Hollow Tree, Irvine, CA 92618"}},{"type":"Feature","id":275337,"properties":{"cluster":true,"cluster_id":275337,"point_count":2,"point_count_abbreviated":2},"geometry":{"type":"Point","coordinates":[-117.71467566490173,33.69297275022184]}},{"type":"Feature","id":206184,"properties":{"cluster":true,"cluster_id":206184,"point_count":5,"point_count_abbreviated":5},"geometry":{"type":"Point","coordinates":[-117.71795654296876,33.697442197338404]}},{"type":"Feature","id":312329,"properties":{"cluster":true,"cluster_id":312329,"point_count":2,"point_count_abbreviated":2},"geometry":{"type":"Point","coordinates":[-117.71193981170654,33.70035921858114]}},{"type":"Feature","geometry":{"type":"Point","coordinates":[-117.711695,33.698022]},"properties":{"listingKey":"20250808172214236015000000","listingId":"OC-25177630","listPrice":7000,"city":"Irvine","baths":2.5,"slug":"20250808172214236015000000","mlsSource":"CRMLS","propertyType":"B","propertySubType":"Condominium","livingArea":1733,"unparsedAddress":"198 Desert Bloom, Irvine, CA 92618"}},{"type":"Feature","geometry":{"type":"Point","coordinates":[-117.710812,33.689075]},"properties":{"listingKey":"20250930203045659182000000","listingId":"OC-25228348","listPrice":6500,"city":"Irvine","baths":4,"slug":"20250930203045659182000000","mlsSource":"CRMLS","propertyType":"B","propertySubType":"Single Family Residence","livingArea":2916,"unparsedAddress":"113 Briar Rose, Irvine, CA 92618"}},{"type":"Feature","id":1076585,"properties":{"cluster":true,"cluster_id":1076585,"point_count":2,"point_count_abbreviated":2},"geometry":{"type":"Point","coordinates":[-117.72873312234879,33.68884408493955]}},{"type":"Feature","geometry":{"type":"Point","coordinates":[-117.724842,33.705988]},"properties":{"listingKey":"20251029034353649866000000","listingId":"PW-25249355","listPrice":1589999,"city":"Irvine","baths":3,"slug":"20251029034353649866000000","mlsSource":"CRMLS","propertyType":"A","propertySubType":"Townhouse","livingArea":2385,"associationFee":183,"unparsedAddress":"21 Canoe, Irvine, CA 92618"}},{"type":"Feature","id":243816,"properties":{"cluster":true,"cluster_id":243816,"point_count":4,"point_count_abbreviated":4},"geometry":{"type":"Point","coordinates":[-117.72618100047112,33.70222024066368]}},{"type":"Feature","geometry":{"type":"Point","coordinates":[-117.721382,33.702027]},"properties":{"listingKey":"20250901164104204975000000","listingId":"OC-25196126","listPrice":2870000,"city":"Irvine","baths":5.5,"slug":"20250901164104204975000000","mlsSource":"CRMLS","propertyType":"A","propertySubType":"Single Family Residence","livingArea":3612,"associationFee":183,"unparsedAddress":"21 Land Bird, Irvine, CA 92618"}}]