[{"type":"Feature","id":39496,"properties":{"cluster":true,"cluster_id":39496,"point_count":2,"point_count_abbreviated":2},"geometry":{"type":"Point","coordinates":[-116.30845248699188,33.67469353295708]}},{"type":"Feature","geometry":{"type":"Point","coordinates":[-116.319438,33.670836]},"properties":{"listingKey":"20250926013059564800000000","listingId":"IG-25225232","listPrice":915000,"city":"La Quinta","baths":2,"slug":"20250926013059564800000000","mlsSource":"CRMLS","propertyType":"A","propertySubType":"Single Family Residence","livingArea":1272,"associationFee":0,"unparsedAddress":"51991 Avenida Morales, La Quinta, CA 92253"}},{"type":"Feature","id":38280,"properties":{"cluster":true,"cluster_id":38280,"point_count":3,"point_count_abbreviated":3},"geometry":{"type":"Point","coordinates":[-116.31652593612671,33.672113149718896]}},{"type":"Feature","id":80777,"properties":{"cluster":true,"cluster_id":80777,"point_count":5,"point_count_abbreviated":5},"geometry":{"type":"Point","coordinates":[-116.3186105489731,33.67343460132646]}},{"type":"Feature","geometry":{"type":"Point","coordinates":[-116.313441,33.674592]},"properties":{"listingKey":"20251016174411905033000000","listingId":"219137080","listPrice":619000,"city":"La Quinta","baths":2,"slug":"20251016174411905033000000","mlsSource":"GPS","propertyType":"A","propertySubType":"Single Family Residence","livingArea":1320,"associationFee":0,"unparsedAddress":"51495 Avenida Obregon, La Quinta, CA 92253"}},{"type":"Feature","geometry":{"type":"Point","coordinates":[-116.309189,33.671383]},"properties":{"listingKey":"20251106173024545956000000","listingId":"219138364","listPrice":3000,"city":"La Quinta","baths":2,"slug":"20251106173024545956000000","mlsSource":"GPS","propertyType":"B","propertySubType":"Single Family Residence","livingArea":1303,"associationFee":0,"unparsedAddress":"51905 Avenida Velasco, La Quinta, CA 92253"}},{"type":"Feature","geometry":{"type":"Point","coordinates":[-116.311746,33.672208]},"properties":{"listingKey":"20251029175924679308000000","listingId":"219138575","listPrice":395000,"city":"La Quinta","baths":2,"slug":"20251029175924679308000000","mlsSource":"GPS","propertyType":"A","propertySubType":"Single Family Residence","livingArea":1248,"associationFee":0,"unparsedAddress":"51785 Avenida Ramirez, La Quinta, CA 92253"}},{"type":"Feature","geometry":{"type":"Point","coordinates":[-116.30845,33.683206]},"properties":{"listingKey":"20251015180253581891000000","listingId":"219137004","listPrice":849000,"city":"La Quinta","baths":3.5,"slug":"20251015180253581891000000","mlsSource":"GPS","propertyType":"A","propertySubType":"Condominium","livingArea":1922,"associationFee":730,"unparsedAddress":"50172 Calle Maria, La Quinta, CA 92253"}},{"type":"Feature","id":35016,"properties":{"cluster":true,"cluster_id":35016,"point_count":7,"point_count_abbreviated":7},"geometry":{"type":"Point","coordinates":[-116.30253630025045,33.680554273952595]}},{"type":"Feature","id":50344,"properties":{"cluster":true,"cluster_id":50344,"point_count":2,"point_count_abbreviated":2},"geometry":{"type":"Point","coordinates":[-116.30727499723434,33.67735419307]}},{"type":"Feature","geometry":{"type":"Point","coordinates":[-116.304808,33.686012]},"properties":{"listingKey":"20250820212638188361000000","listingId":"219134746","listPrice":1195000,"city":"La Quinta","baths":3,"slug":"20250820212638188361000000","mlsSource":"GPS","propertyType":"A","propertySubType":"Condominium","livingArea":2332,"associationFee":725,"unparsedAddress":"49845 Lago Drive, La Quinta, CA 92253"}},{"type":"Feature","id":51304,"properties":{"cluster":true,"cluster_id":51304,"point_count":3,"point_count_abbreviated":3},"geometry":{"type":"Point","coordinates":[-116.31775259971617,33.68581478311481]}},{"type":"Feature","id":89448,"properties":{"cluster":true,"cluster_id":89448,"point_count":4,"point_count_abbreviated":4},"geometry":{"type":"Point","coordinates":[-116.30211308598518,33.68502768279984]}},{"type":"Feature","id":91272,"properties":{"cluster":true,"cluster_id":91272,"point_count":3,"point_count_abbreviated":3},"geometry":{"type":"Point","coordinates":[-116.31222188472746,33.684936920296295]}}]