[{"type":"Feature","geometry":{"type":"Point","coordinates":[-121.976646,39.811435]},"properties":{"listingKey":"20250827041324092845000000","listingId":"SN-25187372","listPrice":650000,"city":"Chico","baths":2,"slug":"20250827041324092845000000","mlsSource":"CRMLS","propertyType":"A","propertySubType":"Manufactured On Land","livingArea":2500,"associationFee":0,"unparsedAddress":"6038 Anita Road, Chico, CA 95973"}},{"type":"Feature","geometry":{"type":"Point","coordinates":[-121.989381,39.463979]},"properties":{"listingKey":"20250712064642561328000000","listingId":"TR-25156441","listPrice":400000,"city":"Butte City","baths":2,"slug":"20250712064642561328000000","mlsSource":"CRMLS","propertyType":"A","propertySubType":"Duplex","livingArea":1872,"associationFee":0,"unparsedAddress":"61 Kilarney, Butte City, CA 95920"}},{"type":"Feature","id":92484,"properties":{"cluster":true,"cluster_id":92484,"point_count":2,"point_count_abbreviated":2},"geometry":{"type":"Point","coordinates":[-121.88516736030579,39.64787340894699]}},{"type":"Feature","id":40483,"properties":{"cluster":true,"cluster_id":40483,"point_count":143,"point_count_abbreviated":143},"geometry":{"type":"Point","coordinates":[-121.8378527056087,39.74985092059961]}},{"type":"Feature","id":58243,"properties":{"cluster":true,"cluster_id":58243,"point_count":13,"point_count_abbreviated":13},"geometry":{"type":"Point","coordinates":[-121.78519317736993,39.657213419475454]}},{"type":"Feature","id":57379,"properties":{"cluster":true,"cluster_id":57379,"point_count":9,"point_count_abbreviated":9},"geometry":{"type":"Point","coordinates":[-121.70010805130005,39.3731164021265]}},{"type":"Feature","geometry":{"type":"Point","coordinates":[-121.765587,39.550992]},"properties":{"listingKey":"20250814005218354417000000","listingId":"SN-25180993","listPrice":239000,"city":"Nelson","baths":1,"slug":"20250814005218354417000000","mlsSource":"CRMLS","propertyType":"A","propertySubType":"Single Family Residence","livingArea":784,"associationFee":0,"unparsedAddress":"1679 Elk Street, Nelson, CA 95958"}},{"type":"Feature","id":61091,"properties":{"cluster":true,"cluster_id":61091,"point_count":7,"point_count_abbreviated":7},"geometry":{"type":"Point","coordinates":[-121.67768010071346,39.86853578265567]}},{"type":"Feature","id":91236,"properties":{"cluster":true,"cluster_id":91236,"point_count":3,"point_count_abbreviated":3},"geometry":{"type":"Point","coordinates":[-122.11325883865358,39.88379156254405]}},{"type":"Feature","id":83780,"properties":{"cluster":true,"cluster_id":83780,"point_count":15,"point_count_abbreviated":15},"geometry":{"type":"Point","coordinates":[-122.19888997077942,39.52031199212803]}},{"type":"Feature","id":62851,"properties":{"cluster":true,"cluster_id":62851,"point_count":2,"point_count_abbreviated":2},"geometry":{"type":"Point","coordinates":[-122.02948093414307,39.58386655159006]}},{"type":"Feature","id":44035,"properties":{"cluster":true,"cluster_id":44035,"point_count":3,"point_count_abbreviated":3},"geometry":{"type":"Point","coordinates":[-122.07995116710664,39.80143402071073]}},{"type":"Feature","id":58467,"properties":{"cluster":true,"cluster_id":58467,"point_count":18,"point_count_abbreviated":18},"geometry":{"type":"Point","coordinates":[-122.19155043363571,39.75035709805198]}},{"type":"Feature","geometry":{"type":"Point","coordinates":[-122.115741,39.405172]},"properties":{"listingKey":"20250625002750191367000000","listingId":"SN-25138272","listPrice":1070000,"city":"Princeton","baths":3,"slug":"20250625002750191367000000","mlsSource":"CRMLS","propertyType":"A","propertySubType":"Single Family Residence","livingArea":3770,"associationFee":0,"unparsedAddress":"6177 Norman Rd. #3 Road, Princeton, CA 95970"}}]