[{"type":"Feature","geometry":{"type":"Point","coordinates":[-118.106921,34.052994]},"properties":{"listingKey":"20251007235535265117000000","listingId":"PW-25234768","listPrice":700000,"city":"Rosemead","baths":1,"slug":"20251007235535265117000000","mlsSource":"CRMLS","propertyType":"A","propertySubType":"Single Family Residence","livingArea":616,"associationFee":0,"unparsedAddress":"7217 Mooney Drive, Rosemead, CA 91770"}},{"type":"Feature","geometry":{"type":"Point","coordinates":[-118.108132,34.054864]},"properties":{"listingKey":"20250828074628987435000000","listingId":"PF-25192596","listPrice":1279000,"city":"Monterey Park","baths":2.75,"slug":"20250828074628987435000000","mlsSource":"CRMLS","propertyType":"A","propertySubType":"Single Family Residence","livingArea":2507,"associationFee":0,"unparsedAddress":"1023 Mooney Drive, Monterey Park, CA 91755"}},{"type":"Feature","geometry":{"type":"Point","coordinates":[-118.108677,34.058701]},"properties":{"listingKey":"20251101043858735363000000","listingId":"WS-25251798","listPrice":3200,"city":"Monterey Park","baths":2.5,"slug":"20251101043858735363000000","mlsSource":"CRMLS","propertyType":"B","propertySubType":"Condominium","livingArea":1703,"unparsedAddress":"331 South New Avenue, H, Monterey Park, CA 91755"}},{"type":"Feature","geometry":{"type":"Point","coordinates":[-118.105132,34.05566]},"properties":{"listingKey":"20251111200013060291000000","listingId":"CV-25257833","listPrice":925000,"city":"Rosemead","baths":2,"slug":"20251111200013060291000000","mlsSource":"CRMLS","propertyType":"A","propertySubType":"Single Family Residence","livingArea":1565,"associationFee":0,"unparsedAddress":"7525 Graves Avenue, Rosemead, CA 91770"}},{"type":"Feature","id":203977,"properties":{"cluster":true,"cluster_id":203977,"point_count":2,"point_count_abbreviated":2},"geometry":{"type":"Point","coordinates":[-118.1109157204628,34.06037035660512]}},{"type":"Feature","geometry":{"type":"Point","coordinates":[-118.112681,34.055139]},"properties":{"listingKey":"20251027201357194418000000","listingId":"WS-25248115","listPrice":699900,"city":"Monterey Park","baths":1,"slug":"20251027201357194418000000","mlsSource":"CRMLS","propertyType":"A","propertySubType":"Single Family Residence","livingArea":777,"associationFee":0,"unparsedAddress":"620 East Graves, Monterey Park, CA 91755"}},{"type":"Feature","geometry":{"type":"Point","coordinates":[-118.111603,34.061713]},"properties":{"listingKey":"20250907015136548242000000","listingId":"WS-25197689","listPrice":1850000,"city":"Monterey Park","baths":0,"slug":"20250907015136548242000000","mlsSource":"CRMLS","propertyType":"C","propertySubType":"Duplex","livingArea":3461,"unparsedAddress":"719 East Mabel Avenue, Monterey Park, CA 91755"}},{"type":"Feature","geometry":{"type":"Point","coordinates":[-118.113346,34.056058]},"properties":{"listingKey":"20251104055713714561000000","listingId":"WS-25230799","listPrice":699000,"city":"Monterey Park","baths":3,"slug":"20251104055713714561000000","mlsSource":"CRMLS","propertyType":"A","propertySubType":"Condominium","livingArea":1534,"associationFee":400,"unparsedAddress":"527 South Orange, Monterey Park, CA 91755"}},{"type":"Feature","geometry":{"type":"Point","coordinates":[-118.113049,34.057197]},"properties":{"listingKey":"20251018172135795106000000","listingId":"OC-25241161","listPrice":748000,"city":"Monterey Park","baths":3,"slug":"20251018172135795106000000","mlsSource":"CRMLS","propertyType":"A","propertySubType":"Townhouse","livingArea":1486,"associationFee":170,"unparsedAddress":"439 South Orange, F, Monterey Park, CA 91755"}}]