[{"type":"Feature","id":956297,"properties":{"cluster":true,"cluster_id":956297,"point_count":2,"point_count_abbreviated":2},"geometry":{"type":"Point","coordinates":[-120.14537662267685,34.602318235332476]}},{"type":"Feature","geometry":{"type":"Point","coordinates":[-120.132164,34.602429]},"properties":{"listingKey":"20251104162808271103000000","listingId":"SW-25252824","listPrice":5950,"city":"Solvang","baths":2.5,"slug":"20251104162808271103000000","mlsSource":"CRMLS","propertyType":"B","propertySubType":"Single Family Residence","livingArea":1897,"unparsedAddress":"692 Hillside Drive, Solvang, CA 93463"}},{"type":"Feature","geometry":{"type":"Point","coordinates":[-120.118768,34.625966]},"properties":{"listingKey":"20250916082207469343000000","listingId":"SC-25217813","listPrice":2695000,"city":"Solvang","baths":1.75,"slug":"20250916082207469343000000","mlsSource":"CRMLS","propertyType":"A","propertySubType":"Single Family Residence","livingArea":1944,"associationFee":0,"unparsedAddress":"1515 Alamo Pintado Road, Solvang, CA 93463"}},{"type":"Feature","geometry":{"type":"Point","coordinates":[-120.097176,34.615343]},"properties":{"listingKey":"20250705224106478329000000","listingId":"V1-31094","listPrice":2295000,"city":"Santa Ynez","baths":3,"slug":"20250705224106478329000000","mlsSource":"CRMLS","propertyType":"A","propertySubType":"Single Family Residence","livingArea":2750,"associationFee":449,"unparsedAddress":"3041 Fairlea Road, Santa Ynez, CA 93460"}},{"type":"Feature","geometry":{"type":"Point","coordinates":[-120.113621,34.654636]},"properties":{"listingKey":"20251005235033783701000000","listingId":"V1-32702","listPrice":2850000,"city":"Los Olivos","baths":2,"slug":"20251005235033783701000000","mlsSource":"CRMLS","propertyType":"A","propertySubType":"Single Family Residence","livingArea":1900,"unparsedAddress":"2465 Grand Avenue, Los Olivos, CA 93441"}},{"type":"Feature","geometry":{"type":"Point","coordinates":[-120.09572,34.667582]},"properties":{"listingKey":"20250828184600203336000000","listingId":"V1-32035","listPrice":2950000,"city":"Santa Ynez","baths":4,"slug":"20250828184600203336000000","mlsSource":"CRMLS","propertyType":"A","propertySubType":"Single Family Residence","livingArea":3740,"associationFee":603,"unparsedAddress":"3030 Calle Bonita, Santa Ynez, CA 93460"}},{"type":"Feature","geometry":{"type":"Point","coordinates":[-120.109186,34.615648]},"properties":{"listingKey":"20250716213810779926000000","listingId":"V1-31170","listPrice":2700000,"city":"Solvang","baths":4,"slug":"20250716213810779926000000","mlsSource":"CRMLS","propertyType":"A","propertySubType":"Single Family Residence","livingArea":4495,"unparsedAddress":"2591 Deer Hill Lane, Solvang, CA 93463"}},{"type":"Feature","id":733928,"properties":{"cluster":true,"cluster_id":733928,"point_count":2,"point_count_abbreviated":2},"geometry":{"type":"Point","coordinates":[-120.08022844791412,34.618817410329015]}},{"type":"Feature","geometry":{"type":"Point","coordinates":[-120.076085,34.627162]},"properties":{"listingKey":"20250915075041133430000000","listingId":"V1-32335","listPrice":4877000,"city":"Santa Ynez","baths":9,"slug":"20250915075041133430000000","mlsSource":"CRMLS","propertyType":"A","propertySubType":"Commercial/Residential","livingArea":3536,"unparsedAddress":"1551-1553 Meadowvale Road, Santa Ynez, CA 93460"}}]