[{"type":"Feature","id":59049,"properties":{"cluster":true,"cluster_id":59049,"point_count":2,"point_count_abbreviated":2},"geometry":{"type":"Point","coordinates":[-116.72659814357758,33.73953481511289]}},{"type":"Feature","geometry":{"type":"Point","coordinates":[-116.725959,33.733675]},"properties":{"listingKey":"20251118174849090878000000","listingId":"219138916","listPrice":579000,"city":"Idyllwild","baths":2.5,"slug":"20251118174849090878000000","mlsSource":"GPS","propertyType":"A","propertySubType":"Single Family Residence","livingArea":1781,"associationFee":0,"unparsedAddress":"26748 Mcmahan, Idyllwild, CA 92549"}},{"type":"Feature","geometry":{"type":"Point","coordinates":[-116.721686,33.736099]},"properties":{"listingKey":"20250629055154793312000000","listingId":"SW-25141352","listPrice":590000,"city":"Idyllwild","baths":2.5,"slug":"20250629055154793312000000","mlsSource":"CRMLS","propertyType":"A","propertySubType":"Single Family Residence","livingArea":1716,"associationFee":0,"unparsedAddress":"53825 Marian View Drive, Idyllwild, CA 92549"}},{"type":"Feature","geometry":{"type":"Point","coordinates":[-116.725034,33.735439]},"properties":{"listingKey":"20251017173559760784000000","listingId":"IV-25241801","listPrice":364999,"city":"Idyllwild","baths":2,"slug":"20251017173559760784000000","mlsSource":"CRMLS","propertyType":"A","propertySubType":"Single Family Residence","livingArea":1239,"associationFee":0,"unparsedAddress":"53705 Country Club Drive, Idyllwild, CA 92549"}},{"type":"Feature","geometry":{"type":"Point","coordinates":[-116.727263,33.735078]},"properties":{"listingKey":"20251016185057687964000000","listingId":"219137084","listPrice":569000,"city":"Idyllwild","baths":2,"slug":"20251016185057687964000000","mlsSource":"GPS","propertyType":"A","propertySubType":"Single Family Residence","livingArea":1245,"associationFee":0,"unparsedAddress":"53560 Country Club Drive, Idyllwild, CA 92549"}},{"type":"Feature","geometry":{"type":"Point","coordinates":[-116.726995,33.737405]},"properties":{"listingKey":"20251113234640970558000000","listingId":"219138744","listPrice":599999,"city":"Idyllwild","baths":2,"slug":"20251113234640970558000000","mlsSource":"GPS","propertyType":"A","propertySubType":"Single Family Residence","livingArea":1575,"associationFee":0,"unparsedAddress":"53570 Idyllbrook Drive, Idyllwild, CA 92549"}},{"type":"Feature","geometry":{"type":"Point","coordinates":[-116.729032,33.738689]},"properties":{"listingKey":"20250614005125681454000000","listingId":"219131478","listPrice":995000,"city":"Idyllwild","baths":4,"slug":"20250614005125681454000000","mlsSource":"GPS","propertyType":"C","livingArea":3200,"unparsedAddress":"26305 Delano Drive, Idyllwild, CA 92549"}}]