[{"type":"Feature","id":468743,"properties":{"cluster":true,"cluster_id":468743,"point_count":3,"point_count_abbreviated":3},"geometry":{"type":"Point","coordinates":[-118.16815495491026,34.043369812981254]}},{"type":"Feature","geometry":{"type":"Point","coordinates":[-118.156974,34.041343]},"properties":{"listingKey":"20251119030419338926000000","listingId":"DW-25262768","listPrice":750000,"city":"Monterey Park","baths":1,"slug":"20251119030419338926000000","mlsSource":"CRMLS","propertyType":"A","propertySubType":"Single Family Residence","livingArea":1137,"associationFee":0,"unparsedAddress":"2081 Vancouver Avenue, Monterey Park, CA 91754"}},{"type":"Feature","id":619784,"properties":{"cluster":true,"cluster_id":619784,"point_count":2,"point_count_abbreviated":2},"geometry":{"type":"Point","coordinates":[-118.12943369150162,34.03774221553532]}},{"type":"Feature","id":144647,"properties":{"cluster":true,"cluster_id":144647,"point_count":6,"point_count_abbreviated":6},"geometry":{"type":"Point","coordinates":[-118.14050763845445,34.03575216741454]}},{"type":"Feature","geometry":{"type":"Point","coordinates":[-118.163114,34.034098]},"properties":{"listingKey":"20251114154812120134000000","listingId":"DW-25260493","listPrice":689000,"city":"Los Angeles","baths":0,"slug":"20251114154812120134000000","mlsSource":"CRMLS","propertyType":"C","propertySubType":"Single Family Residence","livingArea":1189,"associationFee":0,"unparsedAddress":"241 South Kern Avenue, Los Angeles, CA 90022"}},{"type":"Feature","geometry":{"type":"Point","coordinates":[-118.15686,34.02978]},"properties":{"listingKey":"20251110025856192142000000","listingId":"PW-25257194","listPrice":675000,"city":"Los Angeles","baths":2,"slug":"20251110025856192142000000","mlsSource":"CRMLS","propertyType":"A","propertySubType":"Single Family Residence","livingArea":1328,"associationFee":0,"unparsedAddress":"407 South Vancouver Avenue, Los Angeles, CA 90022"}},{"type":"Feature","geometry":{"type":"Point","coordinates":[-118.148216,34.031575]},"properties":{"listingKey":"20251113040237011642000000","listingId":"OC-25259565","listPrice":3195,"city":"East Los Angeles","baths":1,"slug":"20251113040237011642000000","mlsSource":"CRMLS","propertyType":"B","propertySubType":"Single Family Residence","livingArea":1128,"associationFee":0,"unparsedAddress":"275 Margaret Avenue, East Los Angeles, CA 90022"}},{"type":"Feature","geometry":{"type":"Point","coordinates":[-118.152006,34.025214]},"properties":{"listingKey":"20250711152055700964000000","listingId":"PF-25151288","listPrice":1700,"city":"Los Angeles","baths":1,"slug":"20250711152055700964000000","mlsSource":"CRMLS","propertyType":"B","propertySubType":"Duplex","livingArea":700,"associationFee":0,"unparsedAddress":"533 Margaret, Los Angeles, CA 90022"}},{"type":"Feature","id":157383,"properties":{"cluster":true,"cluster_id":157383,"point_count":2,"point_count_abbreviated":2},"geometry":{"type":"Point","coordinates":[-118.13017666339874,34.02540998179717]}},{"type":"Feature","geometry":{"type":"Point","coordinates":[-118.132516,34.034158]},"properties":{"listingKey":"20251021203553537414000000","listingId":"AR-25234493","listPrice":2200,"city":"Monterey Park","baths":1,"slug":"20251021203553537414000000","mlsSource":"CRMLS","propertyType":"B","propertySubType":"Single Family Residence","livingArea":1946,"associationFee":0,"unparsedAddress":"224 West Fernfield Drive, Monterey Park, CA 91754"}},{"type":"Feature","id":408231,"properties":{"cluster":true,"cluster_id":408231,"point_count":3,"point_count_abbreviated":3},"geometry":{"type":"Point","coordinates":[-118.16313564777374,34.027428429676846]}},{"type":"Feature","id":168968,"properties":{"cluster":true,"cluster_id":168968,"point_count":2,"point_count_abbreviated":2},"geometry":{"type":"Point","coordinates":[-118.14548671245575,34.02780632757843]}},{"type":"Feature","id":129415,"properties":{"cluster":true,"cluster_id":129415,"point_count":2,"point_count_abbreviated":2},"geometry":{"type":"Point","coordinates":[-118.14190596342087,34.024916477324396]}},{"type":"Feature","id":363751,"properties":{"cluster":true,"cluster_id":363751,"point_count":5,"point_count_abbreviated":5},"geometry":{"type":"Point","coordinates":[-118.16499495506288,34.02083050573191]}},{"type":"Feature","geometry":{"type":"Point","coordinates":[-118.13594,34.022811]},"properties":{"listingKey":"20251118173818617733000000","listingId":"DW-25258321","listPrice":719900,"city":"Montebello","baths":1,"slug":"20251118173818617733000000","mlsSource":"CRMLS","propertyType":"A","propertySubType":"Single Family Residence","livingArea":910,"associationFee":0,"unparsedAddress":"3016 West Via Corona, Montebello, CA 90640"}},{"type":"Feature","id":595752,"properties":{"cluster":true,"cluster_id":595752,"point_count":3,"point_count_abbreviated":3},"geometry":{"type":"Point","coordinates":[-118.14356982707976,34.02127216176248]}},{"type":"Feature","geometry":{"type":"Point","coordinates":[-118.138621,34.05148]},"properties":{"listingKey":"20250709054019497128000000","listingId":"CV-25141056","listPrice":1199000,"city":"Monterey Park","baths":2,"slug":"20250709054019497128000000","mlsSource":"CRMLS","propertyType":"A","propertySubType":"Single Family Residence","livingArea":2668,"associationFee":0,"unparsedAddress":"824 De La Fuente Street, Monterey Park, CA 91754"}},{"type":"Feature","id":105383,"properties":{"cluster":true,"cluster_id":105383,"point_count":3,"point_count_abbreviated":3},"geometry":{"type":"Point","coordinates":[-118.12726736068724,34.051729024805084]}},{"type":"Feature","id":460872,"properties":{"cluster":true,"cluster_id":460872,"point_count":3,"point_count_abbreviated":3},"geometry":{"type":"Point","coordinates":[-118.14152061939238,34.047103557817294]}},{"type":"Feature","geometry":{"type":"Point","coordinates":[-118.130787,34.046291]},"properties":{"listingKey":"20250819084736231144000000","listingId":"WS-25186780","listPrice":3950,"city":"Monterey Park","baths":2,"slug":"20250819084736231144000000","mlsSource":"CRMLS","propertyType":"B","propertySubType":"Single Family Residence","livingArea":1712,"associationFee":0,"unparsedAddress":"183 West El Repetto Drive, Monterey Park, CA 91754"}}]