[{"type":"Feature","geometry":{"type":"Point","coordinates":[-119.258584,34.264855]},"properties":{"listingKey":"20251028185458127129000000","listingId":"V1-33104","listPrice":825000,"city":"Ventura","baths":1,"slug":"20251028185458127129000000","mlsSource":"CRMLS","propertyType":"A","propertySubType":"Single Family Residence","livingArea":1492,"unparsedAddress":"561 South Brent Street, Ventura, CA 93003"}},{"type":"Feature","geometry":{"type":"Point","coordinates":[-119.258315,34.270431]},"properties":{"listingKey":"20251103222354089866000000","listingId":"V1-33208","listPrice":899000,"city":"Ventura","baths":2,"slug":"20251103222354089866000000","mlsSource":"CRMLS","propertyType":"A","propertySubType":"Single Family Residence","livingArea":1540,"unparsedAddress":"220 Frances Street, Ventura, CA 93003"}},{"type":"Feature","geometry":{"type":"Point","coordinates":[-119.26524,34.267471]},"properties":{"listingKey":"20251104210330922585000000","listingId":"V1-33227","listPrice":5500,"city":"Ventura","baths":2,"slug":"20251104210330922585000000","mlsSource":"CRMLS","propertyType":"B","propertySubType":"Single Family Residence","livingArea":1250,"unparsedAddress":"622 South Evergreen Drive Drive, Ventura, CA 93003"}},{"type":"Feature","geometry":{"type":"Point","coordinates":[-119.259941,34.269706]},"properties":{"listingKey":"20250826231105723137000000","listingId":"V1-32012","listPrice":1625000,"city":"Ventura","baths":2,"slug":"20250826231105723137000000","mlsSource":"CRMLS","propertyType":"A","propertySubType":"Single Family Residence","livingArea":1796,"unparsedAddress":"297 Rancho Drive, Ventura, CA 93003"}},{"type":"Feature","id":763785,"properties":{"cluster":true,"cluster_id":763785,"point_count":7,"point_count_abbreviated":7},"geometry":{"type":"Point","coordinates":[-119.26668763160706,34.267449014339945]}}]