[{"type":"Feature","geometry":{"type":"Point","coordinates":[-117.347079,34.534382]},"properties":{"listingKey":"20251029193007242610000000","listingId":"IG-25249711","listPrice":500000,"city":"Victorville","baths":2.5,"slug":"20251029193007242610000000","mlsSource":"CRMLS","propertyType":"A","propertySubType":"Single Family Residence","livingArea":1930,"associationFee":0,"unparsedAddress":"15625 Fairbanks, Victorville, CA 92394"}},{"type":"Feature","id":145032,"properties":{"cluster":true,"cluster_id":145032,"point_count":4,"point_count_abbreviated":4},"geometry":{"type":"Point","coordinates":[-117.34891086816788,34.525662516290296]}},{"type":"Feature","geometry":{"type":"Point","coordinates":[-117.347075,34.536941]},"properties":{"listingKey":"20251031021723938575000000","listingId":"SB-25251047","listPrice":2800,"city":"Victorville","baths":2,"slug":"20251031021723938575000000","mlsSource":"CRMLS","propertyType":"B","propertySubType":"Single Family Residence","livingArea":2001,"associationFee":0,"unparsedAddress":"15765 Gable, Victorville, CA 92394"}},{"type":"Feature","geometry":{"type":"Point","coordinates":[-117.353373,34.527184]},"properties":{"listingKey":"20250715175000117449000000","listingId":"IV-25158550","listPrice":388000,"city":"Victorville","baths":2,"slug":"20250715175000117449000000","mlsSource":"CRMLS","propertyType":"A","propertySubType":"Single Family Residence","livingArea":1244,"associationFee":0,"unparsedAddress":"14199 Estate Way, Victorville, CA 92394"}},{"type":"Feature","geometry":{"type":"Point","coordinates":[-117.347876,34.542169]},"properties":{"listingKey":"20251030181259019558000000","listingId":"CV-25250035","listPrice":429000,"city":"Victorville","baths":2.5,"slug":"20251030181259019558000000","mlsSource":"CRMLS","propertyType":"A","propertySubType":"Single Family Residence","livingArea":1937,"associationFee":0,"unparsedAddress":"14483 Wapiti Way, Victorville, CA 92394"}},{"type":"Feature","geometry":{"type":"Point","coordinates":[-117.348495,34.538794]},"properties":{"listingKey":"20251015022108704188000000","listingId":"OC-25236380","listPrice":499999,"city":"Victorville","baths":2.5,"slug":"20251015022108704188000000","mlsSource":"CRMLS","propertyType":"A","propertySubType":"Single Family Residence","livingArea":2902,"associationFee":0,"unparsedAddress":"15954 Silver Tip Way, Victorville, CA 92394"}},{"type":"Feature","id":470857,"properties":{"cluster":true,"cluster_id":470857,"point_count":2,"point_count_abbreviated":2},"geometry":{"type":"Point","coordinates":[-117.35216706991196,34.53825962193602]}},{"type":"Feature","geometry":{"type":"Point","coordinates":[-117.352512,34.540797]},"properties":{"listingKey":"20250923142948670491000000","listingId":"DW-25223269","listPrice":465000,"city":"Victorville","baths":2.5,"slug":"20250923142948670491000000","mlsSource":"CRMLS","propertyType":"A","propertySubType":"Single Family Residence","livingArea":1887,"associationFee":0,"unparsedAddress":"16013 Papago Place, Victorville, CA 92394"}},{"type":"Feature","geometry":{"type":"Point","coordinates":[-117.337093,34.525333]},"properties":{"listingKey":"20250822131105093023000000","listingId":"CV-25189764","listPrice":409999,"city":"Victorville","baths":2,"slug":"20250822131105093023000000","mlsSource":"CRMLS","propertyType":"A","propertySubType":"Single Family Residence","livingArea":1773,"associationFee":0,"unparsedAddress":"15227 Flagstaff Street, Victorville, CA 92394"}}]