[{"type":"Feature","geometry":{"type":"Point","coordinates":[-117.353983,33.9684]},"properties":{"listingKey":"20251121004849413165000000","listingId":"IV-25264039","listPrice":610000,"city":"Riverside","baths":1,"slug":"20251121004849413165000000","mlsSource":"CRMLS","propertyType":"A","propertySubType":"Single Family Residence","livingArea":1378,"associationFee":0,"unparsedAddress":"4485 Dwight Avenue, Riverside, CA 92507"}},{"type":"Feature","geometry":{"type":"Point","coordinates":[-117.3522,33.966666]},"properties":{"listingKey":"20251027233848832753000000","listingId":"IV-25248185","listPrice":3495,"city":"Riverside","baths":2.5,"slug":"20251027233848832753000000","mlsSource":"CRMLS","propertyType":"B","propertySubType":"Single Family Residence","livingArea":2112,"unparsedAddress":"4574 Sandano, Riverside, CA 92507"}},{"type":"Feature","geometry":{"type":"Point","coordinates":[-117.348826,33.967422]},"properties":{"listingKey":"20250914051306508540000000","listingId":"TR-25216889","listPrice":3450,"city":"Riverside","baths":2.5,"slug":"20250914051306508540000000","mlsSource":"CRMLS","propertyType":"B","propertySubType":"Single Family Residence","livingArea":2112,"unparsedAddress":"4520 Filson Street, Riverside, CA 92507"}},{"type":"Feature","geometry":{"type":"Point","coordinates":[-117.350169,33.963959]},"properties":{"listingKey":"20250823235627573112000000","listingId":"IV-25190643","listPrice":789000,"city":"Riverside","baths":3,"slug":"20250823235627573112000000","mlsSource":"CRMLS","propertyType":"A","propertySubType":"Single Family Residence","livingArea":2192,"associationFee":0,"unparsedAddress":"1787 Prince Albert Drive, Riverside, CA 92507"}},{"type":"Feature","id":128616,"properties":{"cluster":true,"cluster_id":128616,"point_count":2,"point_count_abbreviated":2},"geometry":{"type":"Point","coordinates":[-117.3538675904274,33.97416801991777]}},{"type":"Feature","geometry":{"type":"Point","coordinates":[-117.353573,33.97968]},"properties":{"listingKey":"20250730073512272146000000","listingId":"PW-25170275","listPrice":1950,"city":"Riverside","baths":1,"slug":"20250730073512272146000000","mlsSource":"CRMLS","propertyType":"B","propertySubType":"Apartment","livingArea":2086,"associationFee":0,"unparsedAddress":"1935 West Linden Street, Riverside, CA 92507"}},{"type":"Feature","geometry":{"type":"Point","coordinates":[-117.348902,33.978148]},"properties":{"listingKey":"20250918012333113113000000","listingId":"IV-25218561","listPrice":2095,"city":"Riverside","baths":1,"slug":"20250918012333113113000000","mlsSource":"CRMLS","propertyType":"B","propertySubType":"Apartment","livingArea":750,"associationFee":0,"unparsedAddress":"3581 Chicago Ave, Riverside, CA 92660"}},{"type":"Feature","geometry":{"type":"Point","coordinates":[-117.354655,33.977047]},"properties":{"listingKey":"20251104035008329522000000","listingId":"IV-25253194","listPrice":685000,"city":"Riverside","baths":0,"slug":"20251104035008329522000000","mlsSource":"CRMLS","propertyType":"C","propertySubType":"Duplex","livingArea":1914,"associationFee":0,"unparsedAddress":"1971 7th, Riverside, CA 92507"}}]