[{"type":"Feature","geometry":{"type":"Point","coordinates":[-118.007631,33.809804]},"properties":{"listingKey":"20251103193031047573000000","listingId":"OC-25249058","listPrice":1695000,"city":"Stanton","baths":0,"slug":"20251103193031047573000000","mlsSource":"CRMLS","propertyType":"C","propertySubType":"Quadruplex","livingArea":3542,"associationFee":0,"unparsedAddress":"7160 Cerritos, Stanton, CA 90680"}},{"type":"Feature","geometry":{"type":"Point","coordinates":[-118.009117,33.808869]},"properties":{"listingKey":"20251120171800138031000000","listingId":"CV-25260887","listPrice":470000,"city":"Stanton","baths":1,"slug":"20251120171800138031000000","mlsSource":"CRMLS","propertyType":"A","propertySubType":"Condominium","livingArea":825,"associationFee":300,"unparsedAddress":"7100 Cerritos, 85, Stanton, CA 90680"}},{"type":"Feature","geometry":{"type":"Point","coordinates":[-118.011154,33.808462]},"properties":{"listingKey":"20251109033613853781000000","listingId":"WS-25256962","listPrice":788000,"city":"Cypress","baths":2,"slug":"20251109033613853781000000","mlsSource":"CRMLS","propertyType":"A","propertySubType":"Single Family Residence","livingArea":1700,"associationFee":0,"unparsedAddress":"10601 Knott, Cypress, CA 90630"}},{"type":"Feature","geometry":{"type":"Point","coordinates":[-118.010454,33.806745]},"properties":{"listingKey":"20250729060717844884000000","listingId":"PW-25169325","listPrice":627999,"city":"Stanton","baths":1.5,"slug":"20250729060717844884000000","mlsSource":"CRMLS","propertyType":"A","propertySubType":"Condominium","livingArea":1169,"associationFee":380,"unparsedAddress":"10700 Knott Avenue, Stanton, CA 90680"}},{"type":"Feature","geometry":{"type":"Point","coordinates":[-118.012368,33.812817]},"properties":{"listingKey":"20251112002322085953000000","listingId":"OC-25258120","listPrice":465000,"city":"Anaheim","baths":1,"slug":"20251112002322085953000000","mlsSource":"CRMLS","propertyType":"A","propertySubType":"Condominium","livingArea":798,"associationFee":422,"unparsedAddress":"3582 West Stonepine Lane, 157, Anaheim, CA 92804"}},{"type":"Feature","geometry":{"type":"Point","coordinates":[-118.00838,33.811094]},"properties":{"listingKey":"20251118173856538502000000","listingId":"PW-25261779","listPrice":789900,"city":"Stanton","baths":1.5,"slug":"20251118173856538502000000","mlsSource":"CRMLS","propertyType":"A","propertySubType":"Single Family Residence","livingArea":1205,"associationFee":0,"unparsedAddress":"10411 Lexington St, Stanton, CA 90680"}}]