[{"type":"Feature","geometry":{"type":"Point","coordinates":[-118.014895,33.677446]},"properties":{"listingKey":"20250916035945691383000000","listingId":"OC-25217441","listPrice":17000,"city":"Huntington Beach","baths":6,"slug":"20250916035945691383000000","mlsSource":"CRMLS","propertyType":"B","propertySubType":"Single Family Residence","livingArea":4771,"unparsedAddress":"19635 Larchmont Circle, Huntington Beach, CA 92648"}},{"type":"Feature","geometry":{"type":"Point","coordinates":[-118.011319,33.672379]},"properties":{"listingKey":"20250927042244889085000000","listingId":"OC-25225070","listPrice":2499000,"city":"Huntington Beach","baths":3.5,"slug":"20250927042244889085000000","mlsSource":"CRMLS","propertyType":"A","propertySubType":"Single Family Residence","livingArea":2765,"associationFee":0,"unparsedAddress":"620 22nd, Huntington Beach, CA 92648"}},{"type":"Feature","geometry":{"type":"Point","coordinates":[-118.00963,33.67531]},"properties":{"listingKey":"20251017054257605748000000","listingId":"IG-25241552","listPrice":1340000,"city":"Huntington Beach","baths":2.5,"slug":"20251017054257605748000000","mlsSource":"CRMLS","propertyType":"A","propertySubType":"Single Family Residence","livingArea":2275,"associationFee":584,"unparsedAddress":"19748 Shorecliff, Huntington Beach, CA 92648"}},{"type":"Feature","id":310953,"properties":{"cluster":true,"cluster_id":310953,"point_count":2,"point_count_abbreviated":2},"geometry":{"type":"Point","coordinates":[-118.0085089802742,33.6703139785713]}},{"type":"Feature","id":332937,"properties":{"cluster":true,"cluster_id":332937,"point_count":2,"point_count_abbreviated":2},"geometry":{"type":"Point","coordinates":[-118.0101129412651,33.67356853109935]}},{"type":"Feature","geometry":{"type":"Point","coordinates":[-118.010891,33.676104]},"properties":{"listingKey":"20251026195459570338000000","listingId":"PW-25247364","listPrice":2998888,"city":"Huntington Beach","baths":2,"slug":"20251026195459570338000000","mlsSource":"CRMLS","propertyType":"A","propertySubType":"Single Family Residence","livingArea":2097,"associationFee":0,"unparsedAddress":"19741 Quiet Bay Lane, Huntington Beach, CA 92648"}},{"type":"Feature","geometry":{"type":"Point","coordinates":[-118.00919,33.671192]},"properties":{"listingKey":"20250718221950881337000000","listingId":"OC-25160791","listPrice":1799900,"city":"Huntington Beach","baths":2.5,"slug":"20250718221950881337000000","mlsSource":"CRMLS","propertyType":"A","propertySubType":"Single Family Residence","livingArea":2145,"associationFee":0,"unparsedAddress":"627 19th Street, Huntington Beach, CA 92648"}},{"type":"Feature","geometry":{"type":"Point","coordinates":[-118.012753,33.678196]},"properties":{"listingKey":"20251022221132636298000000","listingId":"OC-25242706","listPrice":1299500,"city":"Huntington Beach","baths":2,"slug":"20251022221132636298000000","mlsSource":"CRMLS","propertyType":"A","propertySubType":"Condominium","livingArea":1021,"associationFee":834,"unparsedAddress":"2000 Pacific Coast Hwy, 309, Huntington Beach, CA 92648"}},{"type":"Feature","geometry":{"type":"Point","coordinates":[-118.005959,33.675596]},"properties":{"listingKey":"20251023211518147185000000","listingId":"PW-25229172","listPrice":3998000,"city":"Huntington Beach","baths":4.5,"slug":"20251023211518147185000000","mlsSource":"CRMLS","propertyType":"A","propertySubType":"Single Family Residence","livingArea":4112,"associationFee":270,"unparsedAddress":"19731 Estate Circle, Huntington Beach, CA 92648"}},{"type":"Feature","id":323721,"properties":{"cluster":true,"cluster_id":323721,"point_count":2,"point_count_abbreviated":2},"geometry":{"type":"Point","coordinates":[-118.00830513238907,33.67594798195877]}},{"type":"Feature","geometry":{"type":"Point","coordinates":[-118.013812,33.670741]},"properties":{"listingKey":"20251012215553261891000000","listingId":"P1-24641","listPrice":2399000,"city":"Huntington Beach","baths":3.25,"slug":"20251012215553261891000000","mlsSource":"CRMLS","propertyType":"A","propertySubType":"Single Family Residence","livingArea":2928,"unparsedAddress":"411 22nd Street, Huntington Beach, CA 92648"}},{"type":"Feature","geometry":{"type":"Point","coordinates":[-118.007691,33.67513]},"properties":{"listingKey":"20251106185612293670000000","listingId":"OC-25253727","listPrice":1299000,"city":"Huntington Beach","baths":2.5,"slug":"20251106185612293670000000","mlsSource":"CRMLS","propertyType":"A","propertySubType":"Single Family Residence","livingArea":1728,"associationFee":558,"unparsedAddress":"19701 Seacliff Lane, Huntington Beach, CA 92648"}}]