[{"type":"Feature","geometry":{"type":"Point","coordinates":[-118.333212,33.96838]},"properties":{"listingKey":"20250625153720479126000000","listingId":"SB-25142325","listPrice":1195000,"city":"Inglewood","baths":3,"slug":"20250625153720479126000000","mlsSource":"CRMLS","propertyType":"A","propertySubType":"Single Family Residence","livingArea":2498,"associationFee":0,"unparsedAddress":"3500 West 78th Street, Inglewood, CA 90305"}},{"type":"Feature","geometry":{"type":"Point","coordinates":[-118.327162,33.967892]},"properties":{"listingKey":"20251103195036291549000000","listingId":"OC-25251397","listPrice":1124900,"city":"Los Angeles","baths":2.5,"slug":"20251103195036291549000000","mlsSource":"CRMLS","propertyType":"A","propertySubType":"Single Family Residence","livingArea":1659,"associationFee":0,"unparsedAddress":"3116 West 78th Place, Los Angeles, CA 90043"}},{"type":"Feature","id":694825,"properties":{"cluster":true,"cluster_id":694825,"point_count":3,"point_count_abbreviated":3},"geometry":{"type":"Point","coordinates":[-118.33150327205658,33.96878794161849]}},{"type":"Feature","geometry":{"type":"Point","coordinates":[-118.323964,33.962102]},"properties":{"listingKey":"20251104212932568210000000","listingId":"IG-25253333","listPrice":1099000,"city":"Inglewood","baths":4,"slug":"20251104212932568210000000","mlsSource":"CRMLS","propertyType":"A","propertySubType":"Single Family Residence","livingArea":2186,"associationFee":0,"unparsedAddress":"2816 West 84th, Inglewood, CA 90305"}},{"type":"Feature","geometry":{"type":"Point","coordinates":[-118.33165,33.964259]},"properties":{"listingKey":"20250909203020785723000000","listingId":"SB-25203421","listPrice":1195000,"city":"Inglewood","baths":2.5,"slug":"20250909203020785723000000","mlsSource":"CRMLS","propertyType":"A","propertySubType":"Single Family Residence","livingArea":2509,"associationFee":0,"unparsedAddress":"3414 W 82nd Street, Inglewood, CA 90305"}}]