[{"type":"Feature","geometry":{"type":"Point","coordinates":[-118.328805,33.877913]},"properties":{"listingKey":"20251108021845992964000000","listingId":"CV-25256589","listPrice":988000,"city":"Torrance","baths":2,"slug":"20251108021845992964000000","mlsSource":"CRMLS","propertyType":"A","propertySubType":"Single Family Residence","livingArea":1463,"associationFee":0,"unparsedAddress":"3158 West 168th, Torrance, CA 90504"}},{"type":"Feature","geometry":{"type":"Point","coordinates":[-118.330626,33.875518]},"properties":{"listingKey":"20251010231859303089000000","listingId":"SB-25237315","listPrice":1399000,"city":"Torrance","baths":3,"slug":"20251010231859303089000000","mlsSource":"CRMLS","propertyType":"A","propertySubType":"Single Family Residence","livingArea":1962,"associationFee":0,"unparsedAddress":"17033 Glenburn Avenue, Torrance, CA 90504"}},{"type":"Feature","id":304425,"properties":{"cluster":true,"cluster_id":304425,"point_count":2,"point_count_abbreviated":2},"geometry":{"type":"Point","coordinates":[-118.32769453525543,33.8781742007226]}},{"type":"Feature","geometry":{"type":"Point","coordinates":[-118.3235,33.873676]},"properties":{"listingKey":"20251111023455020947000000","listingId":"SB-25256568","listPrice":1400000,"city":"Torrance","baths":2.75,"slug":"20251111023455020947000000","mlsSource":"CRMLS","propertyType":"A","propertySubType":"Single Family Residence","livingArea":1773,"associationFee":0,"unparsedAddress":"17303 Wilkie, Torrance, CA 90504"}},{"type":"Feature","geometry":{"type":"Point","coordinates":[-118.325641,33.873948]},"properties":{"listingKey":"20251007183437582679000000","listingId":"IN-25234202","listPrice":3700,"city":"Torrance","baths":1,"slug":"20251007183437582679000000","mlsSource":"CRMLS","propertyType":"B","propertySubType":"Single Family Residence","livingArea":967,"associationFee":0,"unparsedAddress":"17229 Atkinson Avenue, Torrance, CA 90504"}},{"type":"Feature","geometry":{"type":"Point","coordinates":[-118.332045,33.873749]},"properties":{"listingKey":"20250709163649020388000000","listingId":"SB-25152883","listPrice":8499000,"city":"Torrance","baths":0,"slug":"20250709163649020388000000","mlsSource":"CRMLS","propertyType":"C","propertySubType":"Commercial/Residential","livingArea":11695,"unparsedAddress":"17302 Ermanita Avenue, Torrance, CA 90504"}}]