[{"type":"Feature","geometry":{"type":"Point","coordinates":[-117.001313,33.7237]},"properties":{"listingKey":"20251007005410448284000000","listingId":"SW-25232880","listPrice":355000,"city":"Hemet","baths":2,"slug":"20251007005410448284000000","mlsSource":"CRMLS","propertyType":"A","propertySubType":"Manufactured On Land","livingArea":2124,"associationFee":50,"unparsedAddress":"1408 Brentwood Way, Hemet, CA 92545"}},{"type":"Feature","geometry":{"type":"Point","coordinates":[-117.004069,33.721815]},"properties":{"listingKey":"20250717043840968950000000","listingId":"CV-25159466","listPrice":584000,"city":"Hemet","baths":4,"slug":"20250717043840968950000000","mlsSource":"CRMLS","propertyType":"A","propertySubType":"Single Family Residence","livingArea":3175,"associationFee":184,"unparsedAddress":"3051 Mill Ridge Drive, Hemet, CA 92545"}},{"type":"Feature","id":463081,"properties":{"cluster":true,"cluster_id":463081,"point_count":3,"point_count_abbreviated":3},"geometry":{"type":"Point","coordinates":[-116.99493527412413,33.719696409426376]}},{"type":"Feature","geometry":{"type":"Point","coordinates":[-116.998271,33.722191]},"properties":{"listingKey":"20250812052423275055000000","listingId":"PW-25180707","listPrice":359900,"city":"Hemet","baths":1.75,"slug":"20250812052423275055000000","mlsSource":"CRMLS","propertyType":"A","propertySubType":"Manufactured On Land","livingArea":1980,"associationFee":36,"unparsedAddress":"1507 Willow Leaf Drive, Hemet, CA 92545"}},{"type":"Feature","geometry":{"type":"Point","coordinates":[-116.999685,33.717143]},"properties":{"listingKey":"20251118203351452928000000","listingId":"SW-25262022","listPrice":435000,"city":"Hemet","baths":2,"slug":"20251118203351452928000000","mlsSource":"CRMLS","propertyType":"A","propertySubType":"Single Family Residence","livingArea":1817,"associationFee":43,"unparsedAddress":"2830 Banyan Tree, Hemet, CA 92545"}},{"type":"Feature","geometry":{"type":"Point","coordinates":[-117.001579,33.717021]},"properties":{"listingKey":"20251027151530974843000000","listingId":"SW-25237044","listPrice":439000,"city":"Hemet","baths":2,"slug":"20251027151530974843000000","mlsSource":"CRMLS","propertyType":"A","propertySubType":"Single Family Residence","livingArea":1654,"associationFee":46,"unparsedAddress":"1886 Tamarack, Hemet, CA 92545"}},{"type":"Feature","id":520873,"properties":{"cluster":true,"cluster_id":520873,"point_count":2,"point_count_abbreviated":2},"geometry":{"type":"Point","coordinates":[-117.00361400842667,33.71928888586301]}}]