[{"type":"Feature","geometry":{"type":"Point","coordinates":[-120.679951,35.485423]},"properties":{"listingKey":"20251111040629426449000000","listingId":"NS-25257956","listPrice":999900,"city":"Atascadero","baths":3.25,"slug":"20251111040629426449000000","mlsSource":"CRMLS","propertyType":"A","propertySubType":"Single Family Residence","livingArea":2775,"associationFee":0,"unparsedAddress":"5725 Chauplin Avenue, Atascadero, CA 93422"}},{"type":"Feature","geometry":{"type":"Point","coordinates":[-120.683521,35.490193]},"properties":{"listingKey":"20251015233557942250000000","listingId":"NS-25237642","listPrice":1049000,"city":"Atascadero","baths":3,"slug":"20251015233557942250000000","mlsSource":"CRMLS","propertyType":"A","propertySubType":"Single Family Residence","livingArea":2712,"associationFee":0,"unparsedAddress":"3880 Ardilla, Atascadero, CA 93422"}},{"type":"Feature","geometry":{"type":"Point","coordinates":[-120.685656,35.483105]},"properties":{"listingKey":"20250827041232885459000000","listingId":"NS-25192447","listPrice":929000,"city":"Atascadero","baths":2,"slug":"20250827041232885459000000","mlsSource":"CRMLS","propertyType":"A","propertySubType":"Single Family Residence","livingArea":1548,"associationFee":0,"unparsedAddress":"9080 Santa Lucia Road, Atascadero, CA 93422"}},{"type":"Feature","geometry":{"type":"Point","coordinates":[-120.676104,35.482759]},"properties":{"listingKey":"20251025215814703004000000","listingId":"NS-25247131","listPrice":799000,"city":"Atascadero","baths":2,"slug":"20251025215814703004000000","mlsSource":"CRMLS","propertyType":"A","propertySubType":"Single Family Residence","livingArea":1542,"associationFee":0,"unparsedAddress":"7505 El Retiro, Atascadero, CA 93422"}},{"type":"Feature","geometry":{"type":"Point","coordinates":[-120.677501,35.486807]},"properties":{"listingKey":"20251017204009729478000000","listingId":"SC-25242071","listPrice":899000,"city":"Atascadero","baths":2,"slug":"20251017204009729478000000","mlsSource":"CRMLS","propertyType":"A","propertySubType":"Single Family Residence","livingArea":2019,"associationFee":0,"unparsedAddress":"5450 Pescado Court, Atascadero, CA 93422"}}]