[{"type":"Feature","id":90564,"properties":{"cluster":true,"cluster_id":90564,"point_count":2,"point_count_abbreviated":2},"geometry":{"type":"Point","coordinates":[-123.3482775092125,39.392759632259526]}},{"type":"Feature","geometry":{"type":"Point","coordinates":[-123.382504,39.457348]},"properties":{"listingKey":"20250925013711043113000000","listingId":"LC-25224780","listPrice":319000,"city":"Willits","baths":2,"slug":"20250925013711043113000000","mlsSource":"CRMLS","propertyType":"A","propertySubType":"Single Family Residence","livingArea":1484,"associationFee":0,"unparsedAddress":"1617 Alcott Lane, Willits, CA 95490"}},{"type":"Feature","id":232646,"properties":{"cluster":true,"cluster_id":232646,"point_count":2,"point_count_abbreviated":2},"geometry":{"type":"Point","coordinates":[-123.28042030334473,39.37466546868697]}},{"type":"Feature","geometry":{"type":"Point","coordinates":[-123.326105,39.47241]},"properties":{"listingKey":"20251024211132465331000000","listingId":"LC-25246832","listPrice":495000,"city":"Willits","baths":1,"slug":"20251024211132465331000000","mlsSource":"CRMLS","propertyType":"A","propertySubType":"Single Family Residence","livingArea":2000,"associationFee":0,"unparsedAddress":"25996 String Creek Road, Willits, CA 95490"}},{"type":"Feature","geometry":{"type":"Point","coordinates":[-123.210427,39.374707]},"properties":{"listingKey":"20250910005357880291000000","listingId":"OC-25181342","listPrice":435000,"city":"Redwood Valley","baths":2,"slug":"20250910005357880291000000","mlsSource":"CRMLS","propertyType":"A","propertySubType":"Single Family Residence","livingArea":1356,"associationFee":0,"unparsedAddress":"19899 Scenic Drive, Redwood Valley, CA 95470"}}]