[{"type":"Feature","id":561161,"properties":{"cluster":true,"cluster_id":561161,"point_count":2,"point_count_abbreviated":2},"geometry":{"type":"Point","coordinates":[-122.23535388708115,37.77241936035509]}},{"type":"Feature","geometry":{"type":"Point","coordinates":[-122.234755,37.785039]},"properties":{"listingKey":"20250930182210450615000000","listingId":"01-41113140","listPrice":580000,"city":"Oakland","baths":2,"slug":"20250930182210450615000000","mlsSource":"CRMLS","propertyType":"A","propertySubType":"Condominium","livingArea":896,"associationFee":395,"unparsedAddress":"1547 23rd Ave., Oakland, CA"}},{"type":"Feature","id":180360,"properties":{"cluster":true,"cluster_id":180360,"point_count":2,"point_count_abbreviated":2},"geometry":{"type":"Point","coordinates":[-122.25420981645584,37.7726440961258]}},{"type":"Feature","id":896489,"properties":{"cluster":true,"cluster_id":896489,"point_count":3,"point_count_abbreviated":3},"geometry":{"type":"Point","coordinates":[-122.2535812854767,37.776128119903376]}},{"type":"Feature","geometry":{"type":"Point","coordinates":[-122.2514,37.774652]},"properties":{"listingKey":"20250913014256355281000000","listingId":"01-41111449","listPrice":890000,"city":"Alameda","baths":0,"slug":"20250913014256355281000000","mlsSource":"CRMLS","propertyType":"C","propertySubType":"Duplex","associationFee":0,"unparsedAddress":"1805 Eagle Ave, Alameda, CA 94501"}},{"type":"Feature","id":1026153,"properties":{"cluster":true,"cluster_id":1026153,"point_count":2,"point_count_abbreviated":2},"geometry":{"type":"Point","coordinates":[-122.24733531475067,37.7718596381079]}},{"type":"Feature","id":680104,"properties":{"cluster":true,"cluster_id":680104,"point_count":4,"point_count_abbreviated":4},"geometry":{"type":"Point","coordinates":[-122.24677875638008,37.77446315863733]}},{"type":"Feature","geometry":{"type":"Point","coordinates":[-122.236063,37.778455]},"properties":{"listingKey":"20250716040640595977000000","listingId":"01-41104880","listPrice":529000,"city":"Oakland","baths":1,"slug":"20250716040640595977000000","mlsSource":"CRMLS","propertyType":"A","propertySubType":"Single Family Residence","livingArea":1019,"unparsedAddress":"917 26Th Ave, Oakland, CA 94601"}},{"type":"Feature","geometry":{"type":"Point","coordinates":[-122.238369,37.785192]},"properties":{"listingKey":"20251006233933241260000000","listingId":"01-41113930","listPrice":1280000,"city":"Oakland","baths":0,"slug":"20251006233933241260000000","mlsSource":"CRMLS","propertyType":"C","propertySubType":"Quadruplex","associationFee":0,"unparsedAddress":"2116 International Blvd, Oakland, CA 94606"}}]