[{"type":"Feature","id":314920,"properties":{"cluster":true,"cluster_id":314920,"point_count":3,"point_count_abbreviated":3},"geometry":{"type":"Point","coordinates":[-116.05299532413484,34.14552022163274]}},{"type":"Feature","id":68937,"properties":{"cluster":true,"cluster_id":68937,"point_count":2,"point_count_abbreviated":2},"geometry":{"type":"Point","coordinates":[-116.05780273675919,34.145961227800385]}},{"type":"Feature","id":35817,"properties":{"cluster":true,"cluster_id":35817,"point_count":3,"point_count_abbreviated":3},"geometry":{"type":"Point","coordinates":[-116.05040073394774,34.154490840476925]}},{"type":"Feature","id":112872,"properties":{"cluster":true,"cluster_id":112872,"point_count":3,"point_count_abbreviated":3},"geometry":{"type":"Point","coordinates":[-116.05809330940245,34.149501032828056]}},{"type":"Feature","geometry":{"type":"Point","coordinates":[-116.045084,34.151799]},"properties":{"listingKey":"20251108011425477757000000","listingId":"JT-25255835","listPrice":394000,"city":"29 Palms","baths":2,"slug":"20251108011425477757000000","mlsSource":"CRMLS","propertyType":"A","propertySubType":"Single Family Residence","livingArea":1512,"associationFee":250,"unparsedAddress":"74103 Manana Drive, 29 Palms, CA 92277"}},{"type":"Feature","geometry":{"type":"Point","coordinates":[-116.048108,34.153416]},"properties":{"listingKey":"20251018194312771131000000","listingId":"SW-25242589","listPrice":389900,"city":"29 Palms","baths":2,"slug":"20251018194312771131000000","mlsSource":"CRMLS","propertyType":"A","propertySubType":"Single Family Residence","livingArea":1363,"associationFee":0,"unparsedAddress":"73973 Playa Vista, 29 Palms, CA 92277"}},{"type":"Feature","geometry":{"type":"Point","coordinates":[-116.056058,34.143802]},"properties":{"listingKey":"20250904222452796848000000","listingId":"JT-25198849","listPrice":550000,"city":"29 Palms","baths":0,"slug":"20250904222452796848000000","mlsSource":"CRMLS","propertyType":"C","propertySubType":"Quadruplex","livingArea":3172,"unparsedAddress":"73615 Sun Valley Drive, 29 Palms, CA 92277"}},{"type":"Feature","geometry":{"type":"Point","coordinates":[-116.042933,34.146919]},"properties":{"listingKey":"20251105183555249728000000","listingId":"SW-25254342","listPrice":220000,"city":"29 Palms","baths":2,"slug":"20251105183555249728000000","mlsSource":"CRMLS","propertyType":"A","propertySubType":"Single Family Residence","livingArea":1068,"associationFee":0,"unparsedAddress":"5893 Marine, 29 Palms, CA 92277"}}]