[{"type":"Feature","geometry":{"type":"Point","coordinates":[-117.642629,33.621908]},"properties":{"listingKey":"20250809055029454545000000","listingId":"OC-25178319","listPrice":1150000,"city":"Mission Viejo","baths":2,"slug":"20250809055029454545000000","mlsSource":"CRMLS","propertyType":"A","propertySubType":"Single Family Residence","livingArea":1546,"associationFee":584,"unparsedAddress":"23531 Via Murillo, Mission Viejo, CA 92692"}},{"type":"Feature","geometry":{"type":"Point","coordinates":[-117.654346,33.616188]},"properties":{"listingKey":"20251001211626605739000000","listingId":"OC-25228577","listPrice":1395000,"city":"Mission Viejo","baths":2,"slug":"20251001211626605739000000","mlsSource":"CRMLS","propertyType":"A","propertySubType":"Single Family Residence","livingArea":1640,"associationFee":30,"unparsedAddress":"27301 Via Avila, Mission Viejo, CA 92691"}},{"type":"Feature","geometry":{"type":"Point","coordinates":[-117.650031,33.622369]},"properties":{"listingKey":"20251007013117968530000000","listingId":"OC-25233907","listPrice":690000,"city":"Mission Viejo","baths":2,"slug":"20251007013117968530000000","mlsSource":"CRMLS","propertyType":"A","propertySubType":"Condominium","livingArea":1340,"associationFee":671,"unparsedAddress":"23332 Coso, 134, Mission Viejo, CA 92692"}},{"type":"Feature","id":525992,"properties":{"cluster":true,"cluster_id":525992,"point_count":2,"point_count_abbreviated":2},"geometry":{"type":"Point","coordinates":[-117.65005856752396,33.625228667023606]}},{"type":"Feature","id":732329,"properties":{"cluster":true,"cluster_id":732329,"point_count":2,"point_count_abbreviated":2},"geometry":{"type":"Point","coordinates":[-117.64409601688385,33.62588082175486]}},{"type":"Feature","geometry":{"type":"Point","coordinates":[-117.64605,33.621037]},"properties":{"listingKey":"20250915021818045200000000","listingId":"OC-25200885","listPrice":1050000,"city":"Mission Viejo","baths":2.25,"slug":"20250915021818045200000000","mlsSource":"CRMLS","propertyType":"A","propertySubType":"Condominium","livingArea":2197,"associationFee":690,"unparsedAddress":"23552 Bermuda Dunes, Mission Viejo, CA 92692"}},{"type":"Feature","id":738505,"properties":{"cluster":true,"cluster_id":738505,"point_count":2,"point_count_abbreviated":2},"geometry":{"type":"Point","coordinates":[-117.64233648777008,33.617348818362785]}},{"type":"Feature","id":258184,"properties":{"cluster":true,"cluster_id":258184,"point_count":2,"point_count_abbreviated":2},"geometry":{"type":"Point","coordinates":[-117.65497773885727,33.62817672447093]}},{"type":"Feature","id":827016,"properties":{"cluster":true,"cluster_id":827016,"point_count":2,"point_count_abbreviated":2},"geometry":{"type":"Point","coordinates":[-117.65485972166061,33.63114701365251]}},{"type":"Feature","geometry":{"type":"Point","coordinates":[-117.662779,33.623564]},"properties":{"listingKey":"20251115195112776799000000","listingId":"OC-25261182","listPrice":1150000,"city":"Mission Viejo","baths":2,"slug":"20251115195112776799000000","mlsSource":"CRMLS","propertyType":"A","propertySubType":"Single Family Residence","livingArea":936,"associationFee":150,"unparsedAddress":"23342 Via Burriana, Mission Viejo, CA 92691"}},{"type":"Feature","geometry":{"type":"Point","coordinates":[-117.658013,33.622365]},"properties":{"listingKey":"20251007012325793385000000","listingId":"OC-25233322","listPrice":1099000,"city":"Mission Viejo","baths":2,"slug":"20251007012325793385000000","mlsSource":"CRMLS","propertyType":"A","propertySubType":"Single Family Residence","livingArea":1463,"associationFee":29,"unparsedAddress":"23441 Via Ronda, Mission Viejo, CA 92691"}},{"type":"Feature","geometry":{"type":"Point","coordinates":[-117.661105,33.632338]},"properties":{"listingKey":"20250817071739296242000000","listingId":"OC-25185179","listPrice":1200000,"city":"Mission Viejo","baths":2,"slug":"20250817071739296242000000","mlsSource":"CRMLS","propertyType":"A","propertySubType":"Single Family Residence","livingArea":1463,"associationFee":0,"unparsedAddress":"22735 Via Santa Rosa, Mission Viejo, CA 92691"}},{"type":"Feature","geometry":{"type":"Point","coordinates":[-117.659349,33.618926]},"properties":{"listingKey":"20251119232941650521000000","listingId":"OC-25263174","listPrice":1299900,"city":"Mission Viejo","baths":2,"slug":"20251119232941650521000000","mlsSource":"CRMLS","propertyType":"A","propertySubType":"Single Family Residence","livingArea":1470,"associationFee":0,"unparsedAddress":"23691 Via El Rocio, Mission Viejo, CA 92691"}}]