[{"type":"Feature","id":292809,"properties":{"cluster":true,"cluster_id":292809,"point_count":2,"point_count_abbreviated":2},"geometry":{"type":"Point","coordinates":[-117.66081690788269,33.4555816386073]}},{"type":"Feature","id":229448,"properties":{"cluster":true,"cluster_id":229448,"point_count":3,"point_count_abbreviated":3},"geometry":{"type":"Point","coordinates":[-117.6586478948593,33.45914862334588]}},{"type":"Feature","geometry":{"type":"Point","coordinates":[-117.644237,33.460005]},"properties":{"listingKey":"20250918172809040837000000","listingId":"OC-25199068","listPrice":2799000,"city":"San Clemente","baths":4.5,"slug":"20250918172809040837000000","mlsSource":"CRMLS","propertyType":"A","propertySubType":"Single Family Residence","livingArea":4176,"associationFee":450,"unparsedAddress":"4 Via Del Tesoro, San Clemente, CA 92673"}},{"type":"Feature","geometry":{"type":"Point","coordinates":[-117.658369,33.45006]},"properties":{"listingKey":"20251007231952906451000000","listingId":"OC-25234725","listPrice":22000,"city":"Dana Point","baths":2.5,"slug":"20251007231952906451000000","mlsSource":"CRMLS","propertyType":"B","propertySubType":"Single Family Residence","livingArea":2188,"associationFee":98,"unparsedAddress":"35325 Beach Road, Dana Point, CA 92624"}},{"type":"Feature","geometry":{"type":"Point","coordinates":[-117.661952,33.460223]},"properties":{"listingKey":"20251111210224965760000000","listingId":"PW-25258343","listPrice":3795,"city":"Dana Point","baths":2,"slug":"20251111210224965760000000","mlsSource":"CRMLS","propertyType":"B","propertySubType":"Duplex","livingArea":1000,"associationFee":0,"unparsedAddress":"34602 Calle Rosita, A, Dana Point, CA 92624"}},{"type":"Feature","id":260904,"properties":{"cluster":true,"cluster_id":260904,"point_count":3,"point_count_abbreviated":3},"geometry":{"type":"Point","coordinates":[-117.65408277511595,33.45057329068588]}},{"type":"Feature","geometry":{"type":"Point","coordinates":[-117.642995,33.45393]},"properties":{"listingKey":"20251030022229705161000000","listingId":"PW-25248341","listPrice":1600000,"city":"San Clemente","baths":2,"slug":"20251030022229705161000000","mlsSource":"CRMLS","propertyType":"A","propertySubType":"Single Family Residence","livingArea":1577,"associationFee":0,"unparsedAddress":"607 Avenida Vaquero, San Clemente, CA 92673"}},{"type":"Feature","id":293352,"properties":{"cluster":true,"cluster_id":293352,"point_count":3,"point_count_abbreviated":3},"geometry":{"type":"Point","coordinates":[-117.66233325004576,33.451895152639224]}},{"type":"Feature","id":730824,"properties":{"cluster":true,"cluster_id":730824,"point_count":4,"point_count_abbreviated":4},"geometry":{"type":"Point","coordinates":[-117.64975547790527,33.44986833913816]}},{"type":"Feature","id":301161,"properties":{"cluster":true,"cluster_id":301161,"point_count":3,"point_count_abbreviated":3},"geometry":{"type":"Point","coordinates":[-117.65831172466278,33.452659018532614]}},{"type":"Feature","geometry":{"type":"Point","coordinates":[-117.6478,33.466324]},"properties":{"listingKey":"20251113040241100451000000","listingId":"LG-25258664","listPrice":15000,"city":"San Clemente","baths":4.5,"slug":"20251113040241100451000000","mlsSource":"CRMLS","propertyType":"B","propertySubType":"Single Family Residence","livingArea":3861,"unparsedAddress":"75 Marbella, San Clemente, CA 92673"}},{"type":"Feature","geometry":{"type":"Point","coordinates":[-117.649238,33.463302]},"properties":{"listingKey":"20250908171406894356000000","listingId":"OC-25200585","listPrice":2850000,"city":"San Clemente","baths":3.5,"slug":"20250908171406894356000000","mlsSource":"CRMLS","propertyType":"A","propertySubType":"Single Family Residence","livingArea":3897,"associationFee":425,"unparsedAddress":"3 Calle Agua, San Clemente, CA 92673"}},{"type":"Feature","geometry":{"type":"Point","coordinates":[-117.663519,33.465542]},"properties":{"listingKey":"20251104223110987377000000","listingId":"OC-25249661","listPrice":1695000,"city":"Dana Point","baths":1.5,"slug":"20251104223110987377000000","mlsSource":"CRMLS","propertyType":"A","propertySubType":"Single Family Residence","livingArea":2250,"unparsedAddress":"34240 Camino El Molino, Dana Point, CA 92624"}},{"type":"Feature","geometry":{"type":"Point","coordinates":[-117.660815,33.462331]},"properties":{"listingKey":"20250816200343167274000000","listingId":"OC-25184112","listPrice":8000,"city":"Dana Point","baths":3,"slug":"20250816200343167274000000","mlsSource":"CRMLS","propertyType":"B","propertySubType":"Single Family Residence","livingArea":2500,"associationFee":0,"unparsedAddress":"34456 Calle Portola, Dana Point, CA 92624"}}]