[{"type":"Feature","geometry":{"type":"Point","coordinates":[-117.365793,34.115023]},"properties":{"listingKey":"20250817083231443731000000","listingId":"IV-25185109","listPrice":599998,"city":"Rialto","baths":2,"slug":"20250817083231443731000000","mlsSource":"CRMLS","propertyType":"A","propertySubType":"Single Family Residence","livingArea":1429,"associationFee":0,"unparsedAddress":"827 North Sycamore Avenue, Rialto, CA 92376"}},{"type":"Feature","geometry":{"type":"Point","coordinates":[-117.362067,34.110519]},"properties":{"listingKey":"20251120010647099412000000","listingId":"CV-25263405","listPrice":599888,"city":"Rialto","baths":2,"slug":"20251120010647099412000000","mlsSource":"CRMLS","propertyType":"A","propertySubType":"Single Family Residence","livingArea":1242,"associationFee":0,"unparsedAddress":"604 North Acacia, Rialto, CA 92376"}},{"type":"Feature","id":530345,"properties":{"cluster":true,"cluster_id":530345,"point_count":2,"point_count_abbreviated":2},"geometry":{"type":"Point","coordinates":[-117.36509531736374,34.10998354472203]}},{"type":"Feature","geometry":{"type":"Point","coordinates":[-117.366428,34.107571]},"properties":{"listingKey":"20250906035707352585000000","listingId":"TR-25200054","listPrice":485000,"city":"Rialto","baths":1,"slug":"20250906035707352585000000","mlsSource":"CRMLS","propertyType":"A","propertySubType":"Single Family Residence","livingArea":1032,"associationFee":0,"unparsedAddress":"251 East Ramona Drive, Rialto, CA 92376"}},{"type":"Feature","geometry":{"type":"Point","coordinates":[-117.364521,34.107983]},"properties":{"listingKey":"20250821134317893794000000","listingId":"IV-25186986","listPrice":499999,"city":"Rialto","baths":1,"slug":"20250821134317893794000000","mlsSource":"CRMLS","propertyType":"A","propertySubType":"Single Family Residence","livingArea":1390,"associationFee":0,"unparsedAddress":"432 North Sage Avenue North, Rialto, CA 92376"}}]