[{"type":"Feature","geometry":{"type":"Point","coordinates":[-121.684462,39.828913]},"properties":{"listingKey":"20250704103134296014000000","listingId":"SN-25149769","listPrice":670000,"city":"Forest Ranch","baths":2,"slug":"20250704103134296014000000","mlsSource":"CRMLS","propertyType":"A","propertySubType":"Single Family Residence","livingArea":1912,"associationFee":0,"unparsedAddress":"4592 Wendlis Road, Forest Ranch, CA 95942"}},{"type":"Feature","id":140133,"properties":{"cluster":true,"cluster_id":140133,"point_count":3,"point_count_abbreviated":3},"geometry":{"type":"Point","coordinates":[-121.67925059795381,39.8796887931922]}},{"type":"Feature","geometry":{"type":"Point","coordinates":[-121.667058,39.781529]},"properties":{"listingKey":"20251008184801480388000000","listingId":"SN-25233302","listPrice":715000,"city":"Chico","baths":3,"slug":"20251008184801480388000000","mlsSource":"CRMLS","propertyType":"A","propertySubType":"Single Family Residence","livingArea":3447,"associationFee":0,"unparsedAddress":"5056 Hooper Lane, Chico, CA 95928"}},{"type":"Feature","geometry":{"type":"Point","coordinates":[-121.654687,39.903811]},"properties":{"listingKey":"20251112014846480776000000","listingId":"SN-25258027","listPrice":299000,"city":"Forest Ranch","baths":2,"slug":"20251112014846480776000000","mlsSource":"CRMLS","propertyType":"A","propertySubType":"Manufactured On Land","livingArea":1080,"associationFee":0,"unparsedAddress":"16376 Stage Road, Forest Ranch, CA 95942"}},{"type":"Feature","id":183557,"properties":{"cluster":true,"cluster_id":183557,"point_count":2,"point_count_abbreviated":2},"geometry":{"type":"Point","coordinates":[-121.68343037366867,39.853966110149145]}}]