[{"type":"Feature","geometry":{"type":"Point","coordinates":[-117.351289,33.165616]},"properties":{"listingKey":"20250923102458686748000000","listingId":"8N-2509279","listPrice":4500,"city":"Carlsbad","baths":2,"slug":"20250923102458686748000000","mlsSource":"CRMLS","propertyType":"B","propertySubType":"Condominium","livingArea":1000,"associationFee":0,"unparsedAddress":"624 Laguna Drive, Carlsbad, CA 92008"}},{"type":"Feature","geometry":{"type":"Point","coordinates":[-117.348129,33.170527]},"properties":{"listingKey":"20251009233144602543000000","listingId":"SW-25231812","listPrice":2250000,"city":"Carlsbad","baths":4,"slug":"20251009233144602543000000","mlsSource":"CRMLS","propertyType":"A","propertySubType":"Single Family Residence","livingArea":3044,"associationFee":0,"unparsedAddress":"1107 Las Flores Drive, Carlsbad, CA 92008"}},{"type":"Feature","geometry":{"type":"Point","coordinates":[-117.348907,33.165404]},"properties":{"listingKey":"20250919175633209858000000","listingId":"8N-2509231","listPrice":1450000,"city":"Carlsbad","baths":2,"slug":"20250919175633209858000000","mlsSource":"CRMLS","propertyType":"A","propertySubType":"Single Family Residence","livingArea":1200,"associationFee":0,"unparsedAddress":"774 Laguna, Carlsbad, CA 92008"}},{"type":"Feature","geometry":{"type":"Point","coordinates":[-117.346557,33.168211]},"properties":{"listingKey":"20250804200838601920000000","listingId":"8N-2507657","listPrice":1850000,"city":"Carlsbad","baths":4.5,"slug":"20250804200838601920000000","mlsSource":"CRMLS","propertyType":"A","propertySubType":"Single Family Residence","livingArea":2113,"associationFee":0,"unparsedAddress":"1080 Buena Place, Carlsbad, CA 92008"}},{"type":"Feature","id":288329,"properties":{"cluster":true,"cluster_id":288329,"point_count":3,"point_count_abbreviated":3},"geometry":{"type":"Point","coordinates":[-117.34907627105714,33.169016167936036]}}]