[{"type":"Feature","id":465001,"properties":{"cluster":true,"cluster_id":465001,"point_count":2,"point_count_abbreviated":2},"geometry":{"type":"Point","coordinates":[-117.44213104248047,34.15128863718947]}},{"type":"Feature","geometry":{"type":"Point","coordinates":[-117.442119,34.149445]},"properties":{"listingKey":"20251016191239128216000000","listingId":"IV-25241069","listPrice":4000,"city":"Fontana","baths":3.5,"slug":"20251016191239128216000000","mlsSource":"CRMLS","propertyType":"B","propertySubType":"Single Family Residence","livingArea":3340,"associationFee":0,"unparsedAddress":"16623 Almaden, Fontana, CA 92336"}},{"type":"Feature","id":525225,"properties":{"cluster":true,"cluster_id":525225,"point_count":2,"point_count_abbreviated":2},"geometry":{"type":"Point","coordinates":[-117.44003891944885,34.15123536475875]}},{"type":"Feature","geometry":{"type":"Point","coordinates":[-117.440909,34.148489]},"properties":{"listingKey":"20250821134242973646000000","listingId":"CV-25188554","listPrice":749000,"city":"Fontana","baths":2.5,"slug":"20250821134242973646000000","mlsSource":"CRMLS","propertyType":"A","propertySubType":"Single Family Residence","livingArea":2364,"associationFee":0,"unparsedAddress":"16681 Escalon Drive, Fontana, CA 92336"}},{"type":"Feature","geometry":{"type":"Point","coordinates":[-117.441368,34.144361]},"properties":{"listingKey":"20250805150109113776000000","listingId":"IG-25170968","listPrice":875000,"city":"Fontana","baths":2.5,"slug":"20250805150109113776000000","mlsSource":"CRMLS","propertyType":"A","propertySubType":"Single Family Residence","livingArea":2462,"associationFee":0,"unparsedAddress":"6031 Medinah Street, Fontana, CA 92336"}},{"type":"Feature","geometry":{"type":"Point","coordinates":[-117.437151,34.14616]},"properties":{"listingKey":"20250905063006550971000000","listingId":"WS-25199818","listPrice":668000,"city":"Fontana","baths":2.5,"slug":"20250905063006550971000000","mlsSource":"CRMLS","propertyType":"A","propertySubType":"Single Family Residence","livingArea":2031,"associationFee":0,"unparsedAddress":"16850 Merion Lane, Fontana, CA 92336"}},{"type":"Feature","geometry":{"type":"Point","coordinates":[-117.436511,34.152346]},"properties":{"listingKey":"20251015220237559532000000","listingId":"TR-25239530","listPrice":625000,"city":"Fontana","baths":2.5,"slug":"20251015220237559532000000","mlsSource":"CRMLS","propertyType":"A","propertySubType":"Single Family Residence","livingArea":1916,"associationFee":165,"unparsedAddress":"16763 Stags Leap Lane, Fontana, CA 92336"}}]