[{"type":"Feature","geometry":{"type":"Point","coordinates":[-117.443351,34.153745]},"properties":{"listingKey":"20251103030910146196000000","listingId":"CV-25252391","listPrice":628000,"city":"Fontana","baths":2.5,"slug":"20251103030910146196000000","mlsSource":"CRMLS","propertyType":"A","propertySubType":"Single Family Residence","livingArea":1726,"associationFee":180,"unparsedAddress":"16540 Monteviejo, Fontana, CA 92336"}},{"type":"Feature","geometry":{"type":"Point","coordinates":[-117.442837,34.159355]},"properties":{"listingKey":"20251115064251035641000000","listingId":"CV-25257075","listPrice":488000,"city":"Fontana","baths":2.5,"slug":"20251115064251035641000000","mlsSource":"CRMLS","propertyType":"A","propertySubType":"Condominium","livingArea":1516,"associationFee":342,"unparsedAddress":"16502 Casa Grande, 105, Fontana, CA 92336"}},{"type":"Feature","geometry":{"type":"Point","coordinates":[-117.442185,34.156474]},"properties":{"listingKey":"20251010044846862296000000","listingId":"SB-25235750","listPrice":899000,"city":"Fontana","baths":4,"slug":"20251010044846862296000000","mlsSource":"CRMLS","propertyType":"A","propertySubType":"Single Family Residence","livingArea":3194,"associationFee":96,"unparsedAddress":"5367 Heitz Way, Fontana, CA 92336"}},{"type":"Feature","id":496777,"properties":{"cluster":true,"cluster_id":496777,"point_count":3,"point_count_abbreviated":3},"geometry":{"type":"Point","coordinates":[-117.44013547897339,34.15853633406407]}},{"type":"Feature","geometry":{"type":"Point","coordinates":[-117.438181,34.15843]},"properties":{"listingKey":"20250812070921675267000000","listingId":"DW-25180367","listPrice":699000,"city":"Fontana","baths":3,"slug":"20250812070921675267000000","mlsSource":"CRMLS","propertyType":"A","propertySubType":"Single Family Residence","livingArea":2329,"associationFee":250,"unparsedAddress":"16736 Grapefruit Lane, Fontana, CA 92336"}}]