[{"type":"Feature","geometry":{"type":"Point","coordinates":[-116.321845,34.127721]},"properties":{"listingKey":"20250920041804595353000000","listingId":"RS-25221060","listPrice":349500,"city":"Joshua Tree","baths":1,"slug":"20250920041804595353000000","mlsSource":"CRMLS","propertyType":"A","propertySubType":"Single Family Residence","livingArea":1265,"associationFee":0,"unparsedAddress":"61494 Sunburst Drive, Joshua Tree, CA 92252"}},{"type":"Feature","geometry":{"type":"Point","coordinates":[-116.319702,34.131344]},"properties":{"listingKey":"20251013163607155647000000","listingId":"219136867","listPrice":2450,"city":"Joshua Tree","baths":1,"slug":"20251013163607155647000000","mlsSource":"GPS","propertyType":"B","propertySubType":"Single Family Residence","livingArea":825,"associationFee":0,"unparsedAddress":"61589 El Reposo Street, Joshua Tree, CA 92252"}},{"type":"Feature","geometry":{"type":"Point","coordinates":[-116.319949,34.125578]},"properties":{"listingKey":"20251104181617699817000000","listingId":"219138183","listPrice":285000,"city":"Joshua Tree","baths":2,"slug":"20251104181617699817000000","mlsSource":"GPS","propertyType":"A","propertySubType":"Manufactured On Land","livingArea":1080,"associationFee":0,"unparsedAddress":"61581 Granada Drive, Joshua Tree, CA 92252"}},{"type":"Feature","geometry":{"type":"Point","coordinates":[-116.321345,34.129664]},"properties":{"listingKey":"20250723101109087835000000","listingId":"OC-25164456","listPrice":419000,"city":"Joshua Tree","baths":1.5,"slug":"20250723101109087835000000","mlsSource":"CRMLS","propertyType":"A","propertySubType":"Single Family Residence","livingArea":1187,"associationFee":0,"unparsedAddress":"61495 La Jolla Drive, Joshua Tree, CA 92252"}},{"type":"Feature","geometry":{"type":"Point","coordinates":[-116.321588,34.131019]},"properties":{"listingKey":"20250913213803795070000000","listingId":"OC-25216767","listPrice":389000,"city":"Joshua Tree","baths":2,"slug":"20250913213803795070000000","mlsSource":"CRMLS","propertyType":"A","propertySubType":"Single Family Residence","livingArea":1474,"associationFee":0,"unparsedAddress":"61504 CAPILLA DRIVE, Joshua Tree, CA 92252"}},{"type":"Feature","geometry":{"type":"Point","coordinates":[-116.319286,34.127725]},"properties":{"listingKey":"20251114183616247003000000","listingId":"8P-2508581","listPrice":424999,"city":"Joshua Tree","baths":2,"slug":"20251114183616247003000000","mlsSource":"CRMLS","propertyType":"A","propertySubType":"Single Family Residence","livingArea":1487,"associationFee":0,"unparsedAddress":"61610 Sunburst Drive, Joshua Tree, CA 92252"}},{"type":"Feature","geometry":{"type":"Point","coordinates":[-116.318963,34.126422]},"properties":{"listingKey":"20250902210417895002000000","listingId":"JT-25196774","listPrice":400000,"city":"Joshua Tree","baths":1,"slug":"20250902210417895002000000","mlsSource":"CRMLS","propertyType":"A","propertySubType":"Single Family Residence","livingArea":912,"associationFee":0,"unparsedAddress":"61627 El Cajon Drive, Joshua Tree, CA 92252"}},{"type":"Feature","geometry":{"type":"Point","coordinates":[-116.317803,34.129354]},"properties":{"listingKey":"20251024151832223271000000","listingId":"JT-25246523","listPrice":385000,"city":"Joshua Tree","baths":2,"slug":"20251024151832223271000000","mlsSource":"CRMLS","propertyType":"A","propertySubType":"Single Family Residence","livingArea":1264,"associationFee":0,"unparsedAddress":"61680 Valley View Drive, Joshua Tree, CA 92252"}},{"type":"Feature","id":71849,"properties":{"cluster":true,"cluster_id":71849,"point_count":2,"point_count_abbreviated":2},"geometry":{"type":"Point","coordinates":[-116.31433457136154,34.12661990854285]}},{"type":"Feature","id":56649,"properties":{"cluster":true,"cluster_id":56649,"point_count":2,"point_count_abbreviated":2},"geometry":{"type":"Point","coordinates":[-116.3137874007225,34.131753160280496]}},{"type":"Feature","id":391337,"properties":{"cluster":true,"cluster_id":391337,"point_count":2,"point_count_abbreviated":2},"geometry":{"type":"Point","coordinates":[-116.31377398967743,34.129230978656466]}}]