[{"type":"Feature","geometry":{"type":"Point","coordinates":[-118.138179,34.105288]},"properties":{"listingKey":"20251113171515233253000000","listingId":"P1-24980","listPrice":2650000,"city":"South Pasadena","baths":2.25,"slug":"20251113171515233253000000","mlsSource":"CRMLS","propertyType":"A","propertySubType":"Single Family Residence","livingArea":2030,"unparsedAddress":"1809 Court Avenue, South Pasadena, CA 91030"}},{"type":"Feature","id":127112,"properties":{"cluster":true,"cluster_id":127112,"point_count":3,"point_count_abbreviated":3},"geometry":{"type":"Point","coordinates":[-118.13802480697632,34.097863200803815]}},{"type":"Feature","geometry":{"type":"Point","coordinates":[-118.136125,34.103311]},"properties":{"listingKey":"20250806153504684603000000","listingId":"WS-25176704","listPrice":1560000,"city":"Alhambra","baths":3,"slug":"20250806153504684603000000","mlsSource":"CRMLS","propertyType":"A","propertySubType":"Single Family Residence","livingArea":1985,"associationFee":0,"unparsedAddress":"917 North Olive Ave, Alhambra, CA 91801"}},{"type":"Feature","id":583304,"properties":{"cluster":true,"cluster_id":583304,"point_count":2,"point_count_abbreviated":2},"geometry":{"type":"Point","coordinates":[-118.13720941543579,34.09563616163079]}},{"type":"Feature","id":432489,"properties":{"cluster":true,"cluster_id":432489,"point_count":3,"point_count_abbreviated":3},"geometry":{"type":"Point","coordinates":[-118.13373148441313,34.09477435282089]}},{"type":"Feature","id":137192,"properties":{"cluster":true,"cluster_id":137192,"point_count":4,"point_count_abbreviated":4},"geometry":{"type":"Point","coordinates":[-118.13292860984802,34.09845919037663]}},{"type":"Feature","geometry":{"type":"Point","coordinates":[-118.131955,34.102913]},"properties":{"listingKey":"20251113185039312083000000","listingId":"TR-25259484","listPrice":3200,"city":"Alhambra","baths":2,"slug":"20251113185039312083000000","mlsSource":"CRMLS","propertyType":"B","propertySubType":"Condominium","livingArea":1438,"unparsedAddress":"816 North Garfield, B, Alhambra, CA 91801"}},{"type":"Feature","geometry":{"type":"Point","coordinates":[-118.13123,34.095928]},"properties":{"listingKey":"20251112202325646902000000","listingId":"AR-25257743","listPrice":3800,"city":"Alhambra","baths":3,"slug":"20251112202325646902000000","mlsSource":"CRMLS","propertyType":"B","propertySubType":"Townhouse","livingArea":1507,"unparsedAddress":"132 North 3rd, A, Alhambra, CA 91801"}},{"type":"Feature","id":114920,"properties":{"cluster":true,"cluster_id":114920,"point_count":7,"point_count_abbreviated":7},"geometry":{"type":"Point","coordinates":[-118.12870298113141,34.09563108472682]}},{"type":"Feature","id":122888,"properties":{"cluster":true,"cluster_id":122888,"point_count":5,"point_count_abbreviated":5},"geometry":{"type":"Point","coordinates":[-118.12632501125336,34.09971941686767]}},{"type":"Feature","geometry":{"type":"Point","coordinates":[-118.131224,34.092714]},"properties":{"listingKey":"20251029174536660487000000","listingId":"WS-25249550","listPrice":705000,"city":"Alhambra","baths":2,"slug":"20251029174536660487000000","mlsSource":"CRMLS","propertyType":"A","propertySubType":"Condominium","livingArea":1070,"associationFee":335,"unparsedAddress":"408 West Main, Alhambra, CA 91801"}},{"type":"Feature","id":677001,"properties":{"cluster":true,"cluster_id":677001,"point_count":4,"point_count_abbreviated":4},"geometry":{"type":"Point","coordinates":[-118.12705457210541,34.10217496113931]}},{"type":"Feature","geometry":{"type":"Point","coordinates":[-118.142579,34.092475]},"properties":{"listingKey":"20250816201255691973000000","listingId":"P1-23782","listPrice":2900,"city":"Alhambra","baths":1.5,"slug":"20250816201255691973000000","mlsSource":"CRMLS","propertyType":"B","propertySubType":"Apartment","livingArea":1100,"unparsedAddress":"1710 Vine Street, H, Alhambra, CA 91801"}},{"type":"Feature","geometry":{"type":"Point","coordinates":[-118.145293,34.099281]},"properties":{"listingKey":"20250820233007399461000000","listingId":"P1-23814","listPrice":7000,"city":"South Pasadena","baths":2.5,"slug":"20250820233007399461000000","mlsSource":"CRMLS","propertyType":"B","propertySubType":"Single Family Residence","livingArea":2240,"unparsedAddress":"2058 Stratford Avenue, South Pasadena, CA 91030"}},{"type":"Feature","geometry":{"type":"Point","coordinates":[-118.14077,34.104735]},"properties":{"listingKey":"20251008234816478343000000","listingId":"P1-24473","listPrice":1375000,"city":"South Pasadena","baths":2.25,"slug":"20251008234816478343000000","mlsSource":"CRMLS","propertyType":"A","propertySubType":"Townhouse","livingArea":1816,"associationFee":400,"unparsedAddress":"1832 Bushnell Avenue, South Pasadena, CA 91030"}},{"type":"Feature","id":162440,"properties":{"cluster":true,"cluster_id":162440,"point_count":2,"point_count_abbreviated":2},"geometry":{"type":"Point","coordinates":[-118.14067214727402,34.09325061783443]}}]