[{"type":"Feature","geometry":{"type":"Point","coordinates":[-118.135253,34.083477]},"properties":{"listingKey":"20251008194056692494000000","listingId":"OC-25232582","listPrice":754700,"city":"Alhambra","baths":2,"slug":"20251008194056692494000000","mlsSource":"CRMLS","propertyType":"A","propertySubType":"Single Family Residence","livingArea":908,"associationFee":0,"unparsedAddress":"802 South Olive Avenue, Alhambra, CA 91803"}},{"type":"Feature","geometry":{"type":"Point","coordinates":[-118.128996,34.081787]},"properties":{"listingKey":"20251113043417785976000000","listingId":"AR-25243065","listPrice":1150000,"city":"Alhambra","baths":2.5,"slug":"20251113043417785976000000","mlsSource":"CRMLS","propertyType":"A","propertySubType":"Single Family Residence","livingArea":1569,"associationFee":0,"unparsedAddress":"1024 South 6th, Alhambra, CA 91801"}},{"type":"Feature","geometry":{"type":"Point","coordinates":[-118.127144,34.077214]},"properties":{"listingKey":"20251008220122104450000000","listingId":"WS-25235499","listPrice":2095,"city":"Alhambra","baths":1,"slug":"20251008220122104450000000","mlsSource":"CRMLS","propertyType":"B","propertySubType":"Apartment","livingArea":700,"associationFee":0,"unparsedAddress":"1429 Fourth St South, Alhambra, CA 91803"}},{"type":"Feature","geometry":{"type":"Point","coordinates":[-118.128894,34.074529]},"properties":{"listingKey":"20251029203209244951000000","listingId":"TR-25249400","listPrice":739990,"city":"Alhambra","baths":3,"slug":"20251029203209244951000000","mlsSource":"CRMLS","propertyType":"A","propertySubType":"Condominium","livingArea":1485,"associationFee":300,"unparsedAddress":"1708 South 6th, 6, Alhambra, CA 91803"}},{"type":"Feature","geometry":{"type":"Point","coordinates":[-118.144223,34.079985]},"properties":{"listingKey":"20251105210644541471000000","listingId":"AR-25254459","listPrice":1115900,"city":"Alhambra","baths":0,"slug":"20251105210644541471000000","mlsSource":"CRMLS","propertyType":"C","propertySubType":"Duplex","livingArea":2278,"unparsedAddress":"1100 South ETHEL Avenue, Alhambra, CA 91803"}},{"type":"Feature","id":150697,"properties":{"cluster":true,"cluster_id":150697,"point_count":2,"point_count_abbreviated":2},"geometry":{"type":"Point","coordinates":[-118.13771903514862,34.081259687808114]}},{"type":"Feature","geometry":{"type":"Point","coordinates":[-118.136603,34.071976]},"properties":{"listingKey":"20250925045606307662000000","listingId":"WS-25224544","listPrice":959000,"city":"Alhambra","baths":0,"slug":"20250925045606307662000000","mlsSource":"CRMLS","propertyType":"C","propertySubType":"Duplex","livingArea":1929,"unparsedAddress":"1213 West Ramona, Alhambra, CA 91803"}},{"type":"Feature","geometry":{"type":"Point","coordinates":[-118.133659,34.087621]},"properties":{"listingKey":"20250819050307642491000000","listingId":"AR-25181045","listPrice":726000,"city":"Alhambra","baths":2.5,"slug":"20250819050307642491000000","mlsSource":"CRMLS","propertyType":"A","propertySubType":"Condominium","livingArea":1202,"associationFee":350,"unparsedAddress":"806 West Commonwealth Avenue, Alhambra, CA 91801"}},{"type":"Feature","id":142312,"properties":{"cluster":true,"cluster_id":142312,"point_count":2,"point_count_abbreviated":2},"geometry":{"type":"Point","coordinates":[-118.13635647296906,34.08785735296357]}},{"type":"Feature","geometry":{"type":"Point","coordinates":[-118.132194,34.084737]},"properties":{"listingKey":"20251008184857340555000000","listingId":"OC-25235265","listPrice":1200000,"city":"Alhambra","baths":0,"slug":"20251008184857340555000000","mlsSource":"CRMLS","propertyType":"C","propertySubType":"Duplex","livingArea":1856,"unparsedAddress":"713 South 8th, Alhambra, CA 91801"}},{"type":"Feature","geometry":{"type":"Point","coordinates":[-118.139856,34.085527]},"properties":{"listingKey":"20251027205946167278000000","listingId":"WS-25245079","listPrice":2000,"city":"Alhambra","baths":1,"slug":"20251027205946167278000000","mlsSource":"CRMLS","propertyType":"B","propertySubType":"Triplex","livingArea":550,"associationFee":0,"unparsedAddress":"421 South Electric, Alhambra, CA 91803"}}]