[{"type":"Feature","geometry":{"type":"Point","coordinates":[-118.134441,33.914181]},"properties":{"listingKey":"20251010194522405192000000","listingId":"TR-25237136","listPrice":1049000,"city":"Downey","baths":2,"slug":"20251010194522405192000000","mlsSource":"CRMLS","propertyType":"A","propertySubType":"Duplex","livingArea":1760,"associationFee":0,"unparsedAddress":"12843 Columbia Way, Downey, CA 90242"}},{"type":"Feature","geometry":{"type":"Point","coordinates":[-118.13008,33.909198]},"properties":{"listingKey":"20250913081554618005000000","listingId":"PW-25216551","listPrice":3500,"city":"Bellflower","baths":2,"slug":"20250913081554618005000000","mlsSource":"CRMLS","propertyType":"B","propertySubType":"Single Family Residence","livingArea":1200,"associationFee":0,"unparsedAddress":"10264 1/2 Foster Rd, Bellflower, CA 90706"}},{"type":"Feature","geometry":{"type":"Point","coordinates":[-118.142964,33.92281]},"properties":{"listingKey":"20251017032717726623000000","listingId":"DW-25241387","listPrice":4500,"city":"Downey","baths":2,"slug":"20251017032717726623000000","mlsSource":"CRMLS","propertyType":"B","propertySubType":"Single Family Residence","livingArea":1925,"associationFee":0,"unparsedAddress":"8437 Everest, Downey, CA 90242"}},{"type":"Feature","geometry":{"type":"Point","coordinates":[-118.140955,33.91755]},"properties":{"listingKey":"20251017042950656077000000","listingId":"RS-25241628","listPrice":2100,"city":"Downey","baths":1,"slug":"20251017042950656077000000","mlsSource":"CRMLS","propertyType":"B","propertySubType":"Condominium","livingArea":750,"associationFee":0,"unparsedAddress":"8709 Lyndora Street, C, Downey, CA 90242"}},{"type":"Feature","id":822601,"properties":{"cluster":true,"cluster_id":822601,"point_count":2,"point_count_abbreviated":2},"geometry":{"type":"Point","coordinates":[-118.13331753015518,33.92427951277705]}}]