[{"type":"Feature","geometry":{"type":"Point","coordinates":[-118.146369,33.883541]},"properties":{"listingKey":"20251118182015488322000000","listingId":"DW-25261524","listPrice":2050,"city":"Bellflower","baths":1,"slug":"20251118182015488322000000","mlsSource":"CRMLS","propertyType":"B","propertySubType":"Single Family Residence","livingArea":600,"associationFee":0,"unparsedAddress":"8702 Belmont st, Bellflower, CA 90706"}},{"type":"Feature","id":437928,"properties":{"cluster":true,"cluster_id":437928,"point_count":3,"point_count_abbreviated":3},"geometry":{"type":"Point","coordinates":[-118.13870787620546,33.87342942328412]}},{"type":"Feature","geometry":{"type":"Point","coordinates":[-118.135578,33.876105]},"properties":{"listingKey":"20250808040428694496000000","listingId":"PW-25177667","listPrice":474900,"city":"Bellflower","baths":2,"slug":"20250808040428694496000000","mlsSource":"CRMLS","propertyType":"A","propertySubType":"Condominium","livingArea":863,"associationFee":300,"unparsedAddress":"9312 Palm Street, 209, Bellflower, CA 90706"}},{"type":"Feature","geometry":{"type":"Point","coordinates":[-118.131331,33.875457]},"properties":{"listingKey":"20251112044345485318000000","listingId":"RS-25258755","listPrice":2650,"city":"Bellflower","baths":1,"slug":"20251112044345485318000000","mlsSource":"CRMLS","propertyType":"B","propertySubType":"Duplex","livingArea":840,"associationFee":0,"unparsedAddress":"9510 Beverly, Bellflower, CA 90706"}},{"type":"Feature","id":200841,"properties":{"cluster":true,"cluster_id":200841,"point_count":2,"point_count_abbreviated":2},"geometry":{"type":"Point","coordinates":[-118.12666565179825,33.8839504181651]}},{"type":"Feature","geometry":{"type":"Point","coordinates":[-118.127668,33.886641]},"properties":{"listingKey":"20251001220458785614000000","listingId":"PW-25227818","listPrice":4000,"city":"Bellflower","baths":3,"slug":"20251001220458785614000000","mlsSource":"CRMLS","propertyType":"B","propertySubType":"Single Family Residence","livingArea":1630,"associationFee":0,"unparsedAddress":"16219 Orchard, Bellflower, CA 90706"}},{"type":"Feature","geometry":{"type":"Point","coordinates":[-118.129382,33.881392]},"properties":{"listingKey":"20251107204221410956000000","listingId":"PW-25256243","listPrice":925000,"city":"Bellflower","baths":2,"slug":"20251107204221410956000000","mlsSource":"CRMLS","propertyType":"A","propertySubType":"Single Family Residence","livingArea":1386,"associationFee":0,"unparsedAddress":"16821 Ardmore, Bellflower, CA 90706"}}]