[{"type":"Feature","geometry":{"type":"Point","coordinates":[-118.144255,33.846144]},"properties":{"listingKey":"20250923142916253907000000","listingId":"RS-25223235","listPrice":1200000,"city":"Lakewood","baths":2,"slug":"20250923142916253907000000","mlsSource":"CRMLS","propertyType":"A","propertySubType":"Single Family Residence","livingArea":1826,"associationFee":0,"unparsedAddress":"4848 Oliva, Lakewood, CA 90712"}},{"type":"Feature","geometry":{"type":"Point","coordinates":[-118.137975,33.839348]},"properties":{"listingKey":"20250830212338614283000000","listingId":"PW-25183864","listPrice":1555800,"city":"Long Beach","baths":4,"slug":"20250830212338614283000000","mlsSource":"CRMLS","propertyType":"A","propertySubType":"Single Family Residence","livingArea":2558,"associationFee":0,"unparsedAddress":"4704 East Centralia Street, Long Beach, CA 90808"}},{"type":"Feature","geometry":{"type":"Point","coordinates":[-118.144247,33.837738]},"properties":{"listingKey":"20251111220237011230000000","listingId":"IG-25258279","listPrice":2499999,"city":"Lakewood","baths":5,"slug":"20251111220237011230000000","mlsSource":"CRMLS","propertyType":"A","propertySubType":"Single Family Residence","livingArea":4642,"associationFee":0,"unparsedAddress":"4121 Country Club Drive, Lakewood, CA 90712"}},{"type":"Feature","geometry":{"type":"Point","coordinates":[-118.141049,33.840271]},"properties":{"listingKey":"20251028015938553498000000","listingId":"PW-25206803","listPrice":1299000,"city":"Long Beach","baths":2,"slug":"20251028015938553498000000","mlsSource":"CRMLS","propertyType":"A","propertySubType":"Single Family Residence","livingArea":1970,"associationFee":0,"unparsedAddress":"4520 PEPPERWOOD Avenue, Long Beach, CA 90808"}},{"type":"Feature","geometry":{"type":"Point","coordinates":[-118.130995,33.846027]},"properties":{"listingKey":"20251115201221398599000000","listingId":"DW-25261209","listPrice":1279000,"city":"Long Beach","baths":2,"slug":"20251115201221398599000000","mlsSource":"CRMLS","propertyType":"A","propertySubType":"Single Family Residence","livingArea":2050,"associationFee":0,"unparsedAddress":"4839 Premiere, Long Beach, CA 90808"}},{"type":"Feature","id":699976,"properties":{"cluster":true,"cluster_id":699976,"point_count":3,"point_count_abbreviated":3},"geometry":{"type":"Point","coordinates":[-118.13735783100127,33.84561461723584]}},{"type":"Feature","id":201512,"properties":{"cluster":true,"cluster_id":201512,"point_count":3,"point_count_abbreviated":3},"geometry":{"type":"Point","coordinates":[-118.14233243465424,33.84356512206075]}}]