[{"type":"Feature","id":519465,"properties":{"cluster":true,"cluster_id":519465,"point_count":4,"point_count_abbreviated":4},"geometry":{"type":"Point","coordinates":[-117.20143228769302,33.57765720328359]}},{"type":"Feature","id":591913,"properties":{"cluster":true,"cluster_id":591913,"point_count":2,"point_count_abbreviated":2},"geometry":{"type":"Point","coordinates":[-117.2004184126854,33.571176482234875]}},{"type":"Feature","geometry":{"type":"Point","coordinates":[-117.19556,33.576615]},"properties":{"listingKey":"20251112100318888622000000","listingId":"SW-25258820","listPrice":3200,"city":"Murrieta","baths":2,"slug":"20251112100318888622000000","mlsSource":"CRMLS","propertyType":"B","propertySubType":"Single Family Residence","livingArea":2427,"associationFee":0,"unparsedAddress":"24490 Avenida Arconte, Murrieta, CA 92562"}},{"type":"Feature","geometry":{"type":"Point","coordinates":[-117.196551,33.573383]},"properties":{"listingKey":"20251118222737612449000000","listingId":"SW-25262595","listPrice":3600,"city":"Murrieta","baths":3,"slug":"20251118222737612449000000","mlsSource":"CRMLS","propertyType":"B","propertySubType":"Single Family Residence","livingArea":2441,"associationFee":0,"unparsedAddress":"40342 Corte Campeon, Murrieta, CA 92562"}},{"type":"Feature","geometry":{"type":"Point","coordinates":[-117.194339,33.572523]},"properties":{"listingKey":"20250923041546148188000000","listingId":"IV-25222693","listPrice":699997,"city":"Murrieta","baths":2.5,"slug":"20250923041546148188000000","mlsSource":"CRMLS","propertyType":"A","propertySubType":"Single Family Residence","livingArea":2086,"associationFee":0,"unparsedAddress":"40254 Via Sonoro, Murrieta, CA 92562"}},{"type":"Feature","geometry":{"type":"Point","coordinates":[-117.199807,33.569488]},"properties":{"listingKey":"20251007014022465824000000","listingId":"PW-25233917","listPrice":615000,"city":"Murrieta","baths":2,"slug":"20251007014022465824000000","mlsSource":"CRMLS","propertyType":"A","propertySubType":"Single Family Residence","livingArea":1367,"associationFee":0,"unparsedAddress":"40628 Geyser, Murrieta, CA 92562"}},{"type":"Feature","id":668233,"properties":{"cluster":true,"cluster_id":668233,"point_count":2,"point_count_abbreviated":2},"geometry":{"type":"Point","coordinates":[-117.19218403100967,33.57132397991761]}}]