[{"type":"Feature","geometry":{"type":"Point","coordinates":[-117.199513,33.119973]},"properties":{"listingKey":"20250825200516743793000000","listingId":"8N-2508326","listPrice":1598900,"city":"San Marcos","baths":2,"slug":"20250825200516743793000000","mlsSource":"CRMLS","propertyType":"A","propertySubType":"Single Family Residence","livingArea":1976,"associationFee":0,"unparsedAddress":"1239 San Julian Place, San Marcos, CA 92078"}},{"type":"Feature","geometry":{"type":"Point","coordinates":[-117.200004,33.126165]},"properties":{"listingKey":"20250923041845520732000000","listingId":"PW-25203213","listPrice":565000,"city":"San Marcos","baths":2,"slug":"20250923041845520732000000","mlsSource":"CRMLS","propertyType":"A","propertySubType":"Condominium","livingArea":1150,"associationFee":525,"unparsedAddress":"1916 FAIRWAY CIRCLE Drive, San Marcos, CA 92078"}},{"type":"Feature","geometry":{"type":"Point","coordinates":[-117.194728,33.121684]},"properties":{"listingKey":"20250828035253720268000000","listingId":"8N-2508391","listPrice":735000,"city":"San Marcos","baths":3,"slug":"20250828035253720268000000","mlsSource":"CRMLS","propertyType":"A","propertySubType":"Townhouse","livingArea":1501,"associationFee":358,"unparsedAddress":"1234 Sunrise, 101, San Marcos, CA 92078"}},{"type":"Feature","geometry":{"type":"Point","coordinates":[-117.198554,33.125679]},"properties":{"listingKey":"20250719062303418728000000","listingId":"8N-2507120","listPrice":1320000,"city":"San Marcos","baths":2,"slug":"20250719062303418728000000","mlsSource":"CRMLS","propertyType":"A","propertySubType":"Single Family Residence","livingArea":1691,"associationFee":0,"unparsedAddress":"984 San Pablo Drive, San Marcos, CA 92078"}},{"type":"Feature","id":943529,"properties":{"cluster":true,"cluster_id":943529,"point_count":2,"point_count_abbreviated":2},"geometry":{"type":"Point","coordinates":[-117.1964219212532,33.12396647705951]}}]