[{"type":"Feature","id":705865,"properties":{"cluster":true,"cluster_id":705865,"point_count":2,"point_count_abbreviated":2},"geometry":{"type":"Point","coordinates":[-117.50197917222977,33.88376782976694]}},{"type":"Feature","geometry":{"type":"Point","coordinates":[-117.499803,33.879819]},"properties":{"listingKey":"20251029211143933102000000","listingId":"CV-25249833","listPrice":3000,"city":"Riverside","baths":2,"slug":"20251029211143933102000000","mlsSource":"CRMLS","propertyType":"B","propertySubType":"Single Family Residence","livingArea":1250,"associationFee":0,"unparsedAddress":"3351 Lincoln Street, Riverside, CA 92503"}},{"type":"Feature","geometry":{"type":"Point","coordinates":[-117.505604,33.881397]},"properties":{"listingKey":"20251115215516210240000000","listingId":"IG-25258933","listPrice":599000,"city":"Riverside","baths":2,"slug":"20251115215516210240000000","mlsSource":"CRMLS","propertyType":"A","propertySubType":"Single Family Residence","livingArea":1386,"associationFee":55,"unparsedAddress":"12844 Tehama Circle, Riverside, CA 92503"}},{"type":"Feature","geometry":{"type":"Point","coordinates":[-117.502932,33.881153]},"properties":{"listingKey":"20251120171741455205000000","listingId":"CV-25261380","listPrice":600000,"city":"Riverside","baths":2,"slug":"20251120171741455205000000","mlsSource":"CRMLS","propertyType":"A","propertySubType":"Single Family Residence","livingArea":1386,"associationFee":0,"unparsedAddress":"3447 Yuba, Riverside, CA 92503"}},{"type":"Feature","geometry":{"type":"Point","coordinates":[-117.508666,33.880604]},"properties":{"listingKey":"20250916080506149065000000","listingId":"DW-25217619","listPrice":654900,"city":"Riverside","baths":2.5,"slug":"20250916080506149065000000","mlsSource":"CRMLS","propertyType":"A","propertySubType":"Single Family Residence","livingArea":1926,"associationFee":160,"unparsedAddress":"3627 Windstorm Way, Riverside, CA 92503"}},{"type":"Feature","id":147625,"properties":{"cluster":true,"cluster_id":147625,"point_count":2,"point_count_abbreviated":2},"geometry":{"type":"Point","coordinates":[-117.50701904296875,33.88501476714703]}}]