[{"type":"Feature","id":551145,"properties":{"cluster":true,"cluster_id":551145,"point_count":2,"point_count_abbreviated":2},"geometry":{"type":"Point","coordinates":[-117.65515744686127,34.10550635627307]}},{"type":"Feature","id":185481,"properties":{"cluster":true,"cluster_id":185481,"point_count":2,"point_count_abbreviated":2},"geometry":{"type":"Point","coordinates":[-117.65381902456284,34.10464908979223]}},{"type":"Feature","geometry":{"type":"Point","coordinates":[-117.65507,34.102402]},"properties":{"listingKey":"20251119232020219735000000","listingId":"CV-25263309","listPrice":2400,"city":"Upland","baths":1,"slug":"20251119232020219735000000","mlsSource":"CRMLS","propertyType":"B","propertySubType":"Duplex","livingArea":450,"associationFee":0,"unparsedAddress":"723 North Quince Avenue, Upland, CA 91786"}},{"type":"Feature","geometry":{"type":"Point","coordinates":[-117.65711,34.099066]},"properties":{"listingKey":"20251115093900996136000000","listingId":"TR-25261118","listPrice":1800,"city":"Upland","baths":1,"slug":"20251115093900996136000000","mlsSource":"CRMLS","propertyType":"B","propertySubType":"Apartment","livingArea":870,"associationFee":0,"unparsedAddress":"489 W Alpine St, F, Upland, CA 91786"}},{"type":"Feature","geometry":{"type":"Point","coordinates":[-117.661085,34.1037]},"properties":{"listingKey":"20250923221504204207000000","listingId":"OC-25223428","listPrice":599990,"city":"Upland","baths":3,"slug":"20250923221504204207000000","mlsSource":"CRMLS","propertyType":"A","propertySubType":"Townhouse","livingArea":1368,"associationFee":302,"unparsedAddress":"125 Towns Avenue, Upland, CA 91786"}},{"type":"Feature","geometry":{"type":"Point","coordinates":[-117.659498,34.10164]},"properties":{"listingKey":"20251118182111022159000000","listingId":"CV-25261746","listPrice":3200,"city":"Upland","baths":1,"slug":"20251118182111022159000000","mlsSource":"CRMLS","propertyType":"B","propertySubType":"Single Family Residence","livingArea":1010,"associationFee":0,"unparsedAddress":"656 North Vallejo, Upland, CA 91786"}}]