[{"type":"Feature","geometry":{"type":"Point","coordinates":[-117.663575,33.992942]},"properties":{"listingKey":"20251003100406326780000000","listingId":"TR-25231604","listPrice":1508000,"city":"Chino","baths":4.5,"slug":"20251003100406326780000000","mlsSource":"CRMLS","propertyType":"A","propertySubType":"Single Family Residence","livingArea":4113,"associationFee":225,"unparsedAddress":"14349 Guilford Ave, Chino, CA 91710"}},{"type":"Feature","geometry":{"type":"Point","coordinates":[-117.65302,33.991853]},"properties":{"listingKey":"20251001211030719280000000","listingId":"WS-25229599","listPrice":1078000,"city":"Chino","baths":3.5,"slug":"20251001211030719280000000","mlsSource":"CRMLS","propertyType":"A","propertySubType":"Single Family Residence","livingArea":3173,"associationFee":134,"unparsedAddress":"6956 Dublin Drive, Chino, CA 91710"}},{"type":"Feature","geometry":{"type":"Point","coordinates":[-117.654822,33.992331]},"properties":{"listingKey":"20251111014028977551000000","listingId":"IG-25255917","listPrice":2200,"city":"Chino","baths":1,"slug":"20251111014028977551000000","mlsSource":"CRMLS","propertyType":"B","propertySubType":"Single Family Residence","livingArea":600,"associationFee":0,"unparsedAddress":"6863 Persimmon, B, Chino, CA 91710"}},{"type":"Feature","geometry":{"type":"Point","coordinates":[-117.662531,33.990433]},"properties":{"listingKey":"20251012180606328486000000","listingId":"CV-25189610","listPrice":678500,"city":"Chino","baths":2.75,"slug":"20251012180606328486000000","mlsSource":"CRMLS","propertyType":"A","propertySubType":"Condominium","livingArea":1826,"associationFee":215,"unparsedAddress":"6550 Eucalyptus Avenue, Chino, CA 91710"}},{"type":"Feature","id":723273,"properties":{"cluster":true,"cluster_id":723273,"point_count":2,"point_count_abbreviated":2},"geometry":{"type":"Point","coordinates":[-117.66064256429672,33.98977692107606]}}]