[{"type":"Feature","geometry":{"type":"Point","coordinates":[-117.993985,34.142097]},"properties":{"listingKey":"20251110213236533894000000","listingId":"DW-25257478","listPrice":1495000,"city":"Monrovia","baths":4,"slug":"20251110213236533894000000","mlsSource":"CRMLS","propertyType":"A","propertySubType":"Duplex","livingArea":2770,"associationFee":0,"unparsedAddress":"422 Almond, Monrovia, CA 91016"}},{"type":"Feature","geometry":{"type":"Point","coordinates":[-118.006392,34.132734]},"properties":{"listingKey":"20251024151829777574000000","listingId":"CV-25243628","listPrice":567000,"city":"Monrovia","baths":1.5,"slug":"20251024151829777574000000","mlsSource":"CRMLS","propertyType":"A","propertySubType":"Condominium","livingArea":1150,"associationFee":414,"unparsedAddress":"333 West Duarte Rd, A, Monrovia, CA 91016"}},{"type":"Feature","geometry":{"type":"Point","coordinates":[-118.008921,34.134318]},"properties":{"listingKey":"20251016221251421711000000","listingId":"OC-25225942","listPrice":665000,"city":"Monrovia","baths":3,"slug":"20251016221251421711000000","mlsSource":"CRMLS","propertyType":"A","propertySubType":"Townhouse","livingArea":1262,"associationFee":406,"unparsedAddress":"1614 South Mayflower, B, Monrovia, CA 91016"}},{"type":"Feature","geometry":{"type":"Point","coordinates":[-117.994828,34.138893]},"properties":{"listingKey":"20251121095943204445000000","listingId":"CV-25262917","listPrice":1249000,"city":"Monrovia","baths":3,"slug":"20251121095943204445000000","mlsSource":"CRMLS","propertyType":"A","propertySubType":"Single Family Residence","livingArea":2166,"associationFee":0,"unparsedAddress":"401 East Cherry, Monrovia, CA 91016"}},{"type":"Feature","geometry":{"type":"Point","coordinates":[-118.003259,34.138825]},"properties":{"listingKey":"20251113232332167155000000","listingId":"P1-24956","listPrice":650000,"city":"Monrovia","baths":2.25,"slug":"20251113232332167155000000","mlsSource":"CRMLS","propertyType":"A","propertySubType":"Condominium","livingArea":1184,"associationFee":400,"unparsedAddress":"206 West Cypress Avenue, A, Monrovia, CA 91016"}},{"type":"Feature","id":664713,"properties":{"cluster":true,"cluster_id":664713,"point_count":2,"point_count_abbreviated":2},"geometry":{"type":"Point","coordinates":[-117.99376755952835,34.1364642873922]}},{"type":"Feature","id":183176,"properties":{"cluster":true,"cluster_id":183176,"point_count":3,"point_count_abbreviated":3},"geometry":{"type":"Point","coordinates":[-118.00823450088502,34.13210543083214]}},{"type":"Feature","geometry":{"type":"Point","coordinates":[-117.99871,34.136153]},"properties":{"listingKey":"20251014201502198306000000","listingId":"CV-25239450","listPrice":4500,"city":"Monrovia","baths":2,"slug":"20251014201502198306000000","mlsSource":"CRMLS","propertyType":"B","propertySubType":"Single Family Residence","livingArea":1800,"associationFee":0,"unparsedAddress":"147 East Central, Monrovia, CA 91016"}},{"type":"Feature","geometry":{"type":"Point","coordinates":[-118.002113,34.130243]},"properties":{"listingKey":"20251003174945818129000000","listingId":"AR-25231765","listPrice":798000,"city":"Monrovia","baths":1,"slug":"20251003174945818129000000","mlsSource":"CRMLS","propertyType":"A","propertySubType":"Single Family Residence","livingArea":826,"associationFee":0,"unparsedAddress":"151 East El Norte St., Monrovia, CA 91016"}},{"type":"Feature","geometry":{"type":"Point","coordinates":[-117.998337,34.126789]},"properties":{"listingKey":"20251013043057683894000000","listingId":"CV-25238224","listPrice":849900,"city":"Monrovia","baths":2,"slug":"20251013043057683894000000","mlsSource":"CRMLS","propertyType":"A","propertySubType":"Single Family Residence","livingArea":1046,"associationFee":0,"unparsedAddress":"322 Joella, Monrovia, CA 91016"}},{"type":"Feature","geometry":{"type":"Point","coordinates":[-118.012914,34.126903]},"properties":{"listingKey":"20251023211829222707000000","listingId":"P1-24671","listPrice":3135,"city":"Arcadia","baths":1.75,"slug":"20251023211829222707000000","mlsSource":"CRMLS","propertyType":"B","propertySubType":"Single Family Residence","livingArea":1456,"unparsedAddress":"1207 South 10th Avenue, Arcadia, CA 91006"}},{"type":"Feature","id":275112,"properties":{"cluster":true,"cluster_id":275112,"point_count":2,"point_count_abbreviated":2},"geometry":{"type":"Point","coordinates":[-118.01217019557953,34.12948852882161]}},{"type":"Feature","id":809993,"properties":{"cluster":true,"cluster_id":809993,"point_count":2,"point_count_abbreviated":2},"geometry":{"type":"Point","coordinates":[-118.01165521144867,34.14320860131048]}}]