[{"type":"Feature","geometry":{"type":"Point","coordinates":[-117.997906,34.123402]},"properties":{"listingKey":"20251114061840713795000000","listingId":"PW-25253306","listPrice":999000,"city":"Monrovia","baths":3,"slug":"20251114061840713795000000","mlsSource":"CRMLS","propertyType":"A","propertySubType":"Single Family Residence","livingArea":1656,"associationFee":0,"unparsedAddress":"344 Pamela Road, Monrovia, CA 91016"}},{"type":"Feature","geometry":{"type":"Point","coordinates":[-118.001043,34.119185]},"properties":{"listingKey":"20250819071649306728000000","listingId":"GD-25185777","listPrice":985000,"city":"Monrovia","baths":0,"slug":"20250819071649306728000000","mlsSource":"CRMLS","propertyType":"C","propertySubType":"Triplex","livingArea":1588,"unparsedAddress":"203 Benrud Street, Monrovia, CA 91016"}},{"type":"Feature","id":281449,"properties":{"cluster":true,"cluster_id":281449,"point_count":4,"point_count_abbreviated":4},"geometry":{"type":"Point","coordinates":[-118.00774723291397,34.1109584566243]}},{"type":"Feature","geometry":{"type":"Point","coordinates":[-118.008881,34.121599]},"properties":{"listingKey":"20250723173736840907000000","listingId":"TR-25165325","listPrice":3250000,"city":"Arcadia","baths":6,"slug":"20250723173736840907000000","mlsSource":"CRMLS","propertyType":"A","propertySubType":"Single Family Residence","livingArea":6093,"associationFee":0,"unparsedAddress":"1610 Mayflower Avenue, Arcadia, CA 91006"}},{"type":"Feature","id":317097,"properties":{"cluster":true,"cluster_id":317097,"point_count":2,"point_count_abbreviated":2},"geometry":{"type":"Point","coordinates":[-118.01482558250427,34.120544861926376]}},{"type":"Feature","geometry":{"type":"Point","coordinates":[-118.011364,34.112843]},"properties":{"listingKey":"20251017021741685635000000","listingId":"AR-25241569","listPrice":4500,"city":"Arcadia","baths":2.5,"slug":"20251017021741685635000000","mlsSource":"CRMLS","propertyType":"B","propertySubType":"Single Family Residence","livingArea":1821,"associationFee":0,"unparsedAddress":"1022 East Birchcroft Street, Arcadia, CA 91006"}},{"type":"Feature","id":191496,"properties":{"cluster":true,"cluster_id":191496,"point_count":4,"point_count_abbreviated":4},"geometry":{"type":"Point","coordinates":[-118.01050588488579,34.11111168776938]}}]