[{"type":"Feature","geometry":{"type":"Point","coordinates":[-118.004144,33.88956]},"properties":{"listingKey":"20251121070439505676000000","listingId":"DW-25264224","listPrice":1250000,"city":"La Mirada","baths":3,"slug":"20251121070439505676000000","mlsSource":"CRMLS","propertyType":"A","propertySubType":"Single Family Residence","livingArea":2343,"associationFee":0,"unparsedAddress":"15310 Tricia, La Mirada, CA 90638"}},{"type":"Feature","id":163272,"properties":{"cluster":true,"cluster_id":163272,"point_count":6,"point_count_abbreviated":6},"geometry":{"type":"Point","coordinates":[-118.00180703401564,33.8929531744016]}},{"type":"Feature","geometry":{"type":"Point","coordinates":[-117.997986,33.900552]},"properties":{"listingKey":"20251111175549211202000000","listingId":"PW-25256596","listPrice":929900,"city":"La Mirada","baths":2,"slug":"20251111175549211202000000","mlsSource":"CRMLS","propertyType":"A","propertySubType":"Single Family Residence","livingArea":1336,"associationFee":0,"unparsedAddress":"14504 Manecita, La Mirada, CA 90638"}},{"type":"Feature","geometry":{"type":"Point","coordinates":[-118.012753,33.904554]},"properties":{"listingKey":"20251029220422341869000000","listingId":"PW-25248253","listPrice":830000,"city":"La Mirada","baths":3.5,"slug":"20251029220422341869000000","mlsSource":"CRMLS","propertyType":"A","propertySubType":"Townhouse","livingArea":1530,"associationFee":255,"unparsedAddress":"14130 Bay, La Mirada, CA 90638"}},{"type":"Feature","geometry":{"type":"Point","coordinates":[-118.011765,33.889145]},"properties":{"listingKey":"20251008220122378485000000","listingId":"DW-25235504","listPrice":1995,"city":"La Mirada","baths":1,"slug":"20251008220122378485000000","mlsSource":"CRMLS","propertyType":"B","propertySubType":"Studio","livingArea":400,"associationFee":0,"unparsedAddress":"14961 San Ardo, La Mirada, CA 90638"}}]