[{"type":"Feature","geometry":{"type":"Point","coordinates":[-117.908656,33.871968]},"properties":{"listingKey":"20251031181228835861000000","listingId":"PW-25249977","listPrice":6199000,"city":"Fullerton","baths":0,"slug":"20251031181228835861000000","mlsSource":"CRMLS","propertyType":"C","propertySubType":"Apartment","livingArea":11013,"associationFee":0,"unparsedAddress":"111 North Stanford Avenue, Fullerton, CA 92831"}},{"type":"Feature","geometry":{"type":"Point","coordinates":[-117.91075,33.877231]},"properties":{"listingKey":"20251120192207030062000000","listingId":"OC-25262904","listPrice":1149900,"city":"Fullerton","baths":2,"slug":"20251120192207030062000000","mlsSource":"CRMLS","propertyType":"A","propertySubType":"Single Family Residence","livingArea":2240,"associationFee":0,"unparsedAddress":"618 North Lincoln, Fullerton, CA 92831"}},{"type":"Feature","geometry":{"type":"Point","coordinates":[-117.913489,33.877015]},"properties":{"listingKey":"20250803091022255087000000","listingId":"TR-25174027","listPrice":4600,"city":"Fullerton","baths":2,"slug":"20250803091022255087000000","mlsSource":"CRMLS","propertyType":"B","propertySubType":"Single Family Residence","livingArea":2394,"associationFee":0,"unparsedAddress":"604 Princeton Circle West, Fullerton, CA 92831"}},{"type":"Feature","geometry":{"type":"Point","coordinates":[-117.912359,33.873782]},"properties":{"listingKey":"20250928040655415652000000","listingId":"PW-25227163","listPrice":839000,"city":"Fullerton","baths":2,"slug":"20250928040655415652000000","mlsSource":"CRMLS","propertyType":"A","propertySubType":"Single Family Residence","livingArea":1250,"associationFee":0,"unparsedAddress":"714 East Chapman Avenue, Fullerton, CA 92831"}},{"type":"Feature","geometry":{"type":"Point","coordinates":[-117.909436,33.873037]},"properties":{"listingKey":"20251119011026280089000000","listingId":"WS-25262483","listPrice":2850,"city":"Fullerton","baths":1.5,"slug":"20251119011026280089000000","mlsSource":"CRMLS","propertyType":"B","propertySubType":"Single Family Residence","livingArea":748,"associationFee":0,"unparsedAddress":"212 Cornell, A, Fullerton, CA 92831"}}]