[{"type":"Feature","geometry":{"type":"Point","coordinates":[-117.912887,33.639284]},"properties":{"listingKey":"20251108144246268243000000","listingId":"PW-25256706","listPrice":2600,"city":"Costa Mesa","baths":0.75,"slug":"20251108144246268243000000","mlsSource":"CRMLS","propertyType":"B","propertySubType":"Duplex","livingArea":600,"associationFee":0,"unparsedAddress":"233 Flower, Costa Mesa, CA 92627"}},{"type":"Feature","geometry":{"type":"Point","coordinates":[-117.907181,33.637183]},"properties":{"listingKey":"20251110204152566951000000","listingId":"OC-25256397","listPrice":2395000,"city":"Costa Mesa","baths":2,"slug":"20251110204152566951000000","mlsSource":"CRMLS","propertyType":"A","propertySubType":"Single Family Residence","livingArea":1648,"associationFee":0,"unparsedAddress":"370 East 19th, Costa Mesa, CA 92627"}},{"type":"Feature","geometry":{"type":"Point","coordinates":[-117.910927,33.634068]},"properties":{"listingKey":"20251118225853274990000000","listingId":"NP-25262648","listPrice":4100,"city":"Costa Mesa","baths":2,"slug":"20251118225853274990000000","mlsSource":"CRMLS","propertyType":"B","propertySubType":"Single Family Residence","livingArea":1300,"associationFee":0,"unparsedAddress":"363 East 18th, A, Costa Mesa, CA 92627"}},{"type":"Feature","geometry":{"type":"Point","coordinates":[-117.908821,33.635952]},"properties":{"listingKey":"20251031165848236887000000","listingId":"NP-25241363","listPrice":6500,"city":"Costa Mesa","baths":1,"slug":"20251031165848236887000000","mlsSource":"CRMLS","propertyType":"B","propertySubType":"Single Family Residence","livingArea":1100,"associationFee":0,"unparsedAddress":"364 Broadway, Costa Mesa, CA 92627"}},{"type":"Feature","id":1088617,"properties":{"cluster":true,"cluster_id":1088617,"point_count":2,"point_count_abbreviated":2},"geometry":{"type":"Point","coordinates":[-117.91249394416809,33.64082989175354]}},{"type":"Feature","geometry":{"type":"Point","coordinates":[-117.913196,33.634171]},"properties":{"listingKey":"20251114182509857187000000","listingId":"OC-25260569","listPrice":4750,"city":"Costa Mesa","baths":2,"slug":"20251114182509857187000000","mlsSource":"CRMLS","propertyType":"B","propertySubType":"Duplex","livingArea":935,"associationFee":0,"unparsedAddress":"317 Rochester, B, Costa Mesa, CA 92627"}}]