[{"type":"Feature","geometry":{"type":"Point","coordinates":[-117.914252,33.617451]},"properties":{"listingKey":"20251120032724535382000000","listingId":"OC-25261691","listPrice":11995000,"city":"Newport Beach","baths":5.5,"slug":"20251120032724535382000000","mlsSource":"CRMLS","propertyType":"A","propertySubType":"Single Family Residence","livingArea":6394,"associationFee":0,"unparsedAddress":"1210 Kings Rd, Newport Beach, CA 92663"}},{"type":"Feature","geometry":{"type":"Point","coordinates":[-117.913851,33.621067]},"properties":{"listingKey":"20251107234122763655000000","listingId":"NP-25256457","listPrice":5750,"city":"Newport Beach","baths":3,"slug":"20251107234122763655000000","mlsSource":"CRMLS","propertyType":"B","propertySubType":"Apartment","livingArea":1250,"associationFee":0,"unparsedAddress":"505 Saint Andrews Rd, 1, Newport Beach, CA 92663"}},{"type":"Feature","id":356233,"properties":{"cluster":true,"cluster_id":356233,"point_count":2,"point_count_abbreviated":2},"geometry":{"type":"Point","coordinates":[-117.91241347789764,33.61472204201522]}},{"type":"Feature","geometry":{"type":"Point","coordinates":[-117.910041,33.616743]},"properties":{"listingKey":"20251119205714465176000000","listingId":"OC-25263093","listPrice":7995000,"city":"Newport Beach","baths":4,"slug":"20251119205714465176000000","mlsSource":"CRMLS","propertyType":"A","propertySubType":"Single Family Residence","livingArea":4474,"associationFee":0,"unparsedAddress":"521 Kings Road, Newport Beach, CA 92663"}},{"type":"Feature","geometry":{"type":"Point","coordinates":[-117.912145,33.617297]},"properties":{"listingKey":"20251031035016058105000000","listingId":"NP-25251091","listPrice":13900,"city":"Newport Beach","baths":3.5,"slug":"20251031035016058105000000","mlsSource":"CRMLS","propertyType":"B","propertySubType":"Single Family Residence","livingArea":3800,"associationFee":0,"unparsedAddress":"900 Kings Road, Newport Beach, CA 92663"}},{"type":"Feature","geometry":{"type":"Point","coordinates":[-117.910668,33.618026]},"properties":{"listingKey":"20250928064530776904000000","listingId":"OC-25226115","listPrice":15000,"city":"Newport Beach","baths":4.5,"slug":"20250928064530776904000000","mlsSource":"CRMLS","propertyType":"B","propertySubType":"Single Family Residence","livingArea":3642,"associationFee":0,"unparsedAddress":"600 Cliff Drive, Newport Beach, CA 92663"}},{"type":"Feature","geometry":{"type":"Point","coordinates":[-117.909391,33.614835]},"properties":{"listingKey":"20251106034633029819000000","listingId":"NP-25253408","listPrice":12495000,"city":"Newport Beach","baths":4,"slug":"20251106034633029819000000","mlsSource":"CRMLS","propertyType":"A","propertySubType":"Single Family Residence","livingArea":3583,"associationFee":635,"unparsedAddress":"2571 Vista, Newport Beach, CA 92663"}},{"type":"Feature","geometry":{"type":"Point","coordinates":[-117.908267,33.617814]},"properties":{"listingKey":"20251016025713276443000000","listingId":"OC-25240691","listPrice":9200000,"city":"Newport Beach","baths":6.5,"slug":"20251016025713276443000000","mlsSource":"CRMLS","propertyType":"A","propertySubType":"Single Family Residence","livingArea":6800,"associationFee":0,"unparsedAddress":"125 Kings Place, Newport Beach, CA 92663"}}]