[{"type":"Feature","geometry":{"type":"Point","coordinates":[-117.915946,33.625477]},"properties":{"listingKey":"20251010220858419560000000","listingId":"OC-25237145","listPrice":12500,"city":"Newport Beach","baths":3.5,"slug":"20251010220858419560000000","mlsSource":"CRMLS","propertyType":"B","propertySubType":"Single Family Residence","livingArea":3950,"associationFee":0,"unparsedAddress":"2501 Margaret Drive, Newport Beach, CA 92663"}},{"type":"Feature","geometry":{"type":"Point","coordinates":[-117.912996,33.625195]},"properties":{"listingKey":"20250816194156459852000000","listingId":"NP-25148957","listPrice":6400000,"city":"Newport Beach","baths":4.5,"slug":"20250816194156459852000000","mlsSource":"CRMLS","propertyType":"A","propertySubType":"Single Family Residence","livingArea":3761,"unparsedAddress":"2217 Laurel Place, Newport Beach, CA 92663"}},{"type":"Feature","geometry":{"type":"Point","coordinates":[-117.91405,33.6277]},"properties":{"listingKey":"20250829031926245652000000","listingId":"NP-25193373","listPrice":12000,"city":"Costa Mesa","baths":3.5,"slug":"20250829031926245652000000","mlsSource":"CRMLS","propertyType":"B","propertySubType":"Single Family Residence","livingArea":1903,"associationFee":0,"unparsedAddress":"418 East 16th Street, Costa Mesa, CA 92627"}},{"type":"Feature","geometry":{"type":"Point","coordinates":[-117.906006,33.630688]},"properties":{"listingKey":"20251025080920629255000000","listingId":"NP-25247223","listPrice":7800,"city":"Newport Beach","baths":3.5,"slug":"20251025080920629255000000","mlsSource":"CRMLS","propertyType":"B","propertySubType":"Townhouse","livingArea":1880,"unparsedAddress":"1183 Winslow, Newport Beach, CA 92660"}},{"type":"Feature","geometry":{"type":"Point","coordinates":[-117.91187,33.63242]},"properties":{"listingKey":"20251030200516658600000000","listingId":"NP-25243755","listPrice":845000,"city":"Costa Mesa","baths":2,"slug":"20251030200516658600000000","mlsSource":"CRMLS","propertyType":"A","propertySubType":"Condominium","livingArea":1044,"associationFee":659,"unparsedAddress":"1741 Tustin, 10C, Costa Mesa, CA 92627"}}]