[{"type":"Feature","geometry":{"type":"Point","coordinates":[-119.230033,34.450938]},"properties":{"listingKey":"20251111152714684559000000","listingId":"V1-33353","listPrice":799000,"city":"Ojai","baths":1,"slug":"20251111152714684559000000","mlsSource":"CRMLS","propertyType":"A","propertySubType":"Single Family Residence","livingArea":908,"unparsedAddress":"303 Lark Ellen Avenue, Ojai, CA 93023"}},{"type":"Feature","geometry":{"type":"Point","coordinates":[-119.235828,34.449167]},"properties":{"listingKey":"20250909185349974965000000","listingId":"V1-32663","listPrice":1295000,"city":"Ojai","baths":3,"slug":"20250909185349974965000000","mlsSource":"CRMLS","propertyType":"A","propertySubType":"Single Family Residence","livingArea":2100,"unparsedAddress":"915 East Matilija Street, Ojai, CA 93023"}},{"type":"Feature","id":107879,"properties":{"cluster":true,"cluster_id":107879,"point_count":4,"point_count_abbreviated":4},"geometry":{"type":"Point","coordinates":[-119.25274282693863,34.452096826770145]}},{"type":"Feature","id":898249,"properties":{"cluster":true,"cluster_id":898249,"point_count":2,"point_count_abbreviated":2},"geometry":{"type":"Point","coordinates":[-119.24176722764969,34.446591604339346]}},{"type":"Feature","geometry":{"type":"Point","coordinates":[-119.248283,34.445924]},"properties":{"listingKey":"20250923212948942758000000","listingId":"V1-32551","listPrice":1695000,"city":"Ojai","baths":2.25,"slug":"20250923212948942758000000","mlsSource":"CRMLS","propertyType":"A","propertySubType":"Single Family Residence","livingArea":2131,"unparsedAddress":"207 South Blanche Street, Ojai, CA 93023"}},{"type":"Feature","geometry":{"type":"Point","coordinates":[-119.238072,34.440766]},"properties":{"listingKey":"20250818014217189866000000","listingId":"V1-31818","listPrice":8230000,"city":"Ojai","baths":5.25,"slug":"20250818014217189866000000","mlsSource":"CRMLS","propertyType":"A","propertySubType":"Single Family Residence","livingArea":6000,"associationFee":130,"unparsedAddress":"741 Saddle Lane, Ojai, CA 93023"}},{"type":"Feature","geometry":{"type":"Point","coordinates":[-119.261739,34.444599]},"properties":{"listingKey":"20251030165224763472000000","listingId":"V1-33168","listPrice":1899000,"city":"Ojai","baths":3.5,"slug":"20251030165224763472000000","mlsSource":"CRMLS","propertyType":"A","propertySubType":"Single Family Residence","livingArea":2334,"unparsedAddress":"1068 Cuyama Road, Ojai, CA 93023"}}]