[{"type":"Feature","geometry":{"type":"Point","coordinates":[-117.847246,34.09371]},"properties":{"listingKey":"20251114183748391602000000","listingId":"CV-25260584","listPrice":2300,"city":"Covina","baths":1,"slug":"20251114183748391602000000","mlsSource":"CRMLS","propertyType":"B","propertySubType":"Single Family Residence","livingArea":672,"associationFee":0,"unparsedAddress":"4423 North Sunflower, 1/2, Covina, CA 91724"}},{"type":"Feature","geometry":{"type":"Point","coordinates":[-117.843933,34.089143]},"properties":{"listingKey":"20251029003451107259000000","listingId":"CV-25249185","listPrice":1395000,"city":"San Dimas","baths":3,"slug":"20251029003451107259000000","mlsSource":"CRMLS","propertyType":"A","propertySubType":"Single Family Residence","livingArea":3070,"associationFee":0,"unparsedAddress":"1178 Edinburgh Road, San Dimas, CA 91773"}},{"type":"Feature","geometry":{"type":"Point","coordinates":[-117.840943,34.096986]},"properties":{"listingKey":"20251008172557300807000000","listingId":"CV-25235091","listPrice":3997,"city":"San Dimas","baths":2,"slug":"20251008172557300807000000","mlsSource":"CRMLS","propertyType":"B","propertySubType":"Single Family Residence","livingArea":1314,"associationFee":0,"unparsedAddress":"1623 West Benbow Street, San Dimas, CA 91773"}},{"type":"Feature","id":762825,"properties":{"cluster":true,"cluster_id":762825,"point_count":2,"point_count_abbreviated":2},"geometry":{"type":"Point","coordinates":[-117.84298449754715,34.09587160271768]}},{"type":"Feature","id":225033,"properties":{"cluster":true,"cluster_id":225033,"point_count":3,"point_count_abbreviated":3},"geometry":{"type":"Point","coordinates":[-117.8467583656311,34.094857276386875]}}]