[{"type":"Feature","geometry":{"type":"Point","coordinates":[-116.249896,33.714034]},"properties":{"listingKey":"20251111130606606606000000","listingId":"OC-25257498","listPrice":700000,"city":"Indio","baths":3,"slug":"20251111130606606606000000","mlsSource":"CRMLS","propertyType":"A","propertySubType":"Single Family Residence","livingArea":2200,"associationFee":0,"unparsedAddress":"46096 Mesa Verde, Indio, CA 92201"}},{"type":"Feature","id":60936,"properties":{"cluster":true,"cluster_id":60936,"point_count":2,"point_count_abbreviated":2},"geometry":{"type":"Point","coordinates":[-116.24841123819351,33.71019941786432]}},{"type":"Feature","geometry":{"type":"Point","coordinates":[-116.24424,33.72017]},"properties":{"listingKey":"20250919003726446147000000","listingId":"219136355","listPrice":2750,"city":"Indio","baths":2,"slug":"20250919003726446147000000","mlsSource":"GPS","propertyType":"B","propertySubType":"Single Family Residence","livingArea":1236,"associationFee":0,"unparsedAddress":"81406 Palo Verde Drive S, Indio, CA 92201"}},{"type":"Feature","geometry":{"type":"Point","coordinates":[-116.237952,33.719136]},"properties":{"listingKey":"20251003222513071868000000","listingId":"219136370","listPrice":269999,"city":"Indio","baths":2,"slug":"20251003222513071868000000","mlsSource":"GPS","propertyType":"A","propertySubType":"Condominium","livingArea":1138,"associationFee":330,"unparsedAddress":"45546 Aladdin Street, A101, Indio, CA 92201"}},{"type":"Feature","geometry":{"type":"Point","coordinates":[-116.256435,33.713707]},"properties":{"listingKey":"20250717105504260753000000","listingId":"GD-25160294","listPrice":575000,"city":"Indio","baths":2,"slug":"20250717105504260753000000","mlsSource":"CRMLS","propertyType":"A","propertySubType":"Single Family Residence","livingArea":1424,"associationFee":0,"unparsedAddress":"80748 Cottonwood Lane, Indio, CA 92201"}},{"type":"Feature","geometry":{"type":"Point","coordinates":[-116.25269,33.720542]},"properties":{"listingKey":"20250726034544607017000000","listingId":"219133198","listPrice":560000,"city":"Indio","baths":2,"slug":"20250726034544607017000000","mlsSource":"GPS","propertyType":"A","propertySubType":"Single Family Residence","livingArea":1433,"associationFee":0,"unparsedAddress":"80928 Brown St, Indio, CA 92201"}},{"type":"Feature","geometry":{"type":"Point","coordinates":[-116.254636,33.710096]},"properties":{"listingKey":"20251024182604535828000000","listingId":"219137571","listPrice":29000,"city":"Indio","baths":1,"slug":"20251024182604535828000000","mlsSource":"GPS","propertyType":"E","livingArea":550,"associationFee":0,"unparsedAddress":"80870 Ca-111, 5, Indio, CA 92201"}},{"type":"Feature","geometry":{"type":"Point","coordinates":[-116.251732,33.717113]},"properties":{"listingKey":"20250821224848041453000000","listingId":"219134408","listPrice":755000,"city":"Indio","baths":2.75,"slug":"20250821224848041453000000","mlsSource":"GPS","propertyType":"A","propertySubType":"Single Family Residence","livingArea":1939,"associationFee":0,"unparsedAddress":"45640 Cimarron Road, Indio, CA 92201"}}]