[{"type":"Feature","geometry":{"type":"Point","coordinates":[-118.079491,34.556102]},"properties":{"listingKey":"20250904041816222794000000","listingId":"DW-25198669","listPrice":489999,"city":"Palmdale","baths":3,"slug":"20250904041816222794000000","mlsSource":"CRMLS","propertyType":"A","propertySubType":"Single Family Residence","livingArea":1449,"associationFee":0,"unparsedAddress":"2810 Juniper Drive, Palmdale, CA 93550"}},{"type":"Feature","geometry":{"type":"Point","coordinates":[-118.067216,34.549555]},"properties":{"listingKey":"20250916202543548075000000","listingId":"GD-25218440","listPrice":649000,"city":"Palmdale","baths":3,"slug":"20250916202543548075000000","mlsSource":"CRMLS","propertyType":"A","propertySubType":"Single Family Residence","livingArea":2840,"associationFee":0,"unparsedAddress":"3500 Desert Oak Drive, Palmdale, CA 93550"}},{"type":"Feature","geometry":{"type":"Point","coordinates":[-118.075841,34.547098]},"properties":{"listingKey":"20250811062857015859000000","listingId":"DW-25180392","listPrice":545000,"city":"Palmdale","baths":2.5,"slug":"20250811062857015859000000","mlsSource":"CRMLS","propertyType":"A","propertySubType":"Single Family Residence","livingArea":1824,"associationFee":0,"unparsedAddress":"36628 30th Street East, Palmdale, CA 93550"}},{"type":"Feature","id":450729,"properties":{"cluster":true,"cluster_id":450729,"point_count":2,"point_count_abbreviated":2},"geometry":{"type":"Point","coordinates":[-118.07002276182175,34.55539445868783]}},{"type":"Feature","geometry":{"type":"Point","coordinates":[-118.080669,34.552092]},"properties":{"listingKey":"20250806081819719952000000","listingId":"DW-25171079","listPrice":455000,"city":"Palmdale","baths":2,"slug":"20250806081819719952000000","mlsSource":"CRMLS","propertyType":"A","propertySubType":"Single Family Residence","livingArea":1442,"associationFee":0,"unparsedAddress":"36868 Little Leaf Dr, Palmdale, CA 93550"}}]