[{"type":"Feature","id":138824,"properties":{"cluster":true,"cluster_id":138824,"point_count":3,"point_count_abbreviated":3},"geometry":{"type":"Point","coordinates":[-118.07736396789551,34.069422588154325]}},{"type":"Feature","geometry":{"type":"Point","coordinates":[-118.072173,34.064096]},"properties":{"listingKey":"20250816210059538912000000","listingId":"OC-25182369","listPrice":1500000,"city":"Rosemead","baths":0,"slug":"20250816210059538912000000","mlsSource":"CRMLS","propertyType":"C","propertySubType":"Commercial/Residential","livingArea":1832,"associationFee":0,"unparsedAddress":"3047 Sullivan Avenue, Rosemead, CA 91770"}},{"type":"Feature","id":325737,"properties":{"cluster":true,"cluster_id":325737,"point_count":2,"point_count_abbreviated":2},"geometry":{"type":"Point","coordinates":[-118.07180106639862,34.061801357899526]}},{"type":"Feature","geometry":{"type":"Point","coordinates":[-118.066058,34.058906]},"properties":{"listingKey":"20251021222558610557000000","listingId":"WS-25241492","listPrice":628000,"city":"South El Monte","baths":1,"slug":"20251021222558610557000000","mlsSource":"CRMLS","propertyType":"A","propertySubType":"Single Family Residence","livingArea":832,"associationFee":0,"unparsedAddress":"2561 Troy, South El Monte, CA 91733"}},{"type":"Feature","geometry":{"type":"Point","coordinates":[-118.064156,34.06471]},"properties":{"listingKey":"20251116005802097147000000","listingId":"WS-25260286","listPrice":658000,"city":"El Monte","baths":3,"slug":"20251116005802097147000000","mlsSource":"CRMLS","propertyType":"A","propertySubType":"Condominium","livingArea":1254,"associationFee":170,"unparsedAddress":"9467 Cortada Street, F, El Monte, CA 91733"}},{"type":"Feature","id":717481,"properties":{"cluster":true,"cluster_id":717481,"point_count":3,"point_count_abbreviated":3},"geometry":{"type":"Point","coordinates":[-118.06261718273163,34.05833047137554]}}]