[{"type":"Feature","id":573225,"properties":{"cluster":true,"cluster_id":573225,"point_count":2,"point_count_abbreviated":2},"geometry":{"type":"Point","coordinates":[-118.06446254253387,33.8782053764229]}},{"type":"Feature","geometry":{"type":"Point","coordinates":[-118.065463,33.884008]},"properties":{"listingKey":"20251113024333363193000000","listingId":"OC-25258618","listPrice":1435000,"city":"Cerritos","baths":2.25,"slug":"20251113024333363193000000","mlsSource":"CRMLS","propertyType":"A","propertySubType":"Single Family Residence","livingArea":2661,"associationFee":471.81,"unparsedAddress":"12522 Bubbling Creek, Cerritos, CA 90703"}},{"type":"Feature","geometry":{"type":"Point","coordinates":[-118.059717,33.876647]},"properties":{"listingKey":"20250903210748049697000000","listingId":"WS-25181699","listPrice":4800,"city":"Cerritos","baths":3,"slug":"20250903210748049697000000","mlsSource":"CRMLS","propertyType":"B","propertySubType":"Single Family Residence","livingArea":2060,"associationFee":0,"unparsedAddress":"17002 Maria Avenue, Cerritos, CA 90703"}},{"type":"Feature","id":202057,"properties":{"cluster":true,"cluster_id":202057,"point_count":2,"point_count_abbreviated":2},"geometry":{"type":"Point","coordinates":[-118.06710183620453,33.87820092275213]}},{"type":"Feature","geometry":{"type":"Point","coordinates":[-118.065065,33.872382]},"properties":{"listingKey":"20251111182452063769000000","listingId":"RS-25232477","listPrice":1650000,"city":"Cerritos","baths":3,"slug":"20251111182452063769000000","mlsSource":"CRMLS","propertyType":"A","propertySubType":"Single Family Residence","livingArea":2553,"associationFee":0,"unparsedAddress":"12524 Bryce Circle, Cerritos, CA 90703"}},{"type":"Feature","geometry":{"type":"Point","coordinates":[-118.080225,33.888162]},"properties":{"listingKey":"20250909041804313581000000","listingId":"DW-25203207","listPrice":650000,"city":"Norwalk","baths":1,"slug":"20250909041804313581000000","mlsSource":"CRMLS","propertyType":"A","propertySubType":"Single Family Residence","livingArea":564,"associationFee":0,"unparsedAddress":"11864 Hayford Street, Norwalk, CA 90650"}},{"type":"Feature","geometry":{"type":"Point","coordinates":[-118.080033,33.884523]},"properties":{"listingKey":"20250910231754966333000000","listingId":"MB-25213636","listPrice":769000,"city":"Norwalk","baths":2,"slug":"20250910231754966333000000","mlsSource":"CRMLS","propertyType":"A","propertySubType":"Single Family Residence","livingArea":1524,"associationFee":0,"unparsedAddress":"11871 162nd, Norwalk, CA 90650"}},{"type":"Feature","id":615913,"properties":{"cluster":true,"cluster_id":615913,"point_count":2,"point_count_abbreviated":2},"geometry":{"type":"Point","coordinates":[-118.07883113622665,33.87840133770682]}},{"type":"Feature","geometry":{"type":"Point","coordinates":[-118.070251,33.884176]},"properties":{"listingKey":"20250927041646498457000000","listingId":"OC-25225622","listPrice":798800,"city":"Cerritos","baths":3,"slug":"20250927041646498457000000","mlsSource":"CRMLS","propertyType":"A","propertySubType":"Condominium","livingArea":1656,"associationFee":395,"unparsedAddress":"16118 Rockyriver Lane, Cerritos, CA 90703"}}]