[{"type":"Feature","id":313032,"properties":{"cluster":true,"cluster_id":313032,"point_count":3,"point_count_abbreviated":3},"geometry":{"type":"Point","coordinates":[-118.07980477809906,33.76279968673329]}},{"type":"Feature","geometry":{"type":"Point","coordinates":[-118.076964,33.776227]},"properties":{"listingKey":"20250918043131731507000000","listingId":"PW-25219631","listPrice":1675000,"city":"Rossmoor","baths":2,"slug":"20250918043131731507000000","mlsSource":"CRMLS","propertyType":"A","propertySubType":"Single Family Residence","livingArea":1854,"associationFee":0,"unparsedAddress":"3162 Yellowtail Dr., Rossmoor, CA 90720"}},{"type":"Feature","id":503561,"properties":{"cluster":true,"cluster_id":503561,"point_count":2,"point_count_abbreviated":2},"geometry":{"type":"Point","coordinates":[-118.0784261226654,33.77104970626752]}},{"type":"Feature","geometry":{"type":"Point","coordinates":[-118.074303,33.777374]},"properties":{"listingKey":"20250913031723425522000000","listingId":"OC-25216434","listPrice":5400,"city":"Rossmoor","baths":2,"slug":"20250913031723425522000000","mlsSource":"CRMLS","propertyType":"B","propertySubType":"Single Family Residence","livingArea":1853,"associationFee":0,"unparsedAddress":"3292 Yellowtail Drive, Rossmoor, CA 90720"}},{"type":"Feature","geometry":{"type":"Point","coordinates":[-118.078533,33.766166]},"properties":{"listingKey":"20251105042759238001000000","listingId":"OC-25254054","listPrice":475000,"city":"Seal Beach","baths":2,"slug":"20251105042759238001000000","mlsSource":"CRMLS","propertyType":"A","propertySubType":"Condominium","livingArea":1056,"associationFee":628,"unparsedAddress":"13601 Del Monte Drive, 47A, Seal Beach, CA 90740"}}]