[{"type":"Feature","geometry":{"type":"Point","coordinates":[-118.246003,34.154865]},"properties":{"listingKey":"20251016042815035850000000","listingId":"GD-25240586","listPrice":4200,"city":"Glendale","baths":2,"slug":"20251016042815035850000000","mlsSource":"CRMLS","propertyType":"B","propertySubType":"Quadruplex","livingArea":1500,"associationFee":0,"unparsedAddress":"741 East Doran, Glendale, CA 91206"}},{"type":"Feature","id":204969,"properties":{"cluster":true,"cluster_id":204969,"point_count":3,"point_count_abbreviated":3},"geometry":{"type":"Point","coordinates":[-118.24745714664458,34.15541714836162]}},{"type":"Feature","geometry":{"type":"Point","coordinates":[-118.253107,34.157114]},"properties":{"listingKey":"20251002044845894623000000","listingId":"P1-24367","listPrice":5200,"city":"Glendale","baths":2,"slug":"20251002044845894623000000","mlsSource":"CRMLS","propertyType":"B","propertySubType":"Condominium","livingArea":1640,"unparsedAddress":"222 Monterey Rd, Unit904, Glendale, CA 91206"}},{"type":"Feature","id":226857,"properties":{"cluster":true,"cluster_id":226857,"point_count":2,"point_count_abbreviated":2},"geometry":{"type":"Point","coordinates":[-118.24967175722122,34.155590275066146]}},{"type":"Feature","geometry":{"type":"Point","coordinates":[-118.251763,34.155532]},"properties":{"listingKey":"20251031224505868888000000","listingId":"AR-25251523","listPrice":2450,"city":"Glendale","baths":2,"slug":"20251031224505868888000000","mlsSource":"CRMLS","propertyType":"B","propertySubType":"Apartment","livingArea":950,"associationFee":0,"unparsedAddress":"621 North Kenwood Street North, 4, Glendale, CA 91206"}},{"type":"Feature","id":150025,"properties":{"cluster":true,"cluster_id":150025,"point_count":2,"point_count_abbreviated":2},"geometry":{"type":"Point","coordinates":[-118.25267314910889,34.1596297974117]}},{"type":"Feature","geometry":{"type":"Point","coordinates":[-118.250474,34.153714]},"properties":{"listingKey":"20251109184749349952000000","listingId":"P1-24882","listPrice":492000,"city":"Los Angeles","baths":1,"slug":"20251109184749349952000000","mlsSource":"CRMLS","propertyType":"A","propertySubType":"Condominium","livingArea":680,"associationFee":495,"unparsedAddress":"515 North Jackson Street, 211, Los Angeles, CA 91206"}},{"type":"Feature","geometry":{"type":"Point","coordinates":[-118.252036,34.16111]},"properties":{"listingKey":"20250916032233472948000000","listingId":"GD-25217538","listPrice":2950,"city":"Glendale","baths":1.5,"slug":"20250916032233472948000000","mlsSource":"CRMLS","propertyType":"B","propertySubType":"Apartment","livingArea":1100,"associationFee":0,"unparsedAddress":"312 East Dryden Street, 3, Glendale, CA 91207"}},{"type":"Feature","geometry":{"type":"Point","coordinates":[-118.24945,34.160304]},"properties":{"listingKey":"20250925045952926244000000","listingId":"GD-25224399","listPrice":2600,"city":"Glendale","baths":1,"slug":"20250925045952926244000000","mlsSource":"CRMLS","propertyType":"B","propertySubType":"Apartment","livingArea":600,"associationFee":0,"unparsedAddress":"1001 North Isabel Street, A, Glendale, CA 91207"}}]