[{"type":"Feature","geometry":{"type":"Point","coordinates":[-118.252811,33.919932]},"properties":{"listingKey":"20251031201529937984000000","listingId":"P1-24771","listPrice":675000,"city":"Los Angeles","baths":1,"slug":"20251031201529937984000000","mlsSource":"CRMLS","propertyType":"A","propertySubType":"Single Family Residence","livingArea":1114,"unparsedAddress":"1239 East 124TH Street, Los Angeles, CA 90059"}},{"type":"Feature","geometry":{"type":"Point","coordinates":[-118.246652,33.920833]},"properties":{"listingKey":"20251111220233504917000000","listingId":"RS-25258423","listPrice":575000,"city":"Los Angeles","baths":1,"slug":"20251111220233504917000000","mlsSource":"CRMLS","propertyType":"A","propertySubType":"Single Family Residence","livingArea":850,"associationFee":0,"unparsedAddress":"12233 Compton Avenue, Los Angeles, CA 90059"}},{"type":"Feature","geometry":{"type":"Point","coordinates":[-118.253451,33.922561]},"properties":{"listingKey":"20251022162011171200000000","listingId":"IV-25244586","listPrice":629000,"city":"Los Angeles","baths":1,"slug":"20251022162011171200000000","mlsSource":"CRMLS","propertyType":"A","propertySubType":"Single Family Residence","livingArea":1036,"associationFee":0,"unparsedAddress":"1220 East 121st, Los Angeles, CA 90059"}},{"type":"Feature","geometry":{"type":"Point","coordinates":[-118.246898,33.924615]},"properties":{"listingKey":"20251101185932138444000000","listingId":"RS-25251935","listPrice":595900,"city":"Los Angeles","baths":2,"slug":"20251101185932138444000000","mlsSource":"CRMLS","propertyType":"A","propertySubType":"Single Family Residence","livingArea":700,"associationFee":0,"unparsedAddress":"1563 East 119th, Los Angeles, CA 90059"}},{"type":"Feature","geometry":{"type":"Point","coordinates":[-118.252428,33.92456]},"properties":{"listingKey":"20250924040358092986000000","listingId":"DW-25221670","listPrice":649900,"city":"Los Angeles","baths":0,"slug":"20250924040358092986000000","mlsSource":"CRMLS","propertyType":"C","propertySubType":"Duplex","livingArea":1640,"unparsedAddress":"11912 Elva Avenue, Los Angeles, CA 90059"}}]