[{"type":"Feature","id":898345,"properties":{"cluster":true,"cluster_id":898345,"point_count":2,"point_count_abbreviated":2},"geometry":{"type":"Point","coordinates":[-117.69841879606247,33.96516346325403]}},{"type":"Feature","geometry":{"type":"Point","coordinates":[-117.696106,33.971638]},"properties":{"listingKey":"20251021223233722229000000","listingId":"PW-25242970","listPrice":1000000,"city":"Chino Hills","baths":2,"slug":"20251021223233722229000000","mlsSource":"CRMLS","propertyType":"A","propertySubType":"Single Family Residence","livingArea":1394,"associationFee":0,"unparsedAddress":"15508 Quail Street, Chino Hills, CA 91709"}},{"type":"Feature","geometry":{"type":"Point","coordinates":[-117.686395,33.96962]},"properties":{"listingKey":"20250806081847018253000000","listingId":"CV-25174815","listPrice":879000,"city":"Chino Hills","baths":2.5,"slug":"20250806081847018253000000","mlsSource":"CRMLS","propertyType":"A","propertySubType":"Single Family Residence","livingArea":1442,"associationFee":54,"unparsedAddress":"15597 Timberidge Lane, Chino Hills, CA 91709"}},{"type":"Feature","id":949513,"properties":{"cluster":true,"cluster_id":949513,"point_count":2,"point_count_abbreviated":2},"geometry":{"type":"Point","coordinates":[-117.69231677055359,33.96795302023766]}},{"type":"Feature","id":246665,"properties":{"cluster":true,"cluster_id":246665,"point_count":2,"point_count_abbreviated":2},"geometry":{"type":"Point","coordinates":[-117.69358545541763,33.96470075277074]}},{"type":"Feature","geometry":{"type":"Point","coordinates":[-117.700112,33.961942]},"properties":{"listingKey":"20251018184224051943000000","listingId":"OC-25242543","listPrice":3800,"city":"Chino Hills","baths":2.5,"slug":"20251018184224051943000000","mlsSource":"CRMLS","propertyType":"B","propertySubType":"Single Family Residence","livingArea":1414,"unparsedAddress":"16000 Carlton, Chino Hills, CA 91709"}},{"type":"Feature","geometry":{"type":"Point","coordinates":[-117.705568,33.976953]},"properties":{"listingKey":"20251111031857643408000000","listingId":"PW-25257676","listPrice":729999,"city":"Chino Hills","baths":2.5,"slug":"20251111031857643408000000","mlsSource":"CRMLS","propertyType":"A","propertySubType":"Single Family Residence","livingArea":1342,"associationFee":0,"unparsedAddress":"15212 Mariposa, Chino Hills, CA 91709"}},{"type":"Feature","geometry":{"type":"Point","coordinates":[-117.703457,33.97823]},"properties":{"listingKey":"20251024204632244918000000","listingId":"CV-25246824","listPrice":2500,"city":"Chino Hills","baths":1.5,"slug":"20251024204632244918000000","mlsSource":"CRMLS","propertyType":"B","propertySubType":"Townhouse","livingArea":1000,"unparsedAddress":"15153 Monterey, B, Chino Hills, CA 91709"}},{"type":"Feature","geometry":{"type":"Point","coordinates":[-117.700577,33.976568]},"properties":{"listingKey":"20251018031745140810000000","listingId":"OC-25242426","listPrice":665000,"city":"Chino Hills","baths":2,"slug":"20251018031745140810000000","mlsSource":"CRMLS","propertyType":"A","propertySubType":"Single Family Residence","livingArea":1008,"associationFee":0,"unparsedAddress":"15239 Murray, Chino Hills, CA 91709"}}]