[{"type":"Feature","id":238408,"properties":{"cluster":true,"cluster_id":238408,"point_count":5,"point_count_abbreviated":5},"geometry":{"type":"Point","coordinates":[-117.69659757614136,33.489848160857534]}},{"type":"Feature","geometry":{"type":"Point","coordinates":[-117.687273,33.502949]},"properties":{"listingKey":"20250907182341510747000000","listingId":"OC-25200455","listPrice":9495000,"city":"Laguna Niguel","baths":7,"slug":"20250907182341510747000000","mlsSource":"CRMLS","propertyType":"A","propertySubType":"Single Family Residence","livingArea":7701,"associationFee":925,"unparsedAddress":"2 O Hill Ridge, Laguna Niguel, CA 92677"}},{"type":"Feature","id":328841,"properties":{"cluster":true,"cluster_id":328841,"point_count":2,"point_count_abbreviated":2},"geometry":{"type":"Point","coordinates":[-117.69371688365936,33.48981326492442]}},{"type":"Feature","id":289000,"properties":{"cluster":true,"cluster_id":289000,"point_count":2,"point_count_abbreviated":2},"geometry":{"type":"Point","coordinates":[-117.6973620057106,33.498501023396344]}},{"type":"Feature","id":266633,"properties":{"cluster":true,"cluster_id":266633,"point_count":5,"point_count_abbreviated":5},"geometry":{"type":"Point","coordinates":[-117.6989471912384,33.49393357213482]}},{"type":"Feature","geometry":{"type":"Point","coordinates":[-117.688815,33.496659]},"properties":{"listingKey":"20250912042928220993000000","listingId":"NP-25215029","listPrice":19995000,"city":"Laguna Niguel","baths":7.5,"slug":"20250912042928220993000000","mlsSource":"CRMLS","propertyType":"A","propertySubType":"Single Family Residence","livingArea":11716,"associationFee":925,"unparsedAddress":"19 Old Ranch Road, Laguna Niguel, CA 92677"}},{"type":"Feature","id":286696,"properties":{"cluster":true,"cluster_id":286696,"point_count":3,"point_count_abbreviated":3},"geometry":{"type":"Point","coordinates":[-117.69246697425842,33.50378989945793]}},{"type":"Feature","id":247720,"properties":{"cluster":true,"cluster_id":247720,"point_count":4,"point_count_abbreviated":4},"geometry":{"type":"Point","coordinates":[-117.70678997039795,33.495333805626004]}},{"type":"Feature","geometry":{"type":"Point","coordinates":[-117.704398,33.488045]},"properties":{"listingKey":"20251112211425518266000000","listingId":"OC-25259169","listPrice":6000,"city":"Dana Point","baths":2.5,"slug":"20251112211425518266000000","mlsSource":"CRMLS","propertyType":"B","propertySubType":"Single Family Residence","livingArea":2338,"associationFee":0,"unparsedAddress":"24381 Philemon Drive, Dana Point, CA 92629"}},{"type":"Feature","id":207912,"properties":{"cluster":true,"cluster_id":207912,"point_count":2,"point_count_abbreviated":2},"geometry":{"type":"Point","coordinates":[-117.70106613636017,33.491392515506845]}},{"type":"Feature","geometry":{"type":"Point","coordinates":[-117.702228,33.493861]},"properties":{"listingKey":"20251118220659114344000000","listingId":"OC-25261824","listPrice":5300,"city":"Laguna Niguel","baths":2.5,"slug":"20251118220659114344000000","mlsSource":"CRMLS","propertyType":"B","propertySubType":"Townhouse","livingArea":1905,"unparsedAddress":"6 Stoney Pointe, Laguna Niguel, CA 92677"}},{"type":"Feature","geometry":{"type":"Point","coordinates":[-117.705213,33.500591]},"properties":{"listingKey":"20251022185241389674000000","listingId":"OC-25241540","listPrice":7200,"city":"Laguna Niguel","baths":3,"slug":"20251022185241389674000000","mlsSource":"CRMLS","propertyType":"B","propertySubType":"Single Family Residence","livingArea":2100,"unparsedAddress":"21 Marblehead Pl, Laguna Niguel, CA 92677"}}]