[{"type":"Feature","id":245864,"properties":{"cluster":true,"cluster_id":245864,"point_count":2,"point_count_abbreviated":2},"geometry":{"type":"Point","coordinates":[-117.17163026332855,33.91217121272878]}},{"type":"Feature","id":232201,"properties":{"cluster":true,"cluster_id":232201,"point_count":2,"point_count_abbreviated":2},"geometry":{"type":"Point","coordinates":[-117.17672377824783,33.91442829471407]}},{"type":"Feature","id":183913,"properties":{"cluster":true,"cluster_id":183913,"point_count":2,"point_count_abbreviated":2},"geometry":{"type":"Point","coordinates":[-117.17573404312134,33.90913051270924]}},{"type":"Feature","geometry":{"type":"Point","coordinates":[-117.170611,33.924205]},"properties":{"listingKey":"20250917040023799630000000","listingId":"IG-25217439","listPrice":899000,"city":"Moreno Valley","baths":3,"slug":"20250917040023799630000000","mlsSource":"CRMLS","propertyType":"A","propertySubType":"Single Family Residence","livingArea":2215,"associationFee":0,"unparsedAddress":"28200 WAR ADMIRAL ST, Moreno Valley, CA 92555"}},{"type":"Feature","geometry":{"type":"Point","coordinates":[-117.175162,33.920193]},"properties":{"listingKey":"20251023031333132522000000","listingId":"IV-25245482","listPrice":649999,"city":"Moreno Valley","baths":2.5,"slug":"20251023031333132522000000","mlsSource":"CRMLS","propertyType":"A","propertySubType":"Single Family Residence","livingArea":2811,"associationFee":30,"unparsedAddress":"27943 Aidan Circle, Moreno Valley, CA 92555"}},{"type":"Feature","geometry":{"type":"Point","coordinates":[-117.178445,33.907795]},"properties":{"listingKey":"20250710124335925925000000","listingId":"PW-25151553","listPrice":649900,"city":"Moreno Valley","baths":3.5,"slug":"20250710124335925925000000","mlsSource":"CRMLS","propertyType":"A","propertySubType":"Single Family Residence","livingArea":3558,"associationFee":27,"unparsedAddress":"27757 Rockwood Avenue, Moreno Valley, CA 92555"}},{"type":"Feature","geometry":{"type":"Point","coordinates":[-117.168541,33.907276]},"properties":{"listingKey":"20251012005629980228000000","listingId":"IV-25229350","listPrice":527000,"city":"Moreno Valley","baths":2,"slug":"20251012005629980228000000","mlsSource":"CRMLS","propertyType":"A","propertySubType":"Single Family Residence","livingArea":1842,"associationFee":170,"unparsedAddress":"28250 Grandview, Moreno Valley, CA 92555"}},{"type":"Feature","id":451368,"properties":{"cluster":true,"cluster_id":451368,"point_count":2,"point_count_abbreviated":2},"geometry":{"type":"Point","coordinates":[-117.1642354130745,33.90985174273247]}},{"type":"Feature","geometry":{"type":"Point","coordinates":[-117.167074,33.924132]},"properties":{"listingKey":"20251031030145911703000000","listingId":"IG-25251054","listPrice":810000,"city":"Moreno Valley","baths":3,"slug":"20251031030145911703000000","mlsSource":"CRMLS","propertyType":"A","propertySubType":"Single Family Residence","livingArea":3366,"associationFee":0,"unparsedAddress":"13526 Somergate, Moreno Valley, CA 92555"}},{"type":"Feature","geometry":{"type":"Point","coordinates":[-117.160114,33.907175]},"properties":{"listingKey":"20250826024221711067000000","listingId":"IV-25190434","listPrice":489000,"city":"Moreno Valley","baths":2,"slug":"20250826024221711067000000","mlsSource":"CRMLS","propertyType":"A","propertySubType":"Single Family Residence","livingArea":1510,"associationFee":170,"unparsedAddress":"14716 Grandview Drive, Moreno Valley, CA 92555"}}]