[{"type":"Feature","geometry":{"type":"Point","coordinates":[-117.163087,33.727188]},"properties":{"listingKey":"20250703201753702017000000","listingId":"SW-25149261","listPrice":610000,"city":"Menifee","baths":2,"slug":"20250703201753702017000000","mlsSource":"CRMLS","propertyType":"A","propertySubType":"Single Family Residence","livingArea":1845,"associationFee":91,"unparsedAddress":"27108 Oncore Drive, Menifee, CA 92585"}},{"type":"Feature","geometry":{"type":"Point","coordinates":[-117.162205,33.724528]},"properties":{"listingKey":"20250918180629174661000000","listingId":"SW-25220164","listPrice":699000,"city":"Menifee","baths":3,"slug":"20250918180629174661000000","mlsSource":"CRMLS","propertyType":"A","propertySubType":"Single Family Residence","livingArea":2592,"associationFee":0,"unparsedAddress":"27268 Hideout Court, Menifee, CA 92585"}},{"type":"Feature","id":604713,"properties":{"cluster":true,"cluster_id":604713,"point_count":3,"point_count_abbreviated":3},"geometry":{"type":"Point","coordinates":[-117.16800749301909,33.73114494861616]}},{"type":"Feature","geometry":{"type":"Point","coordinates":[-117.175754,33.732769]},"properties":{"listingKey":"20251110215215798786000000","listingId":"SW-25255575","listPrice":599900,"city":"Menifee","baths":2,"slug":"20251110215215798786000000","mlsSource":"CRMLS","propertyType":"A","propertySubType":"Single Family Residence","livingArea":1855,"associationFee":62,"unparsedAddress":"26691 Calle Celia, Menifee, CA 92585"}},{"type":"Feature","geometry":{"type":"Point","coordinates":[-117.172797,33.734122]},"properties":{"listingKey":"20251108015351017695000000","listingId":"SW-25255562","listPrice":3100,"city":"Menifee","baths":2,"slug":"20251108015351017695000000","mlsSource":"CRMLS","propertyType":"B","propertySubType":"Single Family Residence","livingArea":1776,"unparsedAddress":"27961 Via Cholula, Menifee, CA 92585"}},{"type":"Feature","id":474792,"properties":{"cluster":true,"cluster_id":474792,"point_count":2,"point_count_abbreviated":2},"geometry":{"type":"Point","coordinates":[-117.17529147863388,33.72999689173156]}},{"type":"Feature","id":214761,"properties":{"cluster":true,"cluster_id":214761,"point_count":2,"point_count_abbreviated":2},"geometry":{"type":"Point","coordinates":[-117.16568380594254,33.72614216351464]}}]