[{"type":"Feature","geometry":{"type":"Point","coordinates":[-117.161622,33.697964]},"properties":{"listingKey":"20251021204855825112000000","listingId":"SW-25243323","listPrice":549000,"city":"Menifee","baths":2,"slug":"20251021204855825112000000","mlsSource":"CRMLS","propertyType":"A","propertySubType":"Single Family Residence","livingArea":2139,"associationFee":330,"unparsedAddress":"28433 Oasis View Circle, Menifee, CA 92584"}},{"type":"Feature","geometry":{"type":"Point","coordinates":[-117.164137,33.690737]},"properties":{"listingKey":"20251118182209202133000000","listingId":"SW-25261865","listPrice":2700,"city":"Menifee","baths":2,"slug":"20251118182209202133000000","mlsSource":"CRMLS","propertyType":"B","propertySubType":"Single Family Residence","livingArea":2091,"unparsedAddress":"28391 Long Meadow, Menifee, CA 92584"}},{"type":"Feature","id":184232,"properties":{"cluster":true,"cluster_id":184232,"point_count":5,"point_count_abbreviated":5},"geometry":{"type":"Point","coordinates":[-117.16009891033171,33.69422336190398]}},{"type":"Feature","geometry":{"type":"Point","coordinates":[-117.171999,33.695068]},"properties":{"listingKey":"20251106183312096998000000","listingId":"SW-25255231","listPrice":484000,"city":"Menifee","baths":2,"slug":"20251106183312096998000000","mlsSource":"CRMLS","propertyType":"A","propertySubType":"Single Family Residence","livingArea":1500,"associationFee":330,"unparsedAddress":"27946 Panorama Hills Drive, Menifee, CA 92584"}},{"type":"Feature","id":412968,"properties":{"cluster":true,"cluster_id":412968,"point_count":2,"point_count_abbreviated":2},"geometry":{"type":"Point","coordinates":[-117.16664403676987,33.69208454600391]}},{"type":"Feature","id":331880,"properties":{"cluster":true,"cluster_id":331880,"point_count":3,"point_count_abbreviated":3},"geometry":{"type":"Point","coordinates":[-117.1796178817749,33.69520586633344]}},{"type":"Feature","id":358920,"properties":{"cluster":true,"cluster_id":358920,"point_count":3,"point_count_abbreviated":3},"geometry":{"type":"Point","coordinates":[-117.16998696327208,33.68893037979289]}},{"type":"Feature","geometry":{"type":"Point","coordinates":[-117.166678,33.688805]},"properties":{"listingKey":"20250927041904064372000000","listingId":"SW-25226153","listPrice":499999,"city":"Menifee","baths":2,"slug":"20250927041904064372000000","mlsSource":"CRMLS","propertyType":"A","propertySubType":"Single Family Residence","livingArea":1299,"associationFee":190,"unparsedAddress":"28232 Palm Villa Drive, Menifee, CA 92584"}},{"type":"Feature","geometry":{"type":"Point","coordinates":[-117.174914,33.695248]},"properties":{"listingKey":"20251101033114375084000000","listingId":"SW-25251132","listPrice":449500,"city":"Menifee","baths":2,"slug":"20251101033114375084000000","mlsSource":"CRMLS","propertyType":"A","propertySubType":"Single Family Residence","livingArea":1297,"associationFee":320,"unparsedAddress":"27786 Panorama Hills Drive, Menifee, CA 92584"}},{"type":"Feature","geometry":{"type":"Point","coordinates":[-117.17408,33.704211]},"properties":{"listingKey":"20251007012359846478000000","listingId":"WS-25233344","listPrice":688000,"city":"Menifee","baths":3.5,"slug":"20251007012359846478000000","mlsSource":"CRMLS","propertyType":"A","propertySubType":"Single Family Residence","livingArea":2877,"associationFee":15,"unparsedAddress":"28718 Woodchester Way, Menifee, CA 92584"}}]