[{"type":"Feature","geometry":{"type":"Point","coordinates":[-117.161535,33.684709]},"properties":{"listingKey":"20250805120521912757000000","listingId":"SW-25174852","listPrice":2999,"city":"Menifee","baths":3,"slug":"20250805120521912757000000","mlsSource":"CRMLS","propertyType":"B","propertySubType":"Single Family Residence","livingArea":2140,"unparsedAddress":"30056 Via Amante, Menifee, CA 92584"}},{"type":"Feature","geometry":{"type":"Point","coordinates":[-117.16106,33.670189]},"properties":{"listingKey":"20251022212834093274000000","listingId":"SW-25244736","listPrice":738500,"city":"Menifee","baths":3,"slug":"20251022212834093274000000","mlsSource":"CRMLS","propertyType":"A","propertySubType":"Single Family Residence","livingArea":2473,"associationFee":0,"unparsedAddress":"28592 Country Rose, Menifee, CA 92584"}},{"type":"Feature","id":524169,"properties":{"cluster":true,"cluster_id":524169,"point_count":2,"point_count_abbreviated":2},"geometry":{"type":"Point","coordinates":[-117.16043204069138,33.686924745979695]}},{"type":"Feature","geometry":{"type":"Point","coordinates":[-117.163715,33.686557]},"properties":{"listingKey":"20250919033945667931000000","listingId":"SW-25219175","listPrice":529000,"city":"Menifee","baths":2,"slug":"20250919033945667931000000","mlsSource":"CRMLS","propertyType":"A","propertySubType":"Single Family Residence","livingArea":1466,"associationFee":67,"unparsedAddress":"29905 Westlink, Menifee, CA 92584"}},{"type":"Feature","id":457352,"properties":{"cluster":true,"cluster_id":457352,"point_count":3,"point_count_abbreviated":3},"geometry":{"type":"Point","coordinates":[-117.16025948524477,33.677970240217306]}},{"type":"Feature","id":560777,"properties":{"cluster":true,"cluster_id":560777,"point_count":2,"point_count_abbreviated":2},"geometry":{"type":"Point","coordinates":[-117.16568917036057,33.678479145401155]}},{"type":"Feature","geometry":{"type":"Point","coordinates":[-117.178415,33.671414]},"properties":{"listingKey":"20250927042045521961000000","listingId":"SW-25225293","listPrice":619999,"city":"Menifee","baths":2.5,"slug":"20250927042045521961000000","mlsSource":"CRMLS","propertyType":"A","propertySubType":"Single Family Residence","livingArea":2610,"associationFee":138,"unparsedAddress":"27531 Mountainside, Menifee, CA 92584"}},{"type":"Feature","geometry":{"type":"Point","coordinates":[-117.16455,33.670158]},"properties":{"listingKey":"20251114024459393618000000","listingId":"SW-25254421","listPrice":730000,"city":"Menifee","baths":4,"slug":"20251114024459393618000000","mlsSource":"CRMLS","propertyType":"A","propertySubType":"Single Family Residence","livingArea":2925,"associationFee":0,"unparsedAddress":"28368 Harvest Gold Court, Menifee, CA 92584"}},{"type":"Feature","geometry":{"type":"Point","coordinates":[-117.177201,33.678849]},"properties":{"listingKey":"20250928063751200509000000","listingId":"SW-25225395","listPrice":2695,"city":"Menifee","baths":2.5,"slug":"20250928063751200509000000","mlsSource":"CRMLS","propertyType":"B","propertySubType":"Single Family Residence","livingArea":1577,"unparsedAddress":"30433 Village Knoll DR, Menifee, CA 92584"}},{"type":"Feature","geometry":{"type":"Point","coordinates":[-117.166382,33.682924]},"properties":{"listingKey":"20250927043105234082000000","listingId":"SW-25178132","listPrice":524999,"city":"Menifee","baths":2,"slug":"20250927043105234082000000","mlsSource":"CRMLS","propertyType":"A","propertySubType":"Single Family Residence","livingArea":1255,"associationFee":81,"unparsedAddress":"30146 Westlake Drive, Menifee, CA 92584"}},{"type":"Feature","geometry":{"type":"Point","coordinates":[-117.179477,33.687346]},"properties":{"listingKey":"20251105172420370787000000","listingId":"SW-25253700","listPrice":599000,"city":"Menifee","baths":2,"slug":"20251105172420370787000000","mlsSource":"CRMLS","propertyType":"A","propertySubType":"Single Family Residence","livingArea":1458,"associationFee":0,"unparsedAddress":"29826 Avenida De Cortez, Menifee, CA 92586"}},{"type":"Feature","geometry":{"type":"Point","coordinates":[-117.177644,33.673893]},"properties":{"listingKey":"20250917225140073746000000","listingId":"SW-25219437","listPrice":594999,"city":"Menifee","baths":2.5,"slug":"20250917225140073746000000","mlsSource":"CRMLS","propertyType":"A","propertySubType":"Single Family Residence","livingArea":2017,"associationFee":138,"unparsedAddress":"27545 Cloudy Peak Way, Menifee, CA 92584"}}]