[{"type":"Feature","id":321448,"properties":{"cluster":true,"cluster_id":321448,"point_count":2,"point_count_abbreviated":2},"geometry":{"type":"Point","coordinates":[-117.16015845537186,33.557551973420956]}},{"type":"Feature","id":422216,"properties":{"cluster":true,"cluster_id":422216,"point_count":3,"point_count_abbreviated":3},"geometry":{"type":"Point","coordinates":[-117.16246783733368,33.55509325372573]}},{"type":"Feature","geometry":{"type":"Point","coordinates":[-117.165845,33.553252]},"properties":{"listingKey":"20251102214838087683000000","listingId":"8N-2510497","listPrice":2795,"city":"Murrieta","baths":2,"slug":"20251102214838087683000000","mlsSource":"CRMLS","propertyType":"B","propertySubType":"Townhouse","livingArea":1408,"unparsedAddress":"39975 Millbrook Way, C, Murrieta, CA 92563"}},{"type":"Feature","id":181640,"properties":{"cluster":true,"cluster_id":181640,"point_count":3,"point_count_abbreviated":3},"geometry":{"type":"Point","coordinates":[-117.16831326484679,33.54507883606678]}},{"type":"Feature","geometry":{"type":"Point","coordinates":[-117.169553,33.552515]},"properties":{"listingKey":"20250930202008047410000000","listingId":"PW-25227479","listPrice":3000,"city":"Murrieta","baths":2.5,"slug":"20250930202008047410000000","mlsSource":"CRMLS","propertyType":"B","propertySubType":"Condominium","livingArea":2151,"unparsedAddress":"26020 Abigail Avenue, Murrieta, CA 92563"}},{"type":"Feature","id":136520,"properties":{"cluster":true,"cluster_id":136520,"point_count":8,"point_count_abbreviated":8},"geometry":{"type":"Point","coordinates":[-117.16774106025696,33.542001628431166]}},{"type":"Feature","id":258697,"properties":{"cluster":true,"cluster_id":258697,"point_count":2,"point_count_abbreviated":2},"geometry":{"type":"Point","coordinates":[-117.17620611190796,33.5521471683287]}},{"type":"Feature","geometry":{"type":"Point","coordinates":[-117.172967,33.557096]},"properties":{"listingKey":"20250904211047718243000000","listingId":"SW-25198921","listPrice":649900,"city":"Murrieta","baths":3,"slug":"20250904211047718243000000","mlsSource":"CRMLS","propertyType":"A","propertySubType":"Single Family Residence","livingArea":1722,"associationFee":0,"unparsedAddress":"40027 Daphne Drive, Murrieta, CA 92563"}},{"type":"Feature","geometry":{"type":"Point","coordinates":[-117.170039,33.556524]},"properties":{"listingKey":"20251110222455096473000000","listingId":"SW-25257715","listPrice":3200,"city":"Murrieta","baths":2,"slug":"20251110222455096473000000","mlsSource":"CRMLS","propertyType":"B","propertySubType":"Single Family Residence","livingArea":1266,"associationFee":0,"unparsedAddress":"40006 Notting Hill, Murrieta, CA 92563"}},{"type":"Feature","id":434824,"properties":{"cluster":true,"cluster_id":434824,"point_count":3,"point_count_abbreviated":3},"geometry":{"type":"Point","coordinates":[-117.1724581718445,33.54965998009085]}},{"type":"Feature","geometry":{"type":"Point","coordinates":[-117.166384,33.558343]},"properties":{"listingKey":"20251118173923854541000000","listingId":"SW-25260212","listPrice":575000,"city":"Murrieta","baths":2,"slug":"20251118173923854541000000","mlsSource":"CRMLS","propertyType":"A","propertySubType":"Single Family Residence","livingArea":1354,"associationFee":0,"unparsedAddress":"39795 Old Carriage, Murrieta, CA 92563"}},{"type":"Feature","geometry":{"type":"Point","coordinates":[-117.177907,33.549598]},"properties":{"listingKey":"20251022172203248557000000","listingId":"SW-25244070","listPrice":635000,"city":"Murrieta","baths":2.5,"slug":"20251022172203248557000000","mlsSource":"CRMLS","propertyType":"A","propertySubType":"Single Family Residence","livingArea":2099,"associationFee":140,"unparsedAddress":"40688 La Salle, Murrieta, CA 92563"}},{"type":"Feature","geometry":{"type":"Point","coordinates":[-117.167746,33.549655]},"properties":{"listingKey":"20250717105456012816000000","listingId":"SW-25142618","listPrice":929900,"city":"Murrieta","baths":4.25,"slug":"20250717105456012816000000","mlsSource":"CRMLS","propertyType":"A","propertySubType":"Single Family Residence","livingArea":3354,"associationFee":0,"unparsedAddress":"26054 Pine Street, Murrieta, CA 92563"}},{"type":"Feature","geometry":{"type":"Point","coordinates":[-117.173743,33.559638]},"properties":{"listingKey":"20251003011415616360000000","listingId":"SW-25228417","listPrice":634999,"city":"Murrieta","baths":3,"slug":"20251003011415616360000000","mlsSource":"CRMLS","propertyType":"A","propertySubType":"Single Family Residence","livingArea":1760,"associationFee":0,"unparsedAddress":"25720 Marvick Way, Murrieta, CA 92563"}}]