[{"type":"Feature","geometry":{"type":"Point","coordinates":[-117.164354,33.531843]},"properties":{"listingKey":"20251022194829644548000000","listingId":"OC-25238294","listPrice":659000,"city":"Temecula","baths":2.5,"slug":"20251022194829644548000000","mlsSource":"CRMLS","propertyType":"A","propertySubType":"Condominium","livingArea":1647,"associationFee":267,"unparsedAddress":"28380 Via Solero, Temecula, CA 92591"}},{"type":"Feature","geometry":{"type":"Point","coordinates":[-117.159268,33.53823]},"properties":{"listingKey":"20251108062954787450000000","listingId":"SW-25255257","listPrice":3495,"city":"Temecula","baths":2.5,"slug":"20251108062954787450000000","mlsSource":"CRMLS","propertyType":"B","propertySubType":"Single Family Residence","livingArea":2249,"unparsedAddress":"40040 Pasadena, Temecula, CA 92591"}},{"type":"Feature","id":164456,"properties":{"cluster":true,"cluster_id":164456,"point_count":12,"point_count_abbreviated":12},"geometry":{"type":"Point","coordinates":[-117.1673333644867,33.535385205105285]}},{"type":"Feature","id":179688,"properties":{"cluster":true,"cluster_id":179688,"point_count":10,"point_count_abbreviated":10},"geometry":{"type":"Point","coordinates":[-117.16540378332138,33.53043066028826]}},{"type":"Feature","geometry":{"type":"Point","coordinates":[-117.169691,33.540543]},"properties":{"listingKey":"20250715023834008997000000","listingId":"SW-25158009","listPrice":2700,"city":"Murrieta","baths":2.5,"slug":"20250715023834008997000000","mlsSource":"CRMLS","propertyType":"B","propertySubType":"Condominium","livingArea":1896,"unparsedAddress":"26397 Arboretum Way, 1604, Murrieta, CA 92563"}},{"type":"Feature","geometry":{"type":"Point","coordinates":[-117.165069,33.537745]},"properties":{"listingKey":"20251011202518932324000000","listingId":"TR-25236904","listPrice":3688,"city":"Temecula","baths":2.5,"slug":"20251011202518932324000000","mlsSource":"CRMLS","propertyType":"B","propertySubType":"Single Family Residence","livingArea":2876,"unparsedAddress":"40418 Charlesburg Dr, Temecula, CA 92591"}}]