[{"type":"Feature","geometry":{"type":"Point","coordinates":[-118.315677,34.163588]},"properties":{"listingKey":"20250726203853354181000000","listingId":"BB-25167928","listPrice":595000,"city":"Burbank","baths":2,"slug":"20250726203853354181000000","mlsSource":"CRMLS","propertyType":"A","propertySubType":"Condominium","livingArea":1155,"associationFee":434,"unparsedAddress":"525 South Shelton Street, 102, Burbank, CA 91506"}},{"type":"Feature","geometry":{"type":"Point","coordinates":[-118.302509,34.178033]},"properties":{"listingKey":"20251107154012911657000000","listingId":"P1-24853","listPrice":2500,"city":"Burbank","baths":1,"slug":"20251107154012911657000000","mlsSource":"CRMLS","propertyType":"B","propertySubType":"Apartment","livingArea":650,"unparsedAddress":"268 East Providencia Avenue East, E, Burbank, CA 91502"}},{"type":"Feature","geometry":{"type":"Point","coordinates":[-118.30852,34.171664]},"properties":{"listingKey":"20251108015359299901000000","listingId":"GD-25253941","listPrice":3000,"city":"Burbank","baths":2,"slug":"20251108015359299901000000","mlsSource":"CRMLS","propertyType":"B","propertySubType":"Apartment","livingArea":850,"associationFee":0,"unparsedAddress":"620 South Lake Street, 203, Burbank, CA 90057"}},{"type":"Feature","id":893833,"properties":{"cluster":true,"cluster_id":893833,"point_count":2,"point_count_abbreviated":2},"geometry":{"type":"Point","coordinates":[-118.30320060253143,34.16200459122594]}},{"type":"Feature","geometry":{"type":"Point","coordinates":[-118.312097,34.172107]},"properties":{"listingKey":"20251021203629874795000000","listingId":"GD-25243334","listPrice":2650,"city":"Burbank","baths":2,"slug":"20251021203629874795000000","mlsSource":"CRMLS","propertyType":"B","propertySubType":"Condominium","livingArea":901,"unparsedAddress":"240 West Verdugo, K, Burbank, CA 91502"}},{"type":"Feature","geometry":{"type":"Point","coordinates":[-118.321252,34.1741]},"properties":{"listingKey":"20250806081822918581000000","listingId":"BB-25176575","listPrice":1795000,"city":"Burbank","baths":3,"slug":"20250806081822918581000000","mlsSource":"CRMLS","propertyType":"A","propertySubType":"Single Family Residence","livingArea":2185,"associationFee":0,"unparsedAddress":"340 North Mariposa Street, Burbank, CA 91506"}},{"type":"Feature","geometry":{"type":"Point","coordinates":[-118.322263,34.178659]},"properties":{"listingKey":"20250923041839025402000000","listingId":"GD-25192898","listPrice":820000,"city":"Burbank","baths":3,"slug":"20250923041839025402000000","mlsSource":"CRMLS","propertyType":"A","propertySubType":"Townhouse","livingArea":1457,"associationFee":225,"unparsedAddress":"510 North Shelton Street, 2, Burbank, CA 91506"}}]