[{"type":"Feature","id":560392,"properties":{"cluster":true,"cluster_id":560392,"point_count":3,"point_count_abbreviated":3},"geometry":{"type":"Point","coordinates":[-118.31174075603485,34.09362822235546]}},{"type":"Feature","geometry":{"type":"Point","coordinates":[-118.313031,34.105634]},"properties":{"listingKey":"20250902011953212171000000","listingId":"CV-25196488","listPrice":1500000,"city":"Los Angeles","baths":0,"slug":"20250902011953212171000000","mlsSource":"CRMLS","propertyType":"C","propertySubType":"Apartment","livingArea":5286,"associationFee":0,"unparsedAddress":"5665 Franklin Avenue, Los Angeles, CA 90028"}},{"type":"Feature","geometry":{"type":"Point","coordinates":[-118.313866,34.089885]},"properties":{"listingKey":"20250821134222143464000000","listingId":"8P-2506364","listPrice":1090000,"city":"Los Angeles","baths":2,"slug":"20250821134222143464000000","mlsSource":"CRMLS","propertyType":"A","propertySubType":"Single Family Residence","livingArea":1272,"associationFee":0,"unparsedAddress":"1059 North Wilton Place, Los Angeles, CA 90038"}},{"type":"Feature","id":1023401,"properties":{"cluster":true,"cluster_id":1023401,"point_count":2,"point_count_abbreviated":2},"geometry":{"type":"Point","coordinates":[-118.31289947032928,34.09504977720901]}},{"type":"Feature","geometry":{"type":"Point","coordinates":[-118.307651,34.093624]},"properties":{"listingKey":"20240823002915893210000000","listingId":"MC-24174254","listPrice":949900,"city":"Los Angeles","baths":1,"slug":"20240823002915893210000000","mlsSource":"CRMLS","propertyType":"A","propertySubType":"Single Family Residence","livingArea":1344,"associationFee":0,"unparsedAddress":"5422 La Mirada Avenue, Los Angeles, CA 90029"}},{"type":"Feature","geometry":{"type":"Point","coordinates":[-118.305202,34.100273]},"properties":{"listingKey":"20251008024900684016000000","listingId":"GD-25234917","listPrice":2550000,"city":"Los Angeles","baths":0,"slug":"20251008024900684016000000","mlsSource":"CRMLS","propertyType":"C","propertySubType":"Triplex","livingArea":3639,"associationFee":0,"unparsedAddress":"1610 North Hobart Boulevard, Los Angeles, CA 90027"}},{"type":"Feature","id":129608,"properties":{"cluster":true,"cluster_id":129608,"point_count":7,"point_count_abbreviated":7},"geometry":{"type":"Point","coordinates":[-118.30314312662397,34.09533789300616]}},{"type":"Feature","geometry":{"type":"Point","coordinates":[-118.320854,34.093264]},"properties":{"listingKey":"20251009221749318131000000","listingId":"219136692","listPrice":1700000,"city":"Los Angeles","baths":0,"slug":"20251009221749318131000000","mlsSource":"GPS","propertyType":"D","associationFee":0,"unparsedAddress":"1222 N Beachwood Drive, Los Angeles, CA 90038"}}]