[{"type":"Feature","id":243592,"properties":{"cluster":true,"cluster_id":243592,"point_count":2,"point_count_abbreviated":2},"geometry":{"type":"Point","coordinates":[-118.3193850517273,33.922218552339885]}},{"type":"Feature","geometry":{"type":"Point","coordinates":[-118.319008,33.913123]},"properties":{"listingKey":"20250813095507945123000000","listingId":"SB-25181597","listPrice":799000,"city":"Gardena","baths":2,"slug":"20250813095507945123000000","mlsSource":"CRMLS","propertyType":"A","propertySubType":"Single Family Residence","livingArea":1852,"associationFee":0,"unparsedAddress":"13115 Spinning Avenue, Gardena, CA 90249"}},{"type":"Feature","id":226472,"properties":{"cluster":true,"cluster_id":226472,"point_count":2,"point_count_abbreviated":2},"geometry":{"type":"Point","coordinates":[-118.31299871206284,33.912033203804214]}},{"type":"Feature","geometry":{"type":"Point","coordinates":[-118.316427,33.912962]},"properties":{"listingKey":"20251107045334604682000000","listingId":"PW-25255859","listPrice":789900,"city":"Gardena","baths":2,"slug":"20251107045334604682000000","mlsSource":"CRMLS","propertyType":"A","propertySubType":"Single Family Residence","livingArea":1291,"associationFee":0,"unparsedAddress":"13120 Haas, Gardena, CA 90249"}},{"type":"Feature","geometry":{"type":"Point","coordinates":[-118.305241,33.919543]},"properties":{"listingKey":"20250630145208775621000000","listingId":"CV-25145105","listPrice":849900,"city":"Los Angeles","baths":3,"slug":"20250630145208775621000000","mlsSource":"CRMLS","propertyType":"A","propertySubType":"Single Family Residence","livingArea":2489,"associationFee":0,"unparsedAddress":"1617 West 125th Street, Los Angeles, CA 90047"}}]