[{"type":"Feature","geometry":{"type":"Point","coordinates":[-117.452498,34.047034]},"properties":{"listingKey":"20250924030617329773000000","listingId":"CV-25223255","listPrice":3500,"city":"Fontana","baths":2.5,"slug":"20250924030617329773000000","mlsSource":"CRMLS","propertyType":"B","propertySubType":"Single Family Residence","livingArea":1705,"associationFee":0,"unparsedAddress":"16165 Windcrest Drive, Fontana, CA 92337"}},{"type":"Feature","geometry":{"type":"Point","coordinates":[-117.44579,34.04417]},"properties":{"listingKey":"20251118181958086361000000","listingId":"OC-25261425","listPrice":4000,"city":"Fontana","baths":2.75,"slug":"20251118181958086361000000","mlsSource":"CRMLS","propertyType":"B","propertySubType":"Single Family Residence","livingArea":3099,"associationFee":0,"unparsedAddress":"16438 Gala, Fontana, CA 92337"}},{"type":"Feature","id":175272,"properties":{"cluster":true,"cluster_id":175272,"point_count":2,"point_count_abbreviated":2},"geometry":{"type":"Point","coordinates":[-117.44817405939102,34.04635237712618]}},{"type":"Feature","geometry":{"type":"Point","coordinates":[-117.46002,34.047143]},"properties":{"listingKey":"20250621024821868162000000","listingId":"IV-25139351","listPrice":624999,"city":"Fontana","baths":2.5,"slug":"20250621024821868162000000","mlsSource":"CRMLS","propertyType":"A","propertySubType":"Single Family Residence","livingArea":2046,"associationFee":0,"unparsedAddress":"11355 Tondela Street, Fontana, CA 92337"}},{"type":"Feature","geometry":{"type":"Point","coordinates":[-117.462877,34.045447]},"properties":{"listingKey":"20251015041326975955000000","listingId":"IV-25239915","listPrice":3100,"city":"Fontana","baths":2.5,"slug":"20251015041326975955000000","mlsSource":"CRMLS","propertyType":"B","propertySubType":"Single Family Residence","livingArea":1506,"associationFee":0,"unparsedAddress":"11423 Aberdeen, Fontana, CA 92337"}},{"type":"Feature","id":598441,"properties":{"cluster":true,"cluster_id":598441,"point_count":2,"point_count_abbreviated":2},"geometry":{"type":"Point","coordinates":[-117.45888411998749,34.04394766519634]}}]