[{"type":"Feature","geometry":{"type":"Point","coordinates":[-117.450814,33.942704]},"properties":{"listingKey":"20251009185732031158000000","listingId":"IG-25236094","listPrice":620000,"city":"Riverside","baths":1.5,"slug":"20251009185732031158000000","mlsSource":"CRMLS","propertyType":"A","propertySubType":"Single Family Residence","livingArea":1057,"associationFee":0,"unparsedAddress":"8989 Pembroke Avenue, Riverside, CA 92503"}},{"type":"Feature","geometry":{"type":"Point","coordinates":[-117.462227,33.941255]},"properties":{"listingKey":"20251018025834097307000000","listingId":"IV-25234792","listPrice":995000,"city":"Riverside","baths":0,"slug":"20251018025834097307000000","mlsSource":"CRMLS","propertyType":"C","propertySubType":"Quadruplex","livingArea":3000,"associationFee":0,"unparsedAddress":"5875 Picker, Riverside, CA 92503"}},{"type":"Feature","geometry":{"type":"Point","coordinates":[-117.451654,33.940372]},"properties":{"listingKey":"20251006233101552809000000","listingId":"IG-25232626","listPrice":425000,"city":"Riverside","baths":1.75,"slug":"20251006233101552809000000","mlsSource":"CRMLS","propertyType":"A","propertySubType":"Condominium","livingArea":1223,"associationFee":280,"unparsedAddress":"4801 Jackson Street, C, Riverside, CA 92503"}},{"type":"Feature","geometry":{"type":"Point","coordinates":[-117.462332,33.931103]},"properties":{"listingKey":"20250703084944329045000000","listingId":"PW-25148954","listPrice":560000,"city":"Riverside","baths":2,"slug":"20250703084944329045000000","mlsSource":"CRMLS","propertyType":"A","propertySubType":"Single Family Residence","livingArea":1494,"associationFee":0,"unparsedAddress":"4957 Noble Street, Riverside, CA 92503"}},{"type":"Feature","geometry":{"type":"Point","coordinates":[-117.451828,33.936165]},"properties":{"listingKey":"20251029224401924008000000","listingId":"CV-25249943","listPrice":3500,"city":"Riverside","baths":2,"slug":"20251029224401924008000000","mlsSource":"CRMLS","propertyType":"B","propertySubType":"Single Family Residence","livingArea":1264,"associationFee":0,"unparsedAddress":"9219 Colorado Avenue, Riverside, CA 92503"}},{"type":"Feature","geometry":{"type":"Point","coordinates":[-117.454468,33.927876]},"properties":{"listingKey":"20251031171543058965000000","listingId":"SW-25251230","listPrice":519900,"city":"Riverside","baths":2.5,"slug":"20251031171543058965000000","mlsSource":"CRMLS","propertyType":"A","propertySubType":"Single Family Residence","livingArea":1440,"associationFee":257,"unparsedAddress":"9744 Briar Rose, Riverside, CA 92503"}}]