[{"type":"Feature","geometry":{"type":"Point","coordinates":[-117.460191,33.754544]},"properties":{"listingKey":"20250926085152642049000000","listingId":"8P-2507344","listPrice":749000,"city":"Corona","baths":3,"slug":"20250926085152642049000000","mlsSource":"CRMLS","propertyType":"A","propertySubType":"Single Family Residence","livingArea":2699,"associationFee":85,"unparsedAddress":"11416 Magnolia Street, Corona, CA 92883"}},{"type":"Feature","geometry":{"type":"Point","coordinates":[-117.464051,33.750575]},"properties":{"listingKey":"20250927041927881551000000","listingId":"IG-25226185","listPrice":725000,"city":"Corona","baths":3.5,"slug":"20250927041927881551000000","mlsSource":"CRMLS","propertyType":"A","propertySubType":"Single Family Residence","livingArea":2717,"associationFee":85,"unparsedAddress":"11220 Jasmine Way, Corona, CA 92883"}},{"type":"Feature","id":564552,"properties":{"cluster":true,"cluster_id":564552,"point_count":2,"point_count_abbreviated":2},"geometry":{"type":"Point","coordinates":[-117.45827794075012,33.750507914531084]}},{"type":"Feature","geometry":{"type":"Point","coordinates":[-117.461233,33.750831]},"properties":{"listingKey":"20250928034226288262000000","listingId":"TR-25225302","listPrice":899000,"city":"Corona","baths":3.5,"slug":"20250928034226288262000000","mlsSource":"CRMLS","propertyType":"A","propertySubType":"Single Family Residence","livingArea":3484,"associationFee":85,"unparsedAddress":"25418 Singleleaf Street, Corona, CA 92883"}},{"type":"Feature","geometry":{"type":"Point","coordinates":[-117.460544,33.748212]},"properties":{"listingKey":"20250913012447450690000000","listingId":"IG-25216237","listPrice":4800,"city":"Corona","baths":3.5,"slug":"20250913012447450690000000","mlsSource":"CRMLS","propertyType":"B","propertySubType":"Single Family Residence","livingArea":4095,"unparsedAddress":"11400 Bluebird Way, Corona, CA 92883"}},{"type":"Feature","geometry":{"type":"Point","coordinates":[-117.45602,33.7552]},"properties":{"listingKey":"20250817190849771419000000","listingId":"OC-25185442","listPrice":899800,"city":"Corona","baths":3,"slug":"20250817190849771419000000","mlsSource":"CRMLS","propertyType":"A","propertySubType":"Single Family Residence","livingArea":2632,"associationFee":85,"unparsedAddress":"11780 Bunting Cir, Corona, CA 92883"}}]