[{"type":"Feature","geometry":{"type":"Point","coordinates":[-122.348848,38.311388]},"properties":{"listingKey":"20250725082546704515000000","listingId":"01-41105902","listPrice":3693500,"city":"Napa","baths":4.5,"slug":"20250725082546704515000000","mlsSource":"CRMLS","propertyType":"A","propertySubType":"Single Family Residence","livingArea":4147,"associationFee":588,"unparsedAddress":"1015 Borrette Court, Napa, CA 94558"}},{"type":"Feature","geometry":{"type":"Point","coordinates":[-122.683874,38.328064]},"properties":{"listingKey":"20250923050528454657000000","listingId":"01-41112374","listPrice":295000,"city":"Rohnert Park","baths":1,"slug":"20250923050528454657000000","mlsSource":"CRMLS","propertyType":"A","propertySubType":"Condominium","livingArea":606,"associationFee":481,"unparsedAddress":"8201 Camino Colegio, 11, Rohnert Park, CA 94928"}},{"type":"Feature","geometry":{"type":"Point","coordinates":[-122.62785,38.464048]},"properties":{"listingKey":"20250816071836435354000000","listingId":"01-41108329","listPrice":1015000,"city":"Santa Rosa","baths":2,"slug":"20250816071836435354000000","mlsSource":"CRMLS","propertyType":"A","propertySubType":"Single Family Residence","livingArea":2097,"unparsedAddress":"676 Scotland Court, Santa Rosa, CA 95409"}},{"type":"Feature","geometry":{"type":"Point","coordinates":[-122.470352,38.291779]},"properties":{"listingKey":"20250805113149529181000000","listingId":"01-41107072","listPrice":599000,"city":"Sonoma","baths":2,"slug":"20250805113149529181000000","mlsSource":"CRMLS","propertyType":"A","propertySubType":"Condominium","livingArea":1278,"associationFee":205,"unparsedAddress":"585 Studley St, 4, Sonoma, CA"}},{"type":"Feature","geometry":{"type":"Point","coordinates":[-122.471803,38.538102]},"properties":{"listingKey":"20250803002848729499000000","listingId":"01-41106826","listPrice":3500,"city":"St. Helena","baths":2,"slug":"20250803002848729499000000","mlsSource":"CRMLS","propertyType":"B","propertySubType":"Single Family Residence","livingArea":1100,"unparsedAddress":"630 Sunnyside Road, St. Helena, CA 94574"}},{"type":"Feature","geometry":{"type":"Point","coordinates":[-122.462111,38.501793]},"properties":{"listingKey":"20250802102241837224000000","listingId":"OC-25173221","listPrice":4290000,"city":"St. Helena","baths":3.5,"slug":"20250802102241837224000000","mlsSource":"CRMLS","propertyType":"A","propertySubType":"Single Family Residence","livingArea":4488,"associationFee":0,"unparsedAddress":"1003 Charter Oak Avenue, St. Helena, CA 94574"}}]