[{"type":"Feature","geometry":{"type":"Point","coordinates":[-118.31155,33.76028]},"properties":{"listingKey":"20250905060914835305000000","listingId":"PV-25198961","listPrice":699000,"city":"Rancho Palos Verdes","baths":1.5,"slug":"20250905060914835305000000","mlsSource":"CRMLS","propertyType":"A","propertySubType":"Townhouse","livingArea":1274,"associationFee":435,"unparsedAddress":"28534 Bearhaven Court, Rancho Palos Verdes, CA 90275"}},{"type":"Feature","geometry":{"type":"Point","coordinates":[-118.311145,33.759159]},"properties":{"listingKey":"20251118220657391255000000","listingId":"PV-25262507","listPrice":3600,"city":"Rancho Palos Verdes","baths":1.5,"slug":"20251118220657391255000000","mlsSource":"CRMLS","propertyType":"B","propertySubType":"Townhouse","livingArea":1240,"unparsedAddress":"28619 Friarstone Court, Rancho Palos Verdes, CA 90275"}},{"type":"Feature","geometry":{"type":"Point","coordinates":[-118.310872,33.752095]},"properties":{"listingKey":"20251110234554662148000000","listingId":"SB-25257428","listPrice":4950,"city":"Rancho Palos Verdes","baths":2,"slug":"20251110234554662148000000","mlsSource":"CRMLS","propertyType":"B","propertySubType":"Single Family Residence","livingArea":1635,"associationFee":0,"unparsedAddress":"1854 Homeworth, Rancho Palos Verdes, CA 90275"}},{"type":"Feature","geometry":{"type":"Point","coordinates":[-118.311131,33.753465]},"properties":{"listingKey":"20251113040233022585000000","listingId":"SB-25253292","listPrice":5000,"city":"Rancho Palos Verdes","baths":2,"slug":"20251113040233022585000000","mlsSource":"CRMLS","propertyType":"B","propertySubType":"Single Family Residence","livingArea":1440,"associationFee":0,"unparsedAddress":"1859 Trudie, Rancho Palos Verdes, CA 90275"}},{"type":"Feature","id":489449,"properties":{"cluster":true,"cluster_id":489449,"point_count":2,"point_count_abbreviated":2},"geometry":{"type":"Point","coordinates":[-118.30788642168045,33.757251659444776]}},{"type":"Feature","geometry":{"type":"Point","coordinates":[-118.306633,33.753732]},"properties":{"listingKey":"20250821134300470844000000","listingId":"TR-25188258","listPrice":648000,"city":"San Pedro","baths":1.75,"slug":"20250821134300470844000000","mlsSource":"CRMLS","propertyType":"A","propertySubType":"Condominium","livingArea":1189,"associationFee":892,"unparsedAddress":"1310 West Park Western Drive, 155, San Pedro, CA 90732"}},{"type":"Feature","id":519177,"properties":{"cluster":true,"cluster_id":519177,"point_count":2,"point_count_abbreviated":2},"geometry":{"type":"Point","coordinates":[-118.30779254436493,33.754776338505394]}},{"type":"Feature","geometry":{"type":"Point","coordinates":[-118.308181,33.756046]},"properties":{"listingKey":"20250627105854590236000000","listingId":"SB-25143790","listPrice":545000,"city":"San Pedro","baths":2,"slug":"20250627105854590236000000","mlsSource":"CRMLS","propertyType":"A","propertySubType":"Condominium","livingArea":990,"associationFee":714,"unparsedAddress":"1441 Brett Place, 148, San Pedro, CA 90732"}},{"type":"Feature","geometry":{"type":"Point","coordinates":[-118.307264,33.758309]},"properties":{"listingKey":"20250911005218430928000000","listingId":"SB-25214040","listPrice":5500,"city":"Rancho Palos Verdes","baths":2,"slug":"20250911005218430928000000","mlsSource":"CRMLS","propertyType":"B","propertySubType":"Single Family Residence","livingArea":2100,"associationFee":0,"unparsedAddress":"28718 Mount Langley Ct, Rancho Palos Verdes, CA 90275"}},{"type":"Feature","id":252585,"properties":{"cluster":true,"cluster_id":252585,"point_count":3,"point_count_abbreviated":3},"geometry":{"type":"Point","coordinates":[-118.305823802948,33.756832420925704]}},{"type":"Feature","geometry":{"type":"Point","coordinates":[-118.3053,33.755213]},"properties":{"listingKey":"20250823044832843139000000","listingId":"SB-25187536","listPrice":459000,"city":"San Pedro","baths":1,"slug":"20250823044832843139000000","mlsSource":"CRMLS","propertyType":"A","propertySubType":"Condominium","livingArea":711,"associationFee":533,"unparsedAddress":"1211 West Capitol Drive, 73, San Pedro, CA 90732"}}]