[{"type":"Feature","id":122758,"properties":{"cluster":true,"cluster_id":122758,"point_count":2,"point_count_abbreviated":2},"geometry":{"type":"Point","coordinates":[-118.81129145622253,34.2522238446287]}},{"type":"Feature","id":164102,"properties":{"cluster":true,"cluster_id":164102,"point_count":4,"point_count_abbreviated":4},"geometry":{"type":"Point","coordinates":[-118.74911785125732,34.260020770407834]}},{"type":"Feature","geometry":{"type":"Point","coordinates":[-118.752495,34.297535]},"properties":{"listingKey":"20251017214953022248000000","listingId":"V1-32933","listPrice":1859000,"city":"Simi Valley","baths":4.5,"slug":"20251017214953022248000000","mlsSource":"CRMLS","propertyType":"A","propertySubType":"Single Family Residence","livingArea":4585,"associationFee":260,"unparsedAddress":"3447 Sentinel Court, Simi Valley, CA 93065"}},{"type":"Feature","id":196137,"properties":{"cluster":true,"cluster_id":196137,"point_count":3,"point_count_abbreviated":3},"geometry":{"type":"Point","coordinates":[-118.78557264804839,34.26901246046876]}},{"type":"Feature","id":99462,"properties":{"cluster":true,"cluster_id":99462,"point_count":4,"point_count_abbreviated":4},"geometry":{"type":"Point","coordinates":[-118.76207157969475,34.2664049767079]}},{"type":"Feature","geometry":{"type":"Point","coordinates":[-118.775181,34.270505]},"properties":{"listingKey":"20250822063710405634000000","listingId":"TR-25189331","listPrice":439888,"city":"Simi Valley","baths":2,"slug":"20250822063710405634000000","mlsSource":"CRMLS","propertyType":"A","propertySubType":"Condominium","livingArea":1084,"associationFee":296,"unparsedAddress":"1256 Patricia Avenue, 10, Simi Valley, CA 93065"}},{"type":"Feature","geometry":{"type":"Point","coordinates":[-118.74451,34.285799]},"properties":{"listingKey":"20251002221154529243000000","listingId":"V1-32727","listPrice":724900,"city":"Simi Valley","baths":3,"slug":"20251002221154529243000000","mlsSource":"CRMLS","propertyType":"A","propertySubType":"Single Family Residence","livingArea":1785,"associationFee":403,"unparsedAddress":"2671 Coral Gum Lane, Simi Valley, CA 93065"}},{"type":"Feature","geometry":{"type":"Point","coordinates":[-118.784987,34.260162]},"properties":{"listingKey":"20251016212715696588000000","listingId":"PW-25238735","listPrice":849999,"city":"Simi Valley","baths":2,"slug":"20251016212715696588000000","mlsSource":"CRMLS","propertyType":"A","propertySubType":"Single Family Residence","livingArea":1712,"associationFee":0,"unparsedAddress":"1182 El Monte, Simi Valley, CA 93065"}},{"type":"Feature","id":338694,"properties":{"cluster":true,"cluster_id":338694,"point_count":2,"point_count_abbreviated":2},"geometry":{"type":"Point","coordinates":[-118.76835197210312,34.259176156822704]}},{"type":"Feature","geometry":{"type":"Point","coordinates":[-118.761864,34.241513]},"properties":{"listingKey":"20250807034704846388000000","listingId":"V1-33146","listPrice":1485000,"city":"Simi Valley","baths":3,"slug":"20250807034704846388000000","mlsSource":"CRMLS","propertyType":"A","propertySubType":"Single Family Residence","livingArea":2649,"associationFee":84,"unparsedAddress":"1894 Rambling Road, Simi Valley, CA 93065"}},{"type":"Feature","geometry":{"type":"Point","coordinates":[-118.784507,34.24621]},"properties":{"listingKey":"20250710184236647206000000","listingId":"V1-31064","listPrice":1499999,"city":"Simi Valley","baths":2.5,"slug":"20250710184236647206000000","mlsSource":"CRMLS","propertyType":"A","propertySubType":"Single Family Residence","livingArea":2379,"associationFee":190,"unparsedAddress":"652 Stonebrook Street, Simi Valley, CA 93065"}}]