[{"type":"Feature","geometry":{"type":"Point","coordinates":[-117.254973,33.095428]},"properties":{"listingKey":"20250820062634878213000000","listingId":"8N-2508167","listPrice":675000,"city":"Carlsbad","baths":1.75,"slug":"20250820062634878213000000","mlsSource":"CRMLS","propertyType":"A","propertySubType":"Townhouse","livingArea":1280,"associationFee":460,"unparsedAddress":"2388 Altisma Way, 10 or K, Carlsbad, CA 92009"}},{"type":"Feature","geometry":{"type":"Point","coordinates":[-117.256931,33.096231]},"properties":{"listingKey":"20251120000521178902000000","listingId":"8N-2510961","listPrice":3250,"city":"Carlsbad","baths":2,"slug":"20251120000521178902000000","mlsSource":"CRMLS","propertyType":"B","propertySubType":"Condominium","livingArea":1227,"unparsedAddress":"2306 Altisma Way, 116, Carlsbad, CA 92009"}},{"type":"Feature","geometry":{"type":"Point","coordinates":[-117.248882,33.092207]},"properties":{"listingKey":"20251111181504307357000000","listingId":"8N-2510735","listPrice":1595000,"city":"Carlsbad","baths":3,"slug":"20251111181504307357000000","mlsSource":"CRMLS","propertyType":"A","propertySubType":"Single Family Residence","livingArea":2345,"associationFee":290,"unparsedAddress":"2916 Avenida Valera, Carlsbad, CA 92009"}},{"type":"Feature","geometry":{"type":"Point","coordinates":[-117.256359,33.09324]},"properties":{"listingKey":"20251026065614225363000000","listingId":"8N-2510294","listPrice":12000,"city":"Carlsbad","baths":3,"slug":"20251026065614225363000000","mlsSource":"CRMLS","propertyType":"B","propertySubType":"Townhouse","livingArea":3633,"associationFee":0,"unparsedAddress":"7429 Via De Fortuna, Carlsbad, CA 92009"}},{"type":"Feature","geometry":{"type":"Point","coordinates":[-117.249975,33.095442]},"properties":{"listingKey":"20250830081253317137000000","listingId":"SW-25195171","listPrice":999000,"city":"Carlsbad","baths":4,"slug":"20250830081253317137000000","mlsSource":"CRMLS","propertyType":"A","propertySubType":"Townhouse","livingArea":1549,"associationFee":365,"unparsedAddress":"3519 Via Nido, Carlsbad, CA 92009"}},{"type":"Feature","geometry":{"type":"Point","coordinates":[-117.252679,33.094694]},"properties":{"listingKey":"20250703084708859142000000","listingId":"8N-2506546","listPrice":620000,"city":"Carlsbad","baths":1,"slug":"20250703084708859142000000","mlsSource":"CRMLS","propertyType":"A","propertySubType":"Condominium","livingArea":723,"associationFee":462,"unparsedAddress":"7394 Altiva Place, Carlsbad, CA 92009"}}]