[{"type":"Feature","geometry":{"type":"Point","coordinates":[-117.589936,34.138502]},"properties":{"listingKey":"20251008133615757783000000","listingId":"WS-25235056","listPrice":3850,"city":"Rancho Cucamonga","baths":3,"slug":"20251008133615757783000000","mlsSource":"CRMLS","propertyType":"B","propertySubType":"Single Family Residence","livingArea":2238,"associationFee":0,"unparsedAddress":"9878 Via Esperanza, Rancho Cucamonga, CA 91737"}},{"type":"Feature","geometry":{"type":"Point","coordinates":[-117.590388,34.136494]},"properties":{"listingKey":"20251112021825785288000000","listingId":"CV-25258625","listPrice":449000,"city":"Rancho Cucamonga","baths":2.5,"slug":"20251112021825785288000000","mlsSource":"CRMLS","propertyType":"A","propertySubType":"Condominium","livingArea":1030,"associationFee":365,"unparsedAddress":"9872 Highland Avenue, D, Rancho Cucamonga, CA 91737"}},{"type":"Feature","geometry":{"type":"Point","coordinates":[-117.594948,34.140455]},"properties":{"listingKey":"20251105051011705028000000","listingId":"CV-25254130","listPrice":879000,"city":"Rancho Cucamonga","baths":2,"slug":"20251105051011705028000000","mlsSource":"CRMLS","propertyType":"A","propertySubType":"Single Family Residence","livingArea":1572,"associationFee":0,"unparsedAddress":"9637 Apricot, Rancho Cucamonga, CA 91737"}},{"type":"Feature","geometry":{"type":"Point","coordinates":[-117.587825,34.141351]},"properties":{"listingKey":"20251121022000951570000000","listingId":"IG-25264034","listPrice":710000,"city":"Alta Loma","baths":2,"slug":"20251121022000951570000000","mlsSource":"CRMLS","propertyType":"A","propertySubType":"Single Family Residence","livingArea":1412,"associationFee":0,"unparsedAddress":"6210 Phillips, Alta Loma, CA 91737"}},{"type":"Feature","id":919913,"properties":{"cluster":true,"cluster_id":919913,"point_count":2,"point_count_abbreviated":2},"geometry":{"type":"Point","coordinates":[-117.59514033794403,34.14245827305106]}}]