[{"type":"Feature","geometry":{"type":"Point","coordinates":[-117.591268,33.640282]},"properties":{"listingKey":"20251018185231341508000000","listingId":"OC-25242585","listPrice":4300,"city":"Rancho Santa Margarita","baths":2.75,"slug":"20251018185231341508000000","mlsSource":"CRMLS","propertyType":"B","propertySubType":"Single Family Residence","livingArea":1500,"associationFee":0,"unparsedAddress":"17 Paseo Dalia, Rancho Santa Margarita, CA 92688"}},{"type":"Feature","geometry":{"type":"Point","coordinates":[-117.589724,33.636351]},"properties":{"listingKey":"20250928040857057765000000","listingId":"PW-25225919","listPrice":675000,"city":"Rancho Santa Margarita","baths":2,"slug":"20250928040857057765000000","mlsSource":"CRMLS","propertyType":"A","propertySubType":"Condominium","livingArea":1038,"associationFee":507,"unparsedAddress":"31 Santa Agatha, Rancho Santa Margarita, CA 92688"}},{"type":"Feature","geometry":{"type":"Point","coordinates":[-117.590353,33.641165]},"properties":{"listingKey":"20251107184420245035000000","listingId":"OC-25256111","listPrice":4500,"city":"Rancho Santa Margarita","baths":2.5,"slug":"20251107184420245035000000","mlsSource":"CRMLS","propertyType":"B","propertySubType":"Single Family Residence","livingArea":1835,"unparsedAddress":"23 Paseo Acebo, Rancho Santa Margarita, CA 92688"}},{"type":"Feature","id":934473,"properties":{"cluster":true,"cluster_id":934473,"point_count":2,"point_count_abbreviated":2},"geometry":{"type":"Point","coordinates":[-117.59698033332825,33.636533472273385]}},{"type":"Feature","id":259209,"properties":{"cluster":true,"cluster_id":259209,"point_count":3,"point_count_abbreviated":3},"geometry":{"type":"Point","coordinates":[-117.59569466114046,33.63577420745804]}},{"type":"Feature","id":307785,"properties":{"cluster":true,"cluster_id":307785,"point_count":2,"point_count_abbreviated":2},"geometry":{"type":"Point","coordinates":[-117.5962883234024,33.6394186175212]}},{"type":"Feature","geometry":{"type":"Point","coordinates":[-117.589565,33.639035]},"properties":{"listingKey":"20251114195424895193000000","listingId":"OC-25260691","listPrice":765000,"city":"Rancho Santa Margarita","baths":2.5,"slug":"20251114195424895193000000","mlsSource":"CRMLS","propertyType":"A","propertySubType":"Condominium","livingArea":1154,"associationFee":396,"unparsedAddress":"98 Via Barcelona, Rancho Santa Margarita, CA 92688"}},{"type":"Feature","geometry":{"type":"Point","coordinates":[-117.589227,33.640215]},"properties":{"listingKey":"20251110210246288498000000","listingId":"OC-25257610","listPrice":3300,"city":"Rancho Santa Margarita","baths":2,"slug":"20251110210246288498000000","mlsSource":"CRMLS","propertyType":"B","propertySubType":"Condominium","livingArea":1128,"unparsedAddress":"52 Via Pamplona, Rancho Santa Margarita, CA 92688"}},{"type":"Feature","geometry":{"type":"Point","coordinates":[-117.587717,33.641051]},"properties":{"listingKey":"20251008183504112869000000","listingId":"OC-25227116","listPrice":505000,"city":"Rancho Santa Margarita","baths":1,"slug":"20251008183504112869000000","mlsSource":"CRMLS","propertyType":"A","propertySubType":"Condominium","livingArea":700,"associationFee":270,"unparsedAddress":"45 Via Prado, Rancho Santa Margarita, CA 92688"}}]