[{"type":"Feature","id":180453,"properties":{"cluster":true,"cluster_id":180453,"point_count":2,"point_count_abbreviated":2},"geometry":{"type":"Point","coordinates":[-121.3619515299797,38.48990090136934]}},{"type":"Feature","geometry":{"type":"Point","coordinates":[-121.43686,38.449609]},"properties":{"listingKey":"20250812082125427793000000","listingId":"01-41107827","listPrice":779000,"city":"Sacramento","baths":2.5,"slug":"20250812082125427793000000","mlsSource":"CRMLS","propertyType":"A","propertySubType":"Single Family Residence","livingArea":1773,"unparsedAddress":"8450 Montpelier way, Sacramento, CA 95823"}},{"type":"Feature","geometry":{"type":"Point","coordinates":[-121.347084,38.414594]},"properties":{"listingKey":"20250623191442770949000000","listingId":"01-41102447","listPrice":840000,"city":"Elk Grove","baths":3,"slug":"20250623191442770949000000","mlsSource":"CRMLS","propertyType":"A","propertySubType":"Single Family Residence","livingArea":3389,"unparsedAddress":"9416 Lyndley Plaza Way, Elk Grove, CA 95624"}},{"type":"Feature","geometry":{"type":"Point","coordinates":[-121.458164,38.473395]},"properties":{"listingKey":"20251120172035950393000000","listingId":"01-41117621","listPrice":419950,"city":"Sacramento","baths":2,"slug":"20251120172035950393000000","mlsSource":"CRMLS","propertyType":"A","propertySubType":"Single Family Residence","livingArea":1289,"unparsedAddress":"7827 Deer Meadow Dr, Sacramento, CA 95823"}},{"type":"Feature","geometry":{"type":"Point","coordinates":[-121.452434,38.542211]},"properties":{"listingKey":"20251010213026128187000000","listingId":"SW-25236300","listPrice":415000,"city":"Sacramento","baths":2,"slug":"20251010213026128187000000","mlsSource":"CRMLS","propertyType":"A","propertySubType":"Single Family Residence","livingArea":1321,"associationFee":0,"unparsedAddress":"4631 11th, Sacramento, CA 95820"}}]