[{"type":"Feature","id":180840,"properties":{"cluster":true,"cluster_id":180840,"point_count":3,"point_count_abbreviated":3},"geometry":{"type":"Point","coordinates":[-121.69113278388978,37.948907232640025]}},{"type":"Feature","geometry":{"type":"Point","coordinates":[-121.688508,37.951413]},"properties":{"listingKey":"20250918175048517861000000","listingId":"01-41111951","listPrice":799000,"city":"Brentwood","baths":2,"slug":"20250918175048517861000000","mlsSource":"CRMLS","propertyType":"A","propertySubType":"Single Family Residence","livingArea":2187,"unparsedAddress":"509 Milford St, Brentwood, CA 94513"}},{"type":"Feature","geometry":{"type":"Point","coordinates":[-121.686869,37.945863]},"properties":{"listingKey":"20251113005501681650000000","listingId":"01-41117301","listPrice":899950,"city":"Brentwood","baths":2.5,"slug":"20251113005501681650000000","mlsSource":"CRMLS","propertyType":"A","propertySubType":"Single Family Residence","livingArea":2525,"unparsedAddress":"1367 Bellerose Ct, Brentwood, CA 94513"}},{"type":"Feature","geometry":{"type":"Point","coordinates":[-121.701089,37.944965]},"properties":{"listingKey":"20250919023840760227000000","listingId":"01-41112004","listPrice":510000,"city":"Brentwood","baths":2.5,"slug":"20250919023840760227000000","mlsSource":"CRMLS","propertyType":"A","propertySubType":"Townhouse","livingArea":1573,"associationFee":397,"unparsedAddress":"1347 Eisenhower Way, Brentwood, CA 94513"}},{"type":"Feature","geometry":{"type":"Point","coordinates":[-121.70267,37.958067]},"properties":{"listingKey":"20250719062223613792000000","listingId":"01-41105368","listPrice":1349000,"city":"Brentwood","baths":4,"slug":"20250719062223613792000000","mlsSource":"CRMLS","propertyType":"A","propertySubType":"Single Family Residence","livingArea":4680,"unparsedAddress":"2255 Sugarloaf Ct, Brentwood, CA 94513"}},{"type":"Feature","id":605480,"properties":{"cluster":true,"cluster_id":605480,"point_count":2,"point_count_abbreviated":2},"geometry":{"type":"Point","coordinates":[-121.69065088033676,37.95852881220789]}}]