[{"type":"Feature","geometry":{"type":"Point","coordinates":[-118.03824,33.985069]},"properties":{"listingKey":"20250919060307712565000000","listingId":"DW-25220996","listPrice":1050000,"city":"Whittier","baths":0,"slug":"20250919060307712565000000","mlsSource":"CRMLS","propertyType":"C","propertySubType":"Duplex","livingArea":2290,"associationFee":0,"unparsedAddress":"6242 Comstock Ave, Whittier, CA 90601"}},{"type":"Feature","geometry":{"type":"Point","coordinates":[-118.045677,33.988681]},"properties":{"listingKey":"20251004160800997472000000","listingId":"P1-24483","listPrice":1050000,"city":"Whittier","baths":2.5,"slug":"20251004160800997472000000","mlsSource":"CRMLS","propertyType":"A","propertySubType":"Single Family Residence","livingArea":2468,"unparsedAddress":"5840 Citrus Avenue, Whittier, CA 90601"}},{"type":"Feature","geometry":{"type":"Point","coordinates":[-118.043515,33.983019]},"properties":{"listingKey":"20251016174114198180000000","listingId":"WS-25240164","listPrice":2225,"city":"Whittier","baths":1,"slug":"20251016174114198180000000","mlsSource":"CRMLS","propertyType":"B","propertySubType":"Apartment","livingArea":900,"associationFee":0,"unparsedAddress":"12429 Hadley Street, Whittier, CA 90601"}},{"type":"Feature","id":262281,"properties":{"cluster":true,"cluster_id":262281,"point_count":3,"point_count_abbreviated":3},"geometry":{"type":"Point","coordinates":[-118.04242551326752,33.97982059101959]}},{"type":"Feature","geometry":{"type":"Point","coordinates":[-118.040439,33.983338]},"properties":{"listingKey":"20250922025510521494000000","listingId":"WS-25222279","listPrice":1210000,"city":"Whittier","baths":0,"slug":"20250922025510521494000000","mlsSource":"CRMLS","propertyType":"C","propertySubType":"Quadruplex","livingArea":2052,"unparsedAddress":"6340 Newlin, Whittier, CA 90601"}},{"type":"Feature","geometry":{"type":"Point","coordinates":[-118.040008,33.984789]},"properties":{"listingKey":"20250909214003967283000000","listingId":"AR-25206812","listPrice":1625000,"city":"Whittier","baths":0,"slug":"20250909214003967283000000","mlsSource":"CRMLS","propertyType":"C","propertySubType":"Apartment","livingArea":3492,"unparsedAddress":"6251 Milton Avenue, Whittier, CA 90601"}}]