[{"type":"Feature","geometry":{"type":"Point","coordinates":[-117.40305,34.057555]},"properties":{"listingKey":"20250923050334683245000000","listingId":"IV-25222187","listPrice":589000,"city":"Bloomington","baths":2,"slug":"20250923050334683245000000","mlsSource":"CRMLS","propertyType":"A","propertySubType":"Single Family Residence","livingArea":1388,"associationFee":0,"unparsedAddress":"18390 Manila, Bloomington, CA 92316"}},{"type":"Feature","geometry":{"type":"Point","coordinates":[-117.381612,34.055227]},"properties":{"listingKey":"20250820062640235840000000","listingId":"CV-25183917","listPrice":729900,"city":"Bloomington","baths":2,"slug":"20250820062640235840000000","mlsSource":"CRMLS","propertyType":"A","propertySubType":"Single Family Residence","livingArea":2078,"associationFee":0,"unparsedAddress":"10945 Trenmar Ln, Bloomington, CA 92316"}},{"type":"Feature","geometry":{"type":"Point","coordinates":[-117.417604,34.065179]},"properties":{"listingKey":"20250922200331668248000000","listingId":"219135718","listPrice":7000000,"city":"Bloomington","baths":0,"slug":"20250922200331668248000000","mlsSource":"GPS","propertyType":"F","propertySubType":"Industrial","livingArea":10949,"associationFee":0,"unparsedAddress":"10397 Alder Avenue, Bloomington, CA 92316"}},{"type":"Feature","id":164775,"properties":{"cluster":true,"cluster_id":164775,"point_count":2,"point_count_abbreviated":2},"geometry":{"type":"Point","coordinates":[-117.39859610795975,34.06378783206527]}},{"type":"Feature","geometry":{"type":"Point","coordinates":[-117.399876,34.088764]},"properties":{"listingKey":"20250902204502525295000000","listingId":"CV-25196871","listPrice":608998,"city":"Bloomington","baths":2,"slug":"20250902204502525295000000","mlsSource":"CRMLS","propertyType":"A","propertySubType":"Single Family Residence","livingArea":1423,"associationFee":0,"unparsedAddress":"1459 West James Street, Bloomington, CA 92316"}},{"type":"Feature","id":135111,"properties":{"cluster":true,"cluster_id":135111,"point_count":2,"point_count_abbreviated":2},"geometry":{"type":"Point","coordinates":[-117.39580661058426,34.08202388814219]}},{"type":"Feature","id":362919,"properties":{"cluster":true,"cluster_id":362919,"point_count":2,"point_count_abbreviated":2},"geometry":{"type":"Point","coordinates":[-117.40293323993683,34.07527025103403]}}]