[{"type":"Feature","geometry":{"type":"Point","coordinates":[-119.206275,34.295678]},"properties":{"listingKey":"20250826012541361444000000","listingId":"V1-32138","listPrice":2195000,"city":"Ventura","baths":3,"slug":"20250826012541361444000000","mlsSource":"CRMLS","propertyType":"A","propertySubType":"Single Family Residence","livingArea":1971,"unparsedAddress":"978 Colina Vista, Ventura, CA 93003"}},{"type":"Feature","geometry":{"type":"Point","coordinates":[-119.207836,34.3006]},"properties":{"listingKey":"20251109194947146369000000","listingId":"V1-33313","listPrice":2500000,"city":"Ventura","baths":3,"slug":"20251109194947146369000000","mlsSource":"CRMLS","propertyType":"A","propertySubType":"Single Family Residence","livingArea":2775,"unparsedAddress":"1184 Colina Vista Vista, Ventura, CA 93003"}},{"type":"Feature","id":737320,"properties":{"cluster":true,"cluster_id":737320,"point_count":3,"point_count_abbreviated":3},"geometry":{"type":"Point","coordinates":[-119.20811355113983,34.293506593903075]}},{"type":"Feature","geometry":{"type":"Point","coordinates":[-119.209581,34.291669]},"properties":{"listingKey":"20250817195521050946000000","listingId":"V1-31831","listPrice":2680000,"city":"Ventura","baths":3.5,"slug":"20250817195521050946000000","mlsSource":"CRMLS","propertyType":"A","propertySubType":"Single Family Residence","livingArea":3014,"unparsedAddress":"708 Skyview Terrace, Ventura, CA 93003"}},{"type":"Feature","geometry":{"type":"Point","coordinates":[-119.206565,34.293285]},"properties":{"listingKey":"20251120014823252371000000","listingId":"V1-33466","listPrice":2385000,"city":"Ventura","baths":3.5,"slug":"20251120014823252371000000","mlsSource":"CRMLS","propertyType":"A","propertySubType":"Single Family Residence","livingArea":2454,"unparsedAddress":"890 Via Ondulando, Ventura, CA 93003"}}]