[{"type":"Feature","id":613673,"properties":{"cluster":true,"cluster_id":613673,"point_count":3,"point_count_abbreviated":3},"geometry":{"type":"Point","coordinates":[-119.22208964824678,34.26114764759373]}},{"type":"Feature","geometry":{"type":"Point","coordinates":[-119.202323,34.268485]},"properties":{"listingKey":"20251118181115304006000000","listingId":"V1-33450","listPrice":695000,"city":"Ventura","baths":2.5,"slug":"20251118181115304006000000","mlsSource":"CRMLS","propertyType":"A","propertySubType":"Townhouse","livingArea":1293,"associationFee":600,"unparsedAddress":"926 Sandberg Lane, Ventura, CA 93003"}},{"type":"Feature","geometry":{"type":"Point","coordinates":[-119.214883,34.265844]},"properties":{"listingKey":"20251031222201181634000000","listingId":"V1-33414","listPrice":649000,"city":"Ventura","baths":2.5,"slug":"20251031222201181634000000","mlsSource":"CRMLS","propertyType":"A","propertySubType":"Single Family Residence","livingArea":1690,"associationFee":595,"unparsedAddress":"945 McHugh Court, Ventura, CA 93003"}},{"type":"Feature","id":360840,"properties":{"cluster":true,"cluster_id":360840,"point_count":3,"point_count_abbreviated":3},"geometry":{"type":"Point","coordinates":[-119.2189407348633,34.26048260714575]}},{"type":"Feature","geometry":{"type":"Point","coordinates":[-119.219685,34.267719]},"properties":{"listingKey":"20251118213707638058000000","listingId":"V1-33448","listPrice":3795,"city":"Ventura","baths":2.5,"slug":"20251118213707638058000000","mlsSource":"CRMLS","propertyType":"B","propertySubType":"Single Family Residence","livingArea":2237,"unparsedAddress":"5451 Benjamin Court, Ventura, CA 93003"}},{"type":"Feature","geometry":{"type":"Point","coordinates":[-119.210361,34.263368]},"properties":{"listingKey":"20251015201718596382000000","listingId":"V1-32903","listPrice":769000,"city":"Ventura","baths":2,"slug":"20251015201718596382000000","mlsSource":"CRMLS","propertyType":"A","propertySubType":"Single Family Residence","livingArea":1254,"associationFee":195,"unparsedAddress":"6026 Sparrow Street, Ventura, CA 93003"}},{"type":"Feature","id":168584,"properties":{"cluster":true,"cluster_id":168584,"point_count":6,"point_count_abbreviated":6},"geometry":{"type":"Point","coordinates":[-119.21871095895767,34.26378706739155]}},{"type":"Feature","id":407304,"properties":{"cluster":true,"cluster_id":407304,"point_count":3,"point_count_abbreviated":3},"geometry":{"type":"Point","coordinates":[-119.21450793743134,34.26212007505019]}},{"type":"Feature","geometry":{"type":"Point","coordinates":[-119.204261,34.27083]},"properties":{"listingKey":"20250925225942003629000000","listingId":"V1-32552","listPrice":529900,"city":"Ventura","baths":1,"slug":"20250925225942003629000000","mlsSource":"CRMLS","propertyType":"A","propertySubType":"Condominium","livingArea":777,"associationFee":534,"unparsedAddress":"717 Thoreau Ln Lane, Ventura, CA 93003"}},{"type":"Feature","id":491368,"properties":{"cluster":true,"cluster_id":491368,"point_count":2,"point_count_abbreviated":2},"geometry":{"type":"Point","coordinates":[-119.20453816652298,34.25922936107834]}}]