[{"type":"Feature","geometry":{"type":"Point","coordinates":[-119.207218,34.183993]},"properties":{"listingKey":"20251118152133891792000000","listingId":"V1-33463","listPrice":830000,"city":"Oxnard","baths":2,"slug":"20251118152133891792000000","mlsSource":"CRMLS","propertyType":"A","propertySubType":"Single Family Residence","livingArea":1573,"unparsedAddress":"1530 Ambrose Avenue, Oxnard, CA 93035"}},{"type":"Feature","id":567240,"properties":{"cluster":true,"cluster_id":567240,"point_count":2,"point_count_abbreviated":2},"geometry":{"type":"Point","coordinates":[-119.21771854162216,34.185824293642085]}},{"type":"Feature","geometry":{"type":"Point","coordinates":[-119.207168,34.180011]},"properties":{"listingKey":"20250922212349362615000000","listingId":"V1-33025","listPrice":490000,"city":"Port Hueneme","baths":1.75,"slug":"20250922212349362615000000","mlsSource":"CRMLS","propertyType":"A","propertySubType":"Condominium","livingArea":1153,"associationFee":570,"unparsedAddress":"2708 Wendy Place, Port Hueneme, CA 93041"}},{"type":"Feature","id":137064,"properties":{"cluster":true,"cluster_id":137064,"point_count":6,"point_count_abbreviated":6},"geometry":{"type":"Point","coordinates":[-119.21833276748657,34.181422127375896]}},{"type":"Feature","id":140936,"properties":{"cluster":true,"cluster_id":140936,"point_count":4,"point_count_abbreviated":4},"geometry":{"type":"Point","coordinates":[-119.22052547335625,34.18028160933541]}},{"type":"Feature","id":644392,"properties":{"cluster":true,"cluster_id":644392,"point_count":2,"point_count_abbreviated":2},"geometry":{"type":"Point","coordinates":[-119.2104122042656,34.19481873157916]}},{"type":"Feature","geometry":{"type":"Point","coordinates":[-119.222623,34.186795]},"properties":{"listingKey":"20250815203257021780000000","listingId":"V1-31794","listPrice":885000,"city":"Oxnard","baths":2,"slug":"20250815203257021780000000","mlsSource":"CRMLS","propertyType":"A","propertySubType":"Condominium","livingArea":1700,"associationFee":742,"unparsedAddress":"1423 Windshore Way, Oxnard, CA 93035"}},{"type":"Feature","geometry":{"type":"Point","coordinates":[-119.217607,34.191744]},"properties":{"listingKey":"20251016232238806359000000","listingId":"V1-32916","listPrice":820000,"city":"Oxnard","baths":2,"slug":"20251016232238806359000000","mlsSource":"CRMLS","propertyType":"A","propertySubType":"Single Family Residence","livingArea":1616,"unparsedAddress":"3601 Schooner Walk, Oxnard, CA 93035"}},{"type":"Feature","id":543305,"properties":{"cluster":true,"cluster_id":543305,"point_count":2,"point_count_abbreviated":2},"geometry":{"type":"Point","coordinates":[-119.21213418245316,34.1912823057865]}},{"type":"Feature","geometry":{"type":"Point","coordinates":[-119.209935,34.189341]},"properties":{"listingKey":"20250723164249221847000000","listingId":"V1-31797","listPrice":775000,"city":"Oxnard","baths":1.5,"slug":"20250723164249221847000000","mlsSource":"CRMLS","propertyType":"A","propertySubType":"Single Family Residence","livingArea":1530,"associationFee":328,"unparsedAddress":"1161 Windward Way, Oxnard, CA 93035"}},{"type":"Feature","geometry":{"type":"Point","coordinates":[-119.202213,34.195747]},"properties":{"listingKey":"20250812203940563195000000","listingId":"V1-32222","listPrice":899900,"city":"Oxnard","baths":3,"slug":"20250812203940563195000000","mlsSource":"CRMLS","propertyType":"A","propertySubType":"Single Family Residence","livingArea":1947,"unparsedAddress":"623 NOVATO Drive, Oxnard, CA 93035"}}]