[{"type":"Feature","geometry":{"type":"Point","coordinates":[-118.208672,34.210621]},"properties":{"listingKey":"20251119214032119845000000","listingId":"P1-24995","listPrice":1500000,"city":"La Canada Flintridge","baths":1.5,"slug":"20251119214032119845000000","mlsSource":"CRMLS","propertyType":"A","propertySubType":"Single Family Residence","livingArea":1807,"unparsedAddress":"4563 Loma Vista Drive, La Canada Flintridge, CA 91011"}},{"type":"Feature","geometry":{"type":"Point","coordinates":[-118.206758,34.208222]},"properties":{"listingKey":"20251025152822314752000000","listingId":"P1-24697","listPrice":6000,"city":"La Canada Flintridge","baths":1.5,"slug":"20251025152822314752000000","mlsSource":"CRMLS","propertyType":"B","propertySubType":"Single Family Residence","livingArea":1182,"unparsedAddress":"1308 Salisbury Road, La Canada Flintridge, CA 91011"}},{"type":"Feature","geometry":{"type":"Point","coordinates":[-118.206322,34.198712]},"properties":{"listingKey":"20251013124320042845000000","listingId":"P1-24701","listPrice":4500000,"city":"La Canada Flintridge","baths":3.75,"slug":"20251013124320042845000000","mlsSource":"CRMLS","propertyType":"A","propertySubType":"Single Family Residence","livingArea":3883,"unparsedAddress":"1304 Padres Trail, La Canada Flintridge, CA 91011"}},{"type":"Feature","geometry":{"type":"Point","coordinates":[-118.204228,34.208618]},"properties":{"listingKey":"20251011033734644800000000","listingId":"P1-24514","listPrice":5300,"city":"La Canada Flintridge","baths":1.5,"slug":"20251011033734644800000000","mlsSource":"CRMLS","propertyType":"B","propertySubType":"Single Family Residence","livingArea":1597,"unparsedAddress":"4622 La Canada Blvd Boulevard, La Canada Flintridge, CA 91011"}},{"type":"Feature","geometry":{"type":"Point","coordinates":[-118.199694,34.209739]},"properties":{"listingKey":"20251108031538992039000000","listingId":"P1-24999","listPrice":2749000,"city":"La Canada Flintridge","baths":3.5,"slug":"20251108031538992039000000","mlsSource":"CRMLS","propertyType":"A","propertySubType":"Single Family Residence","livingArea":3311,"unparsedAddress":"941 Chehalem Road, La Canada Flintridge, CA 91011"}},{"type":"Feature","geometry":{"type":"Point","coordinates":[-118.196906,34.209725]},"properties":{"listingKey":"20251001212858341076000000","listingId":"P1-24545","listPrice":13000,"city":"La Canada Flintridge","baths":4.75,"slug":"20251001212858341076000000","mlsSource":"CRMLS","propertyType":"B","propertySubType":"Single Family Residence","livingArea":3730,"unparsedAddress":"825 Chehalem Road, La Canada Flintridge, CA 91011"}},{"type":"Feature","geometry":{"type":"Point","coordinates":[-118.197085,34.206981]},"properties":{"listingKey":"20251120000500318337000000","listingId":"P1-24987","listPrice":7900,"city":"La Canada Flintridge","baths":3,"slug":"20251120000500318337000000","mlsSource":"CRMLS","propertyType":"B","propertySubType":"Single Family Residence","livingArea":2220,"unparsedAddress":"827 Parkman Drive, La Canada Flintridge, CA 91011"}},{"type":"Feature","geometry":{"type":"Point","coordinates":[-118.192704,34.215001]},"properties":{"listingKey":"20250922183726308415000000","listingId":"GD-25218244","listPrice":5900,"city":"La Canada Flintridge","baths":3,"slug":"20250922183726308415000000","mlsSource":"CRMLS","propertyType":"B","propertySubType":"Single Family Residence","livingArea":1737,"associationFee":0,"unparsedAddress":"5271 Gould Avenue, La Canada Flintridge, CA 91011"}}]