[{"type":"Feature","geometry":{"type":"Point","coordinates":[-118.212588,33.914179]},"properties":{"listingKey":"20250814065557410785000000","listingId":"RS-25183254","listPrice":849000,"city":"Lynwood","baths":0,"slug":"20250814065557410785000000","mlsSource":"CRMLS","propertyType":"C","propertySubType":"Triplex","livingArea":2313,"unparsedAddress":"3226 Palm Avenue, Lynwood, CA 90262"}},{"type":"Feature","geometry":{"type":"Point","coordinates":[-118.195524,33.912999]},"properties":{"listingKey":"20251029051349110135000000","listingId":"DW-25249408","listPrice":840000,"city":"Lynwood","baths":2,"slug":"20251029051349110135000000","mlsSource":"CRMLS","propertyType":"A","propertySubType":"Single Family Residence","livingArea":1674,"associationFee":0,"unparsedAddress":"4221 Alvada, Lynwood, CA 90262"}},{"type":"Feature","geometry":{"type":"Point","coordinates":[-118.204523,33.909735]},"properties":{"listingKey":"20251012001310994353000000","listingId":"PW-25237884","listPrice":680000,"city":"Compton","baths":2,"slug":"20251012001310994353000000","mlsSource":"CRMLS","propertyType":"A","propertySubType":"Single Family Residence","livingArea":1462,"associationFee":0,"unparsedAddress":"1612 East Stockton, Compton, CA 90221"}},{"type":"Feature","geometry":{"type":"Point","coordinates":[-118.212332,33.911845]},"properties":{"listingKey":"20251101034002456749000000","listingId":"RS-25251769","listPrice":569000,"city":"Compton","baths":1,"slug":"20251101034002456749000000","mlsSource":"CRMLS","propertyType":"A","propertySubType":"Single Family Residence","livingArea":884,"associationFee":0,"unparsedAddress":"1010 East Stockton, Compton, CA 90221"}},{"type":"Feature","id":125384,"properties":{"cluster":true,"cluster_id":125384,"point_count":2,"point_count_abbreviated":2},"geometry":{"type":"Point","coordinates":[-118.19751352071762,33.90890345754998]}},{"type":"Feature","id":526376,"properties":{"cluster":true,"cluster_id":526376,"point_count":2,"point_count_abbreviated":2},"geometry":{"type":"Point","coordinates":[-118.1934043765068,33.91311055785863]}},{"type":"Feature","geometry":{"type":"Point","coordinates":[-118.192551,33.919564]},"properties":{"listingKey":"20251107054553872469000000","listingId":"DW-25255865","listPrice":615000,"city":"Lynwood","baths":2,"slug":"20251107054553872469000000","mlsSource":"CRMLS","propertyType":"A","propertySubType":"Single Family Residence","livingArea":893,"associationFee":0,"unparsedAddress":"4236 Cortland Street, Lynwood, CA 90262"}},{"type":"Feature","geometry":{"type":"Point","coordinates":[-118.202028,33.910608]},"properties":{"listingKey":"20251112174146158405000000","listingId":"WS-25258898","listPrice":749000,"city":"Compton","baths":3,"slug":"20251112174146158405000000","mlsSource":"CRMLS","propertyType":"A","propertySubType":"Single Family Residence","livingArea":1220,"associationFee":0,"unparsedAddress":"1809 East Orchard, Compton, CA 90221"}},{"type":"Feature","geometry":{"type":"Point","coordinates":[-118.209092,33.918897]},"properties":{"listingKey":"20251116024531934235000000","listingId":"OC-25261318","listPrice":999999,"city":"Lynwood","baths":0,"slug":"20251116024531934235000000","mlsSource":"CRMLS","propertyType":"C","propertySubType":"Commercial/Residential","livingArea":3016,"associationFee":0,"unparsedAddress":"12008 Long Beach Boulevard, Lynwood, CA 90262"}},{"type":"Feature","geometry":{"type":"Point","coordinates":[-118.197814,33.914103]},"properties":{"listingKey":"20251015180607244673000000","listingId":"DW-25239401","listPrice":830000,"city":"Lynwood","baths":2,"slug":"20251015180607244673000000","mlsSource":"CRMLS","propertyType":"A","propertySubType":"Single Family Residence","livingArea":1929,"associationFee":0,"unparsedAddress":"12120 Muriel, Lynwood, CA 90262"}},{"type":"Feature","geometry":{"type":"Point","coordinates":[-118.198774,33.921328]},"properties":{"listingKey":"20250930045956038273000000","listingId":"IG-25228077","listPrice":753999,"city":"Lynwood","baths":2,"slug":"20250930045956038273000000","mlsSource":"CRMLS","propertyType":"A","propertySubType":"Single Family Residence","livingArea":1292,"associationFee":0,"unparsedAddress":"3886 Cortland Street, Lynwood, CA 90262"}},{"type":"Feature","geometry":{"type":"Point","coordinates":[-118.198149,33.91776]},"properties":{"listingKey":"20251113225921234164000000","listingId":"DW-25260075","listPrice":699900,"city":"Lynwood","baths":1,"slug":"20251113225921234164000000","mlsSource":"CRMLS","propertyType":"A","propertySubType":"Single Family Residence","livingArea":919,"associationFee":0,"unparsedAddress":"4026 Josephine, Lynwood, CA 90262"}},{"type":"Feature","geometry":{"type":"Point","coordinates":[-118.20187,33.907496]},"properties":{"listingKey":"20250923042138001296000000","listingId":"DW-25223184","listPrice":699999,"city":"Compton","baths":2,"slug":"20250923042138001296000000","mlsSource":"CRMLS","propertyType":"A","propertySubType":"Single Family Residence","livingArea":1446,"associationFee":0,"unparsedAddress":"1913 East McMillan, Compton, CA 90221"}},{"type":"Feature","geometry":{"type":"Point","coordinates":[-118.211196,33.92118]},"properties":{"listingKey":"20251112232114531117000000","listingId":"DW-25251786","listPrice":1360000,"city":"Lynwood","baths":2,"slug":"20251112232114531117000000","mlsSource":"CRMLS","propertyType":"A","propertySubType":"Single Family Residence","livingArea":1897,"associationFee":0,"unparsedAddress":"3356 Josephine, Lynwood, CA 90262"}}]