[{"type":"Feature","id":837481,"properties":{"cluster":true,"cluster_id":837481,"point_count":2,"point_count_abbreviated":2},"geometry":{"type":"Point","coordinates":[-118.2090899348259,33.89281216575914]}},{"type":"Feature","geometry":{"type":"Point","coordinates":[-118.203693,33.893216]},"properties":{"listingKey":"20251009162741294137000000","listingId":"IG-25236002","listPrice":674900,"city":"Compton","baths":2,"slug":"20251009162741294137000000","mlsSource":"CRMLS","propertyType":"A","propertySubType":"Single Family Residence","livingArea":1044,"associationFee":0,"unparsedAddress":"405 South Bradfield Avenue, Compton, CA 90221"}},{"type":"Feature","geometry":{"type":"Point","coordinates":[-118.192859,33.899082]},"properties":{"listingKey":"20251023033735831115000000","listingId":"IG-25245536","listPrice":500000,"city":"Compton","baths":1,"slug":"20251023033735831115000000","mlsSource":"CRMLS","propertyType":"A","propertySubType":"Single Family Residence","livingArea":937,"associationFee":0,"unparsedAddress":"14713 South Lime, Compton, CA 90221"}},{"type":"Feature","geometry":{"type":"Point","coordinates":[-118.200654,33.905562]},"properties":{"listingKey":"20251007044651257041000000","listingId":"DW-25234008","listPrice":720000,"city":"Compton","baths":2.5,"slug":"20251007044651257041000000","mlsSource":"CRMLS","propertyType":"A","propertySubType":"Single Family Residence","livingArea":1928,"associationFee":242,"unparsedAddress":"1352 North Dolanna Drive, Compton, CA 90221"}},{"type":"Feature","geometry":{"type":"Point","coordinates":[-118.209437,33.901865]},"properties":{"listingKey":"20250909041816960126000000","listingId":"IV-25203202","listPrice":600000,"city":"Compton","baths":2.5,"slug":"20250909041816960126000000","mlsSource":"CRMLS","propertyType":"A","propertySubType":"Single Family Residence","livingArea":1757,"associationFee":0,"unparsedAddress":"812 North Poinsettia Avenue, Compton, CA 90221"}},{"type":"Feature","geometry":{"type":"Point","coordinates":[-118.191423,33.896447]},"properties":{"listingKey":"20251010191805181877000000","listingId":"TR-25218497","listPrice":1270000,"city":"Compton","baths":0,"slug":"20251010191805181877000000","mlsSource":"CRMLS","propertyType":"C","propertySubType":"Apartment","livingArea":3656,"unparsedAddress":"4623 Compton Blvd, Compton, CA 90221"}},{"type":"Feature","id":497576,"properties":{"cluster":true,"cluster_id":497576,"point_count":2,"point_count_abbreviated":2},"geometry":{"type":"Point","coordinates":[-118.19892972707748,33.897380727182295]}}]