[{"type":"Feature","id":977417,"properties":{"cluster":true,"cluster_id":977417,"point_count":2,"point_count_abbreviated":2},"geometry":{"type":"Point","coordinates":[-118.19244146347046,33.79746672003222]}},{"type":"Feature","id":535112,"properties":{"cluster":true,"cluster_id":535112,"point_count":3,"point_count_abbreviated":3},"geometry":{"type":"Point","coordinates":[-118.19910407066345,33.800434130718784]}},{"type":"Feature","geometry":{"type":"Point","coordinates":[-118.200993,33.802277]},"properties":{"listingKey":"20251101173345641353000000","listingId":"OC-25251300","listPrice":920000,"city":"Long Beach","baths":1,"slug":"20251101173345641353000000","mlsSource":"CRMLS","propertyType":"A","propertySubType":"Single Family Residence","livingArea":1245,"associationFee":0,"unparsedAddress":"2480 Oregon Avenue, Long Beach, CA 90806"}},{"type":"Feature","id":767177,"properties":{"cluster":true,"cluster_id":767177,"point_count":2,"point_count_abbreviated":2},"geometry":{"type":"Point","coordinates":[-118.20357263088226,33.80635527119287]}},{"type":"Feature","geometry":{"type":"Point","coordinates":[-118.195569,33.809131]},"properties":{"listingKey":"20250828222926761968000000","listingId":"PW-25193003","listPrice":1100000,"city":"Long Beach","baths":2,"slug":"20250828222926761968000000","mlsSource":"CRMLS","propertyType":"A","propertySubType":"Single Family Residence","livingArea":1715,"associationFee":0,"unparsedAddress":"2860 Chestnut Avenue, Long Beach, CA 90806"}},{"type":"Feature","geometry":{"type":"Point","coordinates":[-118.198381,33.809965]},"properties":{"listingKey":"20250908022906131344000000","listingId":"SB-25201315","listPrice":1119000,"city":"Long Beach","baths":2.75,"slug":"20250908022906131344000000","mlsSource":"CRMLS","propertyType":"A","propertySubType":"Single Family Residence","livingArea":2042,"associationFee":0,"unparsedAddress":"2905 Magnolia Avenue, Long Beach, CA 90806"}},{"type":"Feature","geometry":{"type":"Point","coordinates":[-118.203757,33.810364]},"properties":{"listingKey":"20250830075410095946000000","listingId":"DW-25193110","listPrice":925000,"city":"Long Beach","baths":1.75,"slug":"20250830075410095946000000","mlsSource":"CRMLS","propertyType":"A","propertySubType":"Single Family Residence","livingArea":1846,"associationFee":0,"unparsedAddress":"2925 San Francisco Avenue, Long Beach, CA 90806"}}]