[{"type":"Feature","id":113480,"properties":{"cluster":true,"cluster_id":113480,"point_count":3,"point_count_abbreviated":3},"geometry":{"type":"Point","coordinates":[-117.44568228721619,34.017249746493846]}},{"type":"Feature","geometry":{"type":"Point","coordinates":[-117.42966,34.018297]},"properties":{"listingKey":"20250809183904830364000000","listingId":"IV-25179779","listPrice":859999,"city":"Jurupa Valley","baths":4,"slug":"20250809183904830364000000","mlsSource":"CRMLS","propertyType":"A","propertySubType":"Single Family Residence","livingArea":3108,"associationFee":0,"unparsedAddress":"3325 Quarry Drive, Jurupa Valley, CA 92509"}},{"type":"Feature","geometry":{"type":"Point","coordinates":[-117.430979,34.051854]},"properties":{"listingKey":"20251106074110273871000000","listingId":"CV-25255060","listPrice":669000,"city":"Fontana","baths":2,"slug":"20251106074110273871000000","mlsSource":"CRMLS","propertyType":"A","propertySubType":"Single Family Residence","livingArea":1807,"associationFee":0,"unparsedAddress":"17108 Red Ash Court, Fontana, CA 92337"}},{"type":"Feature","geometry":{"type":"Point","coordinates":[-117.432406,34.044943]},"properties":{"listingKey":"20251101181326429766000000","listingId":"SW-25250539","listPrice":729000,"city":"Fontana","baths":2.5,"slug":"20251101181326429766000000","mlsSource":"CRMLS","propertyType":"A","propertySubType":"Single Family Residence","livingArea":2473,"associationFee":0,"unparsedAddress":"17049 La Vesu Rd., Fontana, CA 92337"}},{"type":"Feature","id":146439,"properties":{"cluster":true,"cluster_id":146439,"point_count":4,"point_count_abbreviated":4},"geometry":{"type":"Point","coordinates":[-117.44865953922272,34.04597678428517]}},{"type":"Feature","id":148007,"properties":{"cluster":true,"cluster_id":148007,"point_count":6,"point_count_abbreviated":6},"geometry":{"type":"Point","coordinates":[-117.46239423751832,34.04528856350021]}}]