[{"type":"Feature","geometry":{"type":"Point","coordinates":[-118.375618,33.867353]},"properties":{"listingKey":"20250918011525088824000000","listingId":"SB-25217479","listPrice":6100,"city":"Redondo Beach","baths":2.5,"slug":"20250918011525088824000000","mlsSource":"CRMLS","propertyType":"B","propertySubType":"Townhouse","livingArea":2320,"associationFee":0,"unparsedAddress":"2015 Harriman Lane, B, Redondo Beach, CA 90278"}},{"type":"Feature","geometry":{"type":"Point","coordinates":[-118.375124,33.865896]},"properties":{"listingKey":"20251011204805471524000000","listingId":"PV-25225335","listPrice":1960000,"city":"Redondo Beach","baths":3.5,"slug":"20251011204805471524000000","mlsSource":"CRMLS","propertyType":"A","propertySubType":"Townhouse","livingArea":2793,"associationFee":0,"unparsedAddress":"2020 Clark Lane, B, Redondo Beach, CA 90278"}},{"type":"Feature","geometry":{"type":"Point","coordinates":[-118.371734,33.866836]},"properties":{"listingKey":"20251113043419601681000000","listingId":"SB-25257082","listPrice":1585000,"city":"Redondo Beach","baths":2.5,"slug":"20251113043419601681000000","mlsSource":"CRMLS","propertyType":"A","propertySubType":"Townhouse","livingArea":2238,"associationFee":215,"unparsedAddress":"2210 Harriman, A, Redondo Beach, CA 90278"}},{"type":"Feature","id":308393,"properties":{"cluster":true,"cluster_id":308393,"point_count":3,"point_count_abbreviated":3},"geometry":{"type":"Point","coordinates":[-118.3711391687393,33.865489199448064]}},{"type":"Feature","id":207305,"properties":{"cluster":true,"cluster_id":207305,"point_count":2,"point_count_abbreviated":2},"geometry":{"type":"Point","coordinates":[-118.3774870634079,33.86932874919408]}},{"type":"Feature","geometry":{"type":"Point","coordinates":[-118.371408,33.868705]},"properties":{"listingKey":"20251107184417062256000000","listingId":"SB-25256121","listPrice":2800,"city":"Redondo Beach","baths":1,"slug":"20251107184417062256000000","mlsSource":"CRMLS","propertyType":"B","propertySubType":"Apartment","livingArea":711,"associationFee":0,"unparsedAddress":"2214 Grant Avenue, 2, Redondo Beach, CA 90278"}},{"type":"Feature","geometry":{"type":"Point","coordinates":[-118.367518,33.864753]},"properties":{"listingKey":"20251021230930662956000000","listingId":"SB-25243773","listPrice":1399000,"city":"Redondo Beach","baths":1,"slug":"20251021230930662956000000","mlsSource":"CRMLS","propertyType":"A","propertySubType":"Single Family Residence","livingArea":1220,"associationFee":0,"unparsedAddress":"2407 Ripley Avenue, Redondo Beach, CA 90278"}},{"type":"Feature","geometry":{"type":"Point","coordinates":[-118.368335,33.865908]},"properties":{"listingKey":"20250708170001014268000000","listingId":"SB-25144563","listPrice":7500,"city":"Redondo Beach","baths":3,"slug":"20250708170001014268000000","mlsSource":"CRMLS","propertyType":"B","propertySubType":"Single Family Residence","livingArea":2800,"unparsedAddress":"1208 Mackay Lane, Redondo Beach, CA 90278"}}]