[{"type":"Feature","geometry":{"type":"Point","coordinates":[-116.857839,34.231032]},"properties":{"listingKey":"20250611141826577674000000","listingId":"219131344","listPrice":549000,"city":"Big Bear Lake","baths":2,"slug":"20250611141826577674000000","mlsSource":"GPS","propertyType":"A","propertySubType":"Single Family Residence","livingArea":1228,"associationFee":0,"unparsedAddress":"43289 Shasta Road, Big Bear Lake, CA 92315"}},{"type":"Feature","geometry":{"type":"Point","coordinates":[-116.861378,34.231549]},"properties":{"listingKey":"20250816194122798101000000","listingId":"PW-25179289","listPrice":575000,"city":"Big Bear Lake","baths":2.75,"slug":"20250816194122798101000000","mlsSource":"CRMLS","propertyType":"A","propertySubType":"Condominium","livingArea":1785,"associationFee":595,"unparsedAddress":"43091 Bear Creek Court, Big Bear Lake, CA 92315"}},{"type":"Feature","geometry":{"type":"Point","coordinates":[-116.855167,34.233384]},"properties":{"listingKey":"20250918101421988676000000","listingId":"TR-25220055","listPrice":549999,"city":"Big Bear Lake","baths":2,"slug":"20250918101421988676000000","mlsSource":"CRMLS","propertyType":"A","propertySubType":"Single Family Residence","livingArea":1215,"associationFee":0,"unparsedAddress":"43407 Sand Canyon Rd, Big Bear Lake, CA 92315"}},{"type":"Feature","geometry":{"type":"Point","coordinates":[-116.851646,34.23056]},"properties":{"listingKey":"20250912041744972317000000","listingId":"DW-25213960","listPrice":410000,"city":"Big Bear Lake","baths":1,"slug":"20250912041744972317000000","mlsSource":"CRMLS","propertyType":"A","propertySubType":"Single Family Residence","livingArea":660,"associationFee":0,"unparsedAddress":"1163 Teton Dr, Big Bear Lake, CA 92315"}},{"type":"Feature","id":237833,"properties":{"cluster":true,"cluster_id":237833,"point_count":2,"point_count_abbreviated":2},"geometry":{"type":"Point","coordinates":[-116.85457438230515,34.23089776884272]}}]