[{"type":"Feature","geometry":{"type":"Point","coordinates":[-119.045575,34.364908]},"properties":{"listingKey":"20251009154855466706000000","listingId":"IG-25235995","listPrice":738951,"city":"Santa Paula","baths":2.5,"slug":"20251009154855466706000000","mlsSource":"CRMLS","propertyType":"A","propertySubType":"Condominium","livingArea":1800,"associationFee":272,"unparsedAddress":"1865 Jojoba Drive, Santa Paula, CA 93060"}},{"type":"Feature","geometry":{"type":"Point","coordinates":[-119.039403,34.365874]},"properties":{"listingKey":"20251023221450171921000000","listingId":"V1-33045","listPrice":849000,"city":"Santa Paula","baths":2,"slug":"20251023221450171921000000","mlsSource":"CRMLS","propertyType":"A","propertySubType":"Single Family Residence","livingArea":1950,"associationFee":250,"unparsedAddress":"389 Eureka Drive, Santa Paula, CA 93060"}},{"type":"Feature","geometry":{"type":"Point","coordinates":[-119.039156,34.366916]},"properties":{"listingKey":"20251114224007073663000000","listingId":"V1-33400","listPrice":849990,"city":"Santa Paula","baths":2,"slug":"20251114224007073663000000","mlsSource":"CRMLS","propertyType":"A","propertySubType":"Single Family Residence","livingArea":1968,"associationFee":250,"unparsedAddress":"425 Eureka Drive, Santa Paula, CA 93060"}},{"type":"Feature","geometry":{"type":"Point","coordinates":[-119.040857,34.366444]},"properties":{"listingKey":"20250819074211173854000000","listingId":"SW-25181286","listPrice":755000,"city":"Santa Paula","baths":2.5,"slug":"20250819074211173854000000","mlsSource":"CRMLS","propertyType":"A","propertySubType":"Single Family Residence","livingArea":2228,"associationFee":250,"unparsedAddress":"427 Lisbon Place, Santa Paula, CA 93060"}},{"type":"Feature","geometry":{"type":"Point","coordinates":[-119.041041,34.365163]},"properties":{"listingKey":"20250910223751860047000000","listingId":"V1-32517","listPrice":794995,"city":"Santa Paula","baths":2.5,"slug":"20250910223751860047000000","mlsSource":"CRMLS","propertyType":"A","propertySubType":"Single Family Residence","livingArea":2377,"associationFee":250,"unparsedAddress":"354 autumn path Lane, Santa Paula, CA 93060"}},{"type":"Feature","geometry":{"type":"Point","coordinates":[-119.044403,34.363703]},"properties":{"listingKey":"20250816202211089601000000","listingId":"V1-31806","listPrice":680000,"city":"Santa Paula","baths":2.5,"slug":"20250816202211089601000000","mlsSource":"CRMLS","propertyType":"A","propertySubType":"Single Family Residence","livingArea":1670,"associationFee":314,"unparsedAddress":"344 Campbell Court, Santa Paula, CA 93060"}},{"type":"Feature","id":689129,"properties":{"cluster":true,"cluster_id":689129,"point_count":2,"point_count_abbreviated":2},"geometry":{"type":"Point","coordinates":[-119.0447723865509,34.368059046224005]}}]