[{"type":"Feature","geometry":{"type":"Point","coordinates":[-120.9748,37.581868]},"properties":{"listingKey":"20251110222416565203000000","listingId":"MC-25257690","listPrice":419900,"city":"Ceres","baths":2.5,"slug":"20251110222416565203000000","mlsSource":"CRMLS","propertyType":"A","propertySubType":"Single Family Residence","livingArea":1630,"associationFee":0,"unparsedAddress":"1305 Tranquil, Ceres, CA 95307"}},{"type":"Feature","id":174597,"properties":{"cluster":true,"cluster_id":174597,"point_count":2,"point_count_abbreviated":2},"geometry":{"type":"Point","coordinates":[-120.94388365745544,37.66202134379495]}},{"type":"Feature","id":182309,"properties":{"cluster":true,"cluster_id":182309,"point_count":2,"point_count_abbreviated":2},"geometry":{"type":"Point","coordinates":[-121.03206664323807,37.687585883157325]}},{"type":"Feature","geometry":{"type":"Point","coordinates":[-120.941518,37.614497]},"properties":{"listingKey":"20251105030648990763000000","listingId":"01-41116690","listPrice":585000,"city":"Modesto","baths":2.5,"slug":"20251105030648990763000000","mlsSource":"CRMLS","propertyType":"A","propertySubType":"Single Family Residence","livingArea":1892,"unparsedAddress":"1210 Snow Ridge Ct, Modesto, CA 95351"}},{"type":"Feature","geometry":{"type":"Point","coordinates":[-120.997824,37.692077]},"properties":{"listingKey":"20251101015919412647000000","listingId":"MC-25251584","listPrice":545000,"city":"Modesto","baths":2,"slug":"20251101015919412647000000","mlsSource":"CRMLS","propertyType":"A","propertySubType":"Single Family Residence","livingArea":1608,"associationFee":0,"unparsedAddress":"3728 Fuchsia Lane, Modesto, CA 95356"}},{"type":"Feature","geometry":{"type":"Point","coordinates":[-121.080292,37.716189]},"properties":{"listingKey":"20251008220016941123000000","listingId":"PW-25235506","listPrice":540000,"city":"Salida","baths":2,"slug":"20251008220016941123000000","mlsSource":"CRMLS","propertyType":"A","propertySubType":"Single Family Residence","livingArea":1826,"associationFee":0,"unparsedAddress":"5301 Brimfield, Salida, CA 95368"}},{"type":"Feature","geometry":{"type":"Point","coordinates":[-120.979438,37.640273]},"properties":{"listingKey":"20250708061547495218000000","listingId":"FR-25151887","listPrice":346000,"city":"Modesto","baths":1,"slug":"20250708061547495218000000","mlsSource":"CRMLS","propertyType":"A","propertySubType":"Single Family Residence","livingArea":725,"associationFee":0,"unparsedAddress":"136 Village Road, Modesto, CA 95354"}},{"type":"Feature","geometry":{"type":"Point","coordinates":[-121.010682,37.67335]},"properties":{"listingKey":"20251018082408188753000000","listingId":"PW-25242497","listPrice":379900,"city":"Modesto","baths":1.75,"slug":"20251018082408188753000000","mlsSource":"CRMLS","propertyType":"A","propertySubType":"Single Family Residence","livingArea":1134,"associationFee":0,"unparsedAddress":"2017 Monticello, Modesto, CA 95350"}},{"type":"Feature","geometry":{"type":"Point","coordinates":[-121.020822,37.702779]},"properties":{"listingKey":"20251028014735850845000000","listingId":"01-41115964","listPrice":749990,"city":"Modesto","baths":2.5,"slug":"20251028014735850845000000","mlsSource":"CRMLS","propertyType":"A","propertySubType":"Single Family Residence","livingArea":2471,"unparsedAddress":"1605 Radiance Ln, Modesto, CA 95356"}},{"type":"Feature","geometry":{"type":"Point","coordinates":[-120.999365,37.600275]},"properties":{"listingKey":"20251001030212933281000000","listingId":"MC-25229050","listPrice":406660,"city":"Modesto","baths":2,"slug":"20251001030212933281000000","mlsSource":"CRMLS","propertyType":"A","propertySubType":"Single Family Residence","livingArea":1256,"associationFee":0,"unparsedAddress":"505 Mount Everest, Modesto, CA 95358"}},{"type":"Feature","geometry":{"type":"Point","coordinates":[-120.950545,37.58226]},"properties":{"listingKey":"20250827041315494891000000","listingId":"MC-25192900","listPrice":365000,"city":"Ceres","baths":1,"slug":"20250827041315494891000000","mlsSource":"CRMLS","propertyType":"A","propertySubType":"Single Family Residence","livingArea":1118,"associationFee":0,"unparsedAddress":"3817 Collins Road, Ceres, CA 95307"}}]