[{"type":"Feature","id":204007,"properties":{"cluster":true,"cluster_id":204007,"point_count":3,"point_count_abbreviated":3},"geometry":{"type":"Point","coordinates":[-117.72566735744476,33.9875722468157]}},{"type":"Feature","geometry":{"type":"Point","coordinates":[-117.720798,33.983927]},"properties":{"listingKey":"20251106222007965866000000","listingId":"CV-25255428","listPrice":2800,"city":"Chino Hills","baths":2,"slug":"20251106222007965866000000","mlsSource":"CRMLS","propertyType":"B","propertySubType":"Single Family Residence","livingArea":1200,"associationFee":0,"unparsedAddress":"14823 Maywood Drive, Chino Hills, CA 91709"}},{"type":"Feature","geometry":{"type":"Point","coordinates":[-117.713768,33.979871]},"properties":{"listingKey":"20251112163501395317000000","listingId":"TR-25258763","listPrice":728000,"city":"Chino Hills","baths":2.5,"slug":"20251112163501395317000000","mlsSource":"CRMLS","propertyType":"A","propertySubType":"Single Family Residence","livingArea":1216,"associationFee":215,"unparsedAddress":"4160 Ironwood, Chino Hills, CA 91709"}},{"type":"Feature","id":475367,"properties":{"cluster":true,"cluster_id":475367,"point_count":3,"point_count_abbreviated":3},"geometry":{"type":"Point","coordinates":[-117.72568702697752,33.980544187886466]}},{"type":"Feature","id":396583,"properties":{"cluster":true,"cluster_id":396583,"point_count":2,"point_count_abbreviated":2},"geometry":{"type":"Point","coordinates":[-117.70830273628235,34.01603735255631]}},{"type":"Feature","geometry":{"type":"Point","coordinates":[-117.69519,34.013114]},"properties":{"listingKey":"20251113005630752765000000","listingId":"DW-25259433","listPrice":835000,"city":"Chino","baths":0,"slug":"20251113005630752765000000","mlsSource":"CRMLS","propertyType":"C","propertySubType":"Triplex","livingArea":2100,"unparsedAddress":"13223 3rd Street, Chino, CA 91710"}},{"type":"Feature","geometry":{"type":"Point","coordinates":[-117.71878,34.004629]},"properties":{"listingKey":"20250928034215603289000000","listingId":"TR-25226971","listPrice":789000,"city":"Chino","baths":2,"slug":"20250928034215603289000000","mlsSource":"CRMLS","propertyType":"A","propertySubType":"Single Family Residence","livingArea":1880,"associationFee":75,"unparsedAddress":"3947 Jose, Chino, CA 91710"}},{"type":"Feature","geometry":{"type":"Point","coordinates":[-117.711225,34.005483]},"properties":{"listingKey":"20251016190953795420000000","listingId":"IV-25240525","listPrice":790000,"city":"Chino","baths":2,"slug":"20251016190953795420000000","mlsSource":"CRMLS","propertyType":"A","propertySubType":"Single Family Residence","livingArea":1580,"associationFee":0,"unparsedAddress":"13640 Norton, Chino, CA 91710"}},{"type":"Feature","geometry":{"type":"Point","coordinates":[-117.723883,34.002931]},"properties":{"listingKey":"20250915063025023452000000","listingId":"TR-25217173","listPrice":499000,"city":"Chino","baths":2,"slug":"20250915063025023452000000","mlsSource":"CRMLS","propertyType":"A","propertySubType":"Condominium","livingArea":941,"associationFee":375,"unparsedAddress":"13798 Roswell Ave., #A268, Chino, CA 91710"}}]