[{"type":"Feature","geometry":{"type":"Point","coordinates":[-117.691107,33.879448]},"properties":{"listingKey":"20251013172928036167000000","listingId":"NP-25236153","listPrice":1395000,"city":"Yorba Linda","baths":2.5,"slug":"20251013172928036167000000","mlsSource":"CRMLS","propertyType":"A","propertySubType":"Single Family Residence","livingArea":2335,"associationFee":0,"unparsedAddress":"28685 Morning Dew Way, Yorba Linda, CA 92887"}},{"type":"Feature","geometry":{"type":"Point","coordinates":[-117.712206,33.880468]},"properties":{"listingKey":"20250917172554246075000000","listingId":"PW-25218902","listPrice":915000,"city":"Yorba Linda","baths":2.5,"slug":"20250917172554246075000000","mlsSource":"CRMLS","propertyType":"A","propertySubType":"Townhouse","livingArea":1931,"associationFee":686,"unparsedAddress":"5527 Patricia Way, Yorba Linda, CA 92887"}},{"type":"Feature","id":194567,"properties":{"cluster":true,"cluster_id":194567,"point_count":5,"point_count_abbreviated":5},"geometry":{"type":"Point","coordinates":[-117.70611298084259,33.87576562076163]}},{"type":"Feature","id":676071,"properties":{"cluster":true,"cluster_id":676071,"point_count":2,"point_count_abbreviated":2},"geometry":{"type":"Point","coordinates":[-117.70842343568802,33.88812757770978]}},{"type":"Feature","geometry":{"type":"Point","coordinates":[-117.717385,33.87832]},"properties":{"listingKey":"20251021225048802263000000","listingId":"OC-25239548","listPrice":1998000,"city":"Yorba Linda","baths":3.5,"slug":"20251021225048802263000000","mlsSource":"CRMLS","propertyType":"A","propertySubType":"Single Family Residence","livingArea":3134,"associationFee":0,"unparsedAddress":"24670 Paseo De Toronto, Yorba Linda, CA 92887"}},{"type":"Feature","id":166407,"properties":{"cluster":true,"cluster_id":166407,"point_count":3,"point_count_abbreviated":3},"geometry":{"type":"Point","coordinates":[-117.70018815994264,33.87670744537853]}},{"type":"Feature","geometry":{"type":"Point","coordinates":[-117.712642,33.874805]},"properties":{"listingKey":"20250820181807226278000000","listingId":"PW-25186919","listPrice":1375000,"city":"Yorba Linda","baths":2.75,"slug":"20250820181807226278000000","mlsSource":"CRMLS","propertyType":"A","propertySubType":"Single Family Residence","livingArea":2453,"associationFee":140,"unparsedAddress":"23964 Old Pomegranate Road, Yorba Linda, CA 92887"}},{"type":"Feature","geometry":{"type":"Point","coordinates":[-117.70367,33.889025]},"properties":{"listingKey":"20250826133833255091000000","listingId":"WS-25191002","listPrice":3498800,"city":"Yorba Linda","baths":4.5,"slug":"20250826133833255091000000","mlsSource":"CRMLS","propertyType":"A","propertySubType":"Single Family Residence","livingArea":4625,"associationFee":0,"unparsedAddress":"27170 Big Horn Mountain Way, Yorba Linda, CA 92887"}},{"type":"Feature","id":369863,"properties":{"cluster":true,"cluster_id":369863,"point_count":3,"point_count_abbreviated":3},"geometry":{"type":"Point","coordinates":[-117.7246016263962,33.872111052811775]}}]