[{"type":"Feature","geometry":{"type":"Point","coordinates":[-119.206275,34.295678]},"properties":{"listingKey":"20250826012541361444000000","listingId":"V1-32138","listPrice":2195000,"city":"Ventura","baths":3,"slug":"20250826012541361444000000","mlsSource":"CRMLS","propertyType":"A","propertySubType":"Single Family Residence","livingArea":1971,"unparsedAddress":"978 Colina Vista, Ventura, CA 93003"}},{"type":"Feature","geometry":{"type":"Point","coordinates":[-119.208591,34.294676]},"properties":{"listingKey":"20250904000016411230000000","listingId":"V1-32135","listPrice":1250000,"city":"Ventura","baths":2.5,"slug":"20250904000016411230000000","mlsSource":"CRMLS","propertyType":"A","propertySubType":"Single Family Residence","livingArea":2537,"unparsedAddress":"1018 Via Arroyo, Ventura, CA 93003"}},{"type":"Feature","id":966217,"properties":{"cluster":true,"cluster_id":966217,"point_count":2,"point_count_abbreviated":2},"geometry":{"type":"Point","coordinates":[-119.2078748345375,34.29292306112099]}},{"type":"Feature","geometry":{"type":"Point","coordinates":[-119.206565,34.293285]},"properties":{"listingKey":"20251120014823252371000000","listingId":"V1-33466","listPrice":2385000,"city":"Ventura","baths":3.5,"slug":"20251120014823252371000000","mlsSource":"CRMLS","propertyType":"A","propertySubType":"Single Family Residence","livingArea":2454,"unparsedAddress":"890 Via Ondulando, Ventura, CA 93003"}},{"type":"Feature","geometry":{"type":"Point","coordinates":[-119.209581,34.291669]},"properties":{"listingKey":"20250817195521050946000000","listingId":"V1-31831","listPrice":2680000,"city":"Ventura","baths":3.5,"slug":"20250817195521050946000000","mlsSource":"CRMLS","propertyType":"A","propertySubType":"Single Family Residence","livingArea":3014,"unparsedAddress":"708 Skyview Terrace, Ventura, CA 93003"}}]