[{"type":"Feature","geometry":{"type":"Point","coordinates":[-119.209935,34.189341]},"properties":{"listingKey":"20250723164249221847000000","listingId":"V1-31797","listPrice":775000,"city":"Oxnard","baths":1.5,"slug":"20250723164249221847000000","mlsSource":"CRMLS","propertyType":"A","propertySubType":"Single Family Residence","livingArea":1530,"associationFee":328,"unparsedAddress":"1161 Windward Way, Oxnard, CA 93035"}},{"type":"Feature","geometry":{"type":"Point","coordinates":[-119.210481,34.195583]},"properties":{"listingKey":"20250916211835130033000000","listingId":"V1-32511","listPrice":889000,"city":"Oxnard","baths":2.5,"slug":"20250916211835130033000000","mlsSource":"CRMLS","propertyType":"A","propertySubType":"Single Family Residence","livingArea":1846,"unparsedAddress":"636 Ibiza Lane, Oxnard, CA 93035"}},{"type":"Feature","geometry":{"type":"Point","coordinates":[-119.202213,34.195747]},"properties":{"listingKey":"20250812203940563195000000","listingId":"V1-32222","listPrice":899900,"city":"Oxnard","baths":3,"slug":"20250812203940563195000000","mlsSource":"CRMLS","propertyType":"A","propertySubType":"Single Family Residence","livingArea":1947,"unparsedAddress":"623 NOVATO Drive, Oxnard, CA 93035"}},{"type":"Feature","id":543305,"properties":{"cluster":true,"cluster_id":543305,"point_count":2,"point_count_abbreviated":2},"geometry":{"type":"Point","coordinates":[-119.21213418245316,34.1912823057865]}},{"type":"Feature","geometry":{"type":"Point","coordinates":[-119.210347,34.194057]},"properties":{"listingKey":"20251110204853475806000000","listingId":"V1-33348","listPrice":920000,"city":"Oxnard","baths":2,"slug":"20251110204853475806000000","mlsSource":"CRMLS","propertyType":"A","propertySubType":"Single Family Residence","livingArea":1910,"unparsedAddress":"2920 Naples Drive, Oxnard, CA 93035"}}]