[{"type":"Feature","id":63683,"properties":{"cluster":true,"cluster_id":63683,"point_count":10,"point_count_abbreviated":10},"geometry":{"type":"Point","coordinates":[-120.70861530303955,35.56724650439014]}},{"type":"Feature","id":128804,"properties":{"cluster":true,"cluster_id":128804,"point_count":2,"point_count_abbreviated":2},"geometry":{"type":"Point","coordinates":[-120.61789870262146,35.78388096648972]}},{"type":"Feature","geometry":{"type":"Point","coordinates":[-120.495514,35.553324]},"properties":{"listingKey":"20251003150158209052000000","listingId":"NS-25228199","listPrice":1400000,"city":"Paso Robles","baths":2.75,"slug":"20251003150158209052000000","mlsSource":"CRMLS","propertyType":"A","propertySubType":"Single Family Residence","livingArea":2972,"associationFee":0,"unparsedAddress":"4380 Camp 8 Road, Paso Robles, CA 93446"}},{"type":"Feature","id":53155,"properties":{"cluster":true,"cluster_id":53155,"point_count":68,"point_count_abbreviated":68},"geometry":{"type":"Point","coordinates":[-120.66756824360174,35.620184047057194]}},{"type":"Feature","id":76483,"properties":{"cluster":true,"cluster_id":76483,"point_count":7,"point_count_abbreviated":7},"geometry":{"type":"Point","coordinates":[-120.56537568569183,35.646286690252936]}},{"type":"Feature","geometry":{"type":"Point","coordinates":[-120.545129,35.825867]},"properties":{"listingKey":"20250719042430090189000000","listingId":"NS-25107186","listPrice":895000,"city":"San Miguel","baths":2,"slug":"20250719042430090189000000","mlsSource":"CRMLS","propertyType":"A","propertySubType":"Single Family Residence","livingArea":2000,"associationFee":0,"unparsedAddress":"75463 Ranchita Avenue, San Miguel, CA 93451"}},{"type":"Feature","geometry":{"type":"Point","coordinates":[-120.571193,35.712285]},"properties":{"listingKey":"20251018193248708911000000","listingId":"PI-25242525","listPrice":949000,"city":"San Miguel","baths":2,"slug":"20251018193248708911000000","mlsSource":"CRMLS","propertyType":"A","propertySubType":"Single Family Residence","livingArea":1735,"associationFee":0,"unparsedAddress":"6180 Avenida Trinidad, San Miguel, CA 93451"}},{"type":"Feature","id":73859,"properties":{"cluster":true,"cluster_id":73859,"point_count":9,"point_count_abbreviated":9},"geometry":{"type":"Point","coordinates":[-120.67498803138734,35.7420547982485]}},{"type":"Feature","geometry":{"type":"Point","coordinates":[-120.595335,35.59517]},"properties":{"listingKey":"20250802104354633990000000","listingId":"NS-25168356","listPrice":2399000,"city":"Paso Robles","baths":7,"slug":"20250802104354633990000000","mlsSource":"CRMLS","propertyType":"A","propertySubType":"Single Family Residence","livingArea":4882,"associationFee":0,"unparsedAddress":"5625 Linne Road, Paso Robles, CA 93446"}},{"type":"Feature","geometry":{"type":"Point","coordinates":[-120.367091,35.648974]},"properties":{"listingKey":"20250924203014690866000000","listingId":"SC-25224404","listPrice":675000,"city":"Shandon","baths":1,"slug":"20250924203014690866000000","mlsSource":"CRMLS","propertyType":"A","propertySubType":"Commercial/Residential","livingArea":700,"associationFee":0,"unparsedAddress":"485 South 8 th Street, Shandon, CA 93461"}},{"type":"Feature","id":47459,"properties":{"cluster":true,"cluster_id":47459,"point_count":46,"point_count_abbreviated":46},"geometry":{"type":"Point","coordinates":[-120.66562453041908,35.47782805833876]}},{"type":"Feature","geometry":{"type":"Point","coordinates":[-120.880562,35.792684]},"properties":{"listingKey":"20250927042009819132000000","listingId":"NS-25223583","listPrice":729000,"city":"Bradley","baths":1,"slug":"20250927042009819132000000","mlsSource":"CRMLS","propertyType":"A","propertySubType":"Cabin","livingArea":788,"associationFee":0,"unparsedAddress":"61446 Vista, Bradley, CA 93426"}},{"type":"Feature","geometry":{"type":"Point","coordinates":[-120.903988,36.019806]},"properties":{"listingKey":"20251022055019852049000000","listingId":"PI-25244777","listPrice":325000,"city":"San Ardo","baths":1,"slug":"20251022055019852049000000","mlsSource":"CRMLS","propertyType":"A","propertySubType":"Single Family Residence","livingArea":744,"associationFee":0,"unparsedAddress":"60010 Godchaux Street, San Ardo, CA 93450"}},{"type":"Feature","id":67523,"properties":{"cluster":true,"cluster_id":67523,"point_count":12,"point_count_abbreviated":12},"geometry":{"type":"Point","coordinates":[-120.87679177522658,35.720419938502445]}},{"type":"Feature","geometry":{"type":"Point","coordinates":[-120.757985,35.461892]},"properties":{"listingKey":"20251008214937364479000000","listingId":"PI-25233427","listPrice":1100000,"city":"Atascadero","baths":2,"slug":"20251008214937364479000000","mlsSource":"CRMLS","propertyType":"A","propertySubType":"Single Family Residence","livingArea":1268,"associationFee":0,"unparsedAddress":"6650 Toro Creek Road, Atascadero, CA 93422"}}]