[{"type":"Feature","geometry":{"type":"Point","coordinates":[-117.922528,34.058555]},"properties":{"listingKey":"20251028164703688967000000","listingId":"IV-25214913","listPrice":1300888,"city":"West Covina","baths":3,"slug":"20251028164703688967000000","mlsSource":"CRMLS","propertyType":"A","propertySubType":"Single Family Residence","livingArea":2886,"associationFee":0,"unparsedAddress":"1117 East Thackery Street, West Covina, CA 91790"}},{"type":"Feature","geometry":{"type":"Point","coordinates":[-117.910916,34.054401]},"properties":{"listingKey":"20250916210330830530000000","listingId":"TR-25218183","listPrice":3950,"city":"West Covina","baths":2,"slug":"20250916210330830530000000","mlsSource":"CRMLS","propertyType":"B","propertySubType":"Single Family Residence","livingArea":1789,"associationFee":0,"unparsedAddress":"1149 Rimsdale, West Covina, CA 91791"}},{"type":"Feature","geometry":{"type":"Point","coordinates":[-117.905854,34.058732]},"properties":{"listingKey":"20251025191744440043000000","listingId":"CV-25236134","listPrice":825000,"city":"West Covina","baths":2,"slug":"20251025191744440043000000","mlsSource":"CRMLS","propertyType":"A","propertySubType":"Single Family Residence","livingArea":1545,"associationFee":0,"unparsedAddress":"910 South Donna Beth Avenue, West Covina, CA 91791"}},{"type":"Feature","geometry":{"type":"Point","coordinates":[-117.920235,34.067932]},"properties":{"listingKey":"20251119201409822721000000","listingId":"CV-25257429","listPrice":800000,"city":"West Covina","baths":2,"slug":"20251119201409822721000000","mlsSource":"CRMLS","propertyType":"A","propertySubType":"Single Family Residence","livingArea":1185,"associationFee":0,"unparsedAddress":"316 South Pima, West Covina, CA 91790"}},{"type":"Feature","id":718121,"properties":{"cluster":true,"cluster_id":718121,"point_count":2,"point_count_abbreviated":2},"geometry":{"type":"Point","coordinates":[-117.91206479072571,34.06745846493234]}},{"type":"Feature","geometry":{"type":"Point","coordinates":[-117.909145,34.063432]},"properties":{"listingKey":"20251115161939798687000000","listingId":"WS-25261138","listPrice":1150000,"city":"West Covina","baths":3,"slug":"20251115161939798687000000","mlsSource":"CRMLS","propertyType":"A","propertySubType":"Single Family Residence","livingArea":2803,"associationFee":180,"unparsedAddress":"1717 Cabrillo, West Covina, CA 91791"}}]