[{"type":"Feature","geometry":{"type":"Point","coordinates":[-117.913489,33.877015]},"properties":{"listingKey":"20250803091022255087000000","listingId":"TR-25174027","listPrice":4600,"city":"Fullerton","baths":2,"slug":"20250803091022255087000000","mlsSource":"CRMLS","propertyType":"B","propertySubType":"Single Family Residence","livingArea":2394,"associationFee":0,"unparsedAddress":"604 Princeton Circle West, Fullerton, CA 92831"}},{"type":"Feature","id":389256,"properties":{"cluster":true,"cluster_id":389256,"point_count":3,"point_count_abbreviated":3},"geometry":{"type":"Point","coordinates":[-117.91890263557433,33.885860892847006]}},{"type":"Feature","geometry":{"type":"Point","coordinates":[-117.91075,33.877231]},"properties":{"listingKey":"20251120192207030062000000","listingId":"OC-25262904","listPrice":1149900,"city":"Fullerton","baths":2,"slug":"20251120192207030062000000","mlsSource":"CRMLS","propertyType":"A","propertySubType":"Single Family Residence","livingArea":2240,"associationFee":0,"unparsedAddress":"618 North Lincoln, Fullerton, CA 92831"}},{"type":"Feature","geometry":{"type":"Point","coordinates":[-117.912359,33.873782]},"properties":{"listingKey":"20250928040655415652000000","listingId":"PW-25227163","listPrice":839000,"city":"Fullerton","baths":2,"slug":"20250928040655415652000000","mlsSource":"CRMLS","propertyType":"A","propertySubType":"Single Family Residence","livingArea":1250,"associationFee":0,"unparsedAddress":"714 East Chapman Avenue, Fullerton, CA 92831"}},{"type":"Feature","id":165224,"properties":{"cluster":true,"cluster_id":165224,"point_count":2,"point_count_abbreviated":2},"geometry":{"type":"Point","coordinates":[-117.90904730558395,33.87250003360492]}},{"type":"Feature","geometry":{"type":"Point","coordinates":[-117.90748,33.88232]},"properties":{"listingKey":"20250718221950394184000000","listingId":"PW-25159873","listPrice":1470000,"city":"Fullerton","baths":2.5,"slug":"20250718221950394184000000","mlsSource":"CRMLS","propertyType":"A","propertySubType":"Single Family Residence","livingArea":2105,"associationFee":0,"unparsedAddress":"1219 North Raymond Avenue, Fullerton, CA 92831"}},{"type":"Feature","geometry":{"type":"Point","coordinates":[-117.926274,33.877175]},"properties":{"listingKey":"20250916205602261084000000","listingId":"PW-25217555","listPrice":2450,"city":"Fullerton","baths":1,"slug":"20250916205602261084000000","mlsSource":"CRMLS","propertyType":"B","propertySubType":"Apartment","livingArea":900,"associationFee":0,"unparsedAddress":"136 West Union Avenue, 11, Fullerton, CA 92832"}},{"type":"Feature","geometry":{"type":"Point","coordinates":[-117.920876,33.879584]},"properties":{"listingKey":"20250912233956136383000000","listingId":"OC-25215826","listPrice":1299000,"city":"Fullerton","baths":3.5,"slug":"20250912233956136383000000","mlsSource":"CRMLS","propertyType":"A","propertySubType":"Single Family Residence","livingArea":3256,"associationFee":0,"unparsedAddress":"143 Hillcrest, Fullerton, CA 92832"}}]