[{"type":"Feature","geometry":{"type":"Point","coordinates":[-117.919637,33.779965]},"properties":{"listingKey":"20251017160401930033000000","listingId":"LG-25241746","listPrice":1098000,"city":"Garden Grove","baths":2,"slug":"20251017160401930033000000","mlsSource":"CRMLS","propertyType":"A","propertySubType":"Single Family Residence","livingArea":1174,"associationFee":0,"unparsedAddress":"12222 Emrys, Garden Grove, CA 92840"}},{"type":"Feature","geometry":{"type":"Point","coordinates":[-117.907637,33.794631]},"properties":{"listingKey":"20251024235933941461000000","listingId":"OC-25216758","listPrice":1100000,"city":"Anaheim","baths":2.5,"slug":"20251024235933941461000000","mlsSource":"CRMLS","propertyType":"A","propertySubType":"Single Family Residence","livingArea":2055,"associationFee":0,"unparsedAddress":"127 West Cliffwood Avenue, Anaheim, CA 92802"}},{"type":"Feature","id":178281,"properties":{"cluster":true,"cluster_id":178281,"point_count":4,"point_count_abbreviated":4},"geometry":{"type":"Point","coordinates":[-117.91328653693199,33.795208774027415]}},{"type":"Feature","geometry":{"type":"Point","coordinates":[-117.907929,33.782952]},"properties":{"listingKey":"20250816063054517363000000","listingId":"PW-25179448","listPrice":1120000,"city":"Garden Grove","baths":2,"slug":"20250816063054517363000000","mlsSource":"CRMLS","propertyType":"A","propertySubType":"Single Family Residence","livingArea":1340,"associationFee":0,"unparsedAddress":"12414 Fallingleaf Street, Garden Grove, CA 92840"}},{"type":"Feature","geometry":{"type":"Point","coordinates":[-117.912214,33.79188]},"properties":{"listingKey":"20251107215014830047000000","listingId":"CV-25250153","listPrice":729000,"city":"Anaheim","baths":2.5,"slug":"20251107215014830047000000","mlsSource":"CRMLS","propertyType":"A","propertySubType":"Townhouse","livingArea":1497,"associationFee":395,"unparsedAddress":"549 West Summerfield, Anaheim, CA 92802"}},{"type":"Feature","geometry":{"type":"Point","coordinates":[-117.925987,33.795514]},"properties":{"listingKey":"20250802110204330107000000","listingId":"PW-25172921","listPrice":900000,"city":"Garden Grove","baths":1.5,"slug":"20250802110204330107000000","mlsSource":"CRMLS","propertyType":"A","propertySubType":"Single Family Residence","livingArea":1134,"associationFee":0,"unparsedAddress":"11531 Kathy Lane, Garden Grove, CA 92840"}},{"type":"Feature","geometry":{"type":"Point","coordinates":[-117.920927,33.785161]},"properties":{"listingKey":"20250918101447908631000000","listingId":"PW-25220069","listPrice":1198800,"city":"Garden Grove","baths":2.5,"slug":"20250918101447908631000000","mlsSource":"CRMLS","propertyType":"A","propertySubType":"Single Family Residence","livingArea":1794,"associationFee":0,"unparsedAddress":"12246 Nadine Circle, Garden Grove, CA 92840"}}]