[{"type":"Feature","id":160232,"properties":{"cluster":true,"cluster_id":160232,"point_count":4,"point_count_abbreviated":4},"geometry":{"type":"Point","coordinates":[-117.91605189442635,33.74313468173041]}},{"type":"Feature","geometry":{"type":"Point","coordinates":[-117.918697,33.754608]},"properties":{"listingKey":"20251101190049749739000000","listingId":"PW-25251931","listPrice":4999000,"city":"Santa Ana","baths":0,"slug":"20251101190049749739000000","mlsSource":"CRMLS","propertyType":"C","propertySubType":"Apartment","livingArea":13300,"associationFee":0,"unparsedAddress":"3625 West 11th, Santa Ana, CA 92703"}},{"type":"Feature","geometry":{"type":"Point","coordinates":[-117.906894,33.757369]},"properties":{"listingKey":"20251013192411970920000000","listingId":"OC-25229463","listPrice":2150000,"city":"Santa Ana","baths":0,"slug":"20251013192411970920000000","mlsSource":"CRMLS","propertyType":"C","propertySubType":"Quadruplex","livingArea":1,"unparsedAddress":"1423 Mar Les, Santa Ana, CA 92706"}},{"type":"Feature","geometry":{"type":"Point","coordinates":[-117.909736,33.760362]},"properties":{"listingKey":"20251031021604878305000000","listingId":"PW-25251050","listPrice":529000,"city":"Garden Grove","baths":2,"slug":"20251031021604878305000000","mlsSource":"CRMLS","propertyType":"A","propertySubType":"Condominium","livingArea":864,"associationFee":337,"unparsedAddress":"12591 Westminster, Garden Grove, CA 92843"}},{"type":"Feature","id":167272,"properties":{"cluster":true,"cluster_id":167272,"point_count":2,"point_count_abbreviated":2},"geometry":{"type":"Point","coordinates":[-117.92356073856354,33.74916534644889]}}]