[{"type":"Feature","geometry":{"type":"Point","coordinates":[-116.370139,33.712066]},"properties":{"listingKey":"20251013230527753435000000","listingId":"219137287","listPrice":6450000,"city":"Indian Wells","baths":5,"slug":"20251013230527753435000000","mlsSource":"GPS","propertyType":"A","propertySubType":"Single Family Residence","livingArea":6362,"associationFee":1194,"unparsedAddress":"74160 Quail Lakes Drive, Indian Wells, CA 92210"}},{"type":"Feature","geometry":{"type":"Point","coordinates":[-116.375032,33.712734]},"properties":{"listingKey":"20251105204917329821000000","listingId":"219138284","listPrice":1175000,"city":"Palm Desert","baths":2,"slug":"20251105204917329821000000","mlsSource":"GPS","propertyType":"A","propertySubType":"Single Family Residence","livingArea":1840,"associationFee":0,"unparsedAddress":"73905 Flagstone Lane, Palm Desert, CA 92260"}},{"type":"Feature","id":119913,"properties":{"cluster":true,"cluster_id":119913,"point_count":2,"point_count_abbreviated":2},"geometry":{"type":"Point","coordinates":[-116.37235075235367,33.71205576442867]}},{"type":"Feature","geometry":{"type":"Point","coordinates":[-116.373386,33.712687]},"properties":{"listingKey":"20251007005643402019000000","listingId":"CV-25232192","listPrice":874999,"city":"Palm Desert","baths":3.5,"slug":"20251007005643402019000000","mlsSource":"CRMLS","propertyType":"A","propertySubType":"Single Family Residence","livingArea":2925,"associationFee":200,"unparsedAddress":"46211 Cypress Estates Court, Palm Desert, CA 92260"}},{"type":"Feature","geometry":{"type":"Point","coordinates":[-116.371707,33.713324]},"properties":{"listingKey":"20250909212115277122000000","listingId":"219135105","listPrice":10000,"city":"Palm Desert","baths":2.5,"slug":"20250909212115277122000000","mlsSource":"GPS","propertyType":"B","propertySubType":"Single Family Residence","livingArea":2323,"associationFee":0,"unparsedAddress":"74110 Covered Wagon Trail, Palm Desert, CA 92260"}}]