[{"type":"Feature","geometry":{"type":"Point","coordinates":[-118.214477,34.035737]},"properties":{"listingKey":"20250806084651456716000000","listingId":"CV-25175967","listPrice":2850,"city":"Los Angeles","baths":1.5,"slug":"20250806084651456716000000","mlsSource":"CRMLS","propertyType":"B","propertySubType":"Apartment","livingArea":1440,"associationFee":0,"unparsedAddress":"660 S Soto, Los Angeles, CA 90023"}},{"type":"Feature","geometry":{"type":"Point","coordinates":[-118.218374,34.037546]},"properties":{"listingKey":"20251024234345280088000000","listingId":"DW-25247071","listPrice":1800,"city":"Los Angeles","baths":1,"slug":"20251024234345280088000000","mlsSource":"CRMLS","propertyType":"B","propertySubType":"Apartment","livingArea":500,"associationFee":0,"unparsedAddress":"705 S St Louis St, Los Angeles, CA 90023"}},{"type":"Feature","geometry":{"type":"Point","coordinates":[-118.216299,34.037738]},"properties":{"listingKey":"20250917185245887726000000","listingId":"TR-25219346","listPrice":950000,"city":"Los Angeles","baths":0,"slug":"20250917185245887726000000","mlsSource":"CRMLS","propertyType":"C","propertySubType":"Duplex","livingArea":2283,"associationFee":0,"unparsedAddress":"624 South Chicago Street, Los Angeles, CA 90023"}},{"type":"Feature","id":168585,"properties":{"cluster":true,"cluster_id":168585,"point_count":2,"point_count_abbreviated":2},"geometry":{"type":"Point","coordinates":[-118.21973294019699,34.04303643491227]}},{"type":"Feature","geometry":{"type":"Point","coordinates":[-118.214269,34.039893]},"properties":{"listingKey":"20251008225342307209000000","listingId":"OC-25235153","listPrice":924995,"city":"Los Angeles","baths":0,"slug":"20251008225342307209000000","mlsSource":"CRMLS","propertyType":"C","propertySubType":"Apartment","livingArea":3898,"associationFee":0,"unparsedAddress":"451 South Breed, Los Angeles, CA 90033"}}]