[{"type":"Feature","id":865320,"properties":{"cluster":true,"cluster_id":865320,"point_count":3,"point_count_abbreviated":3},"geometry":{"type":"Point","coordinates":[-117.89698719978334,33.63225768194327]}},{"type":"Feature","geometry":{"type":"Point","coordinates":[-117.89452,33.622668]},"properties":{"listingKey":"20251102173836673349000000","listingId":"NP-25252190","listPrice":9995000,"city":"Newport Beach","baths":3.5,"slug":"20251102173836673349000000","mlsSource":"CRMLS","propertyType":"A","propertySubType":"Single Family Residence","livingArea":4500,"associationFee":2100,"unparsedAddress":"218 Evening Star Lane, Newport Beach, CA 92660"}},{"type":"Feature","geometry":{"type":"Point","coordinates":[-117.896978,33.626673]},"properties":{"listingKey":"20251113014727288705000000","listingId":"OC-25259377","listPrice":3995000,"city":"Newport Beach","baths":2.5,"slug":"20251113014727288705000000","mlsSource":"CRMLS","propertyType":"A","propertySubType":"Single Family Residence","livingArea":2360,"associationFee":0,"unparsedAddress":"1001 Nottingham Road, Newport Beach, CA 92660"}},{"type":"Feature","geometry":{"type":"Point","coordinates":[-117.894328,33.630197]},"properties":{"listingKey":"20251007012424414253000000","listingId":"NP-25233453","listPrice":3995500,"city":"Newport Beach","baths":5,"slug":"20251007012424414253000000","mlsSource":"CRMLS","propertyType":"A","propertySubType":"Single Family Residence","livingArea":3900,"associationFee":0,"unparsedAddress":"1412 Santiago Dr, Newport Beach, CA 92660"}},{"type":"Feature","geometry":{"type":"Point","coordinates":[-117.891425,33.627684]},"properties":{"listingKey":"20251008142616551155000000","listingId":"NP-25233841","listPrice":14625000,"city":"Newport Beach","baths":5.5,"slug":"20251008142616551155000000","mlsSource":"CRMLS","propertyType":"A","propertySubType":"Single Family Residence","livingArea":5954,"associationFee":2450,"unparsedAddress":"1399 Galaxy Drive, Newport Beach, CA 92660"}},{"type":"Feature","geometry":{"type":"Point","coordinates":[-117.884625,33.619103]},"properties":{"listingKey":"20250806220144036132000000","listingId":"OC-25175269","listPrice":2795000,"city":"Newport Beach","baths":3.5,"slug":"20250806220144036132000000","mlsSource":"CRMLS","propertyType":"A","propertySubType":"Condominium","livingArea":2791,"associationFee":1010,"unparsedAddress":"106 Ocean Vista, Newport Beach, CA 92660"}},{"type":"Feature","id":1097737,"properties":{"cluster":true,"cluster_id":1097737,"point_count":2,"point_count_abbreviated":2},"geometry":{"type":"Point","coordinates":[-117.88423150777817,33.62174000205994]}},{"type":"Feature","id":276296,"properties":{"cluster":true,"cluster_id":276296,"point_count":2,"point_count_abbreviated":2},"geometry":{"type":"Point","coordinates":[-117.90396183729172,33.62523313385364]}}]