[{"type":"Feature","id":160231,"properties":{"cluster":true,"cluster_id":160231,"point_count":7,"point_count_abbreviated":7},"geometry":{"type":"Point","coordinates":[-117.74272773947034,33.852995787077305]}},{"type":"Feature","geometry":{"type":"Point","coordinates":[-117.732961,33.852869]},"properties":{"listingKey":"20250928064551057957000000","listingId":"RS-25225791","listPrice":6700,"city":"Anaheim Hills","baths":3.5,"slug":"20250928064551057957000000","mlsSource":"CRMLS","propertyType":"B","propertySubType":"Single Family Residence","livingArea":3573,"unparsedAddress":"8223 East Marblehead Way, Anaheim Hills, CA 92808"}},{"type":"Feature","geometry":{"type":"Point","coordinates":[-117.761445,33.8484]},"properties":{"listingKey":"20251030175358415714000000","listingId":"PW-25248739","listPrice":1400000,"city":"Anaheim Hills","baths":2.5,"slug":"20251030175358415714000000","mlsSource":"CRMLS","propertyType":"A","propertySubType":"Single Family Residence","livingArea":2536,"associationFee":200,"unparsedAddress":"6633 East Paseo Del Norte, Anaheim Hills, CA 92807"}},{"type":"Feature","geometry":{"type":"Point","coordinates":[-117.731024,33.848607]},"properties":{"listingKey":"20251103175749123711000000","listingId":"PW-25252192","listPrice":8500,"city":"Anaheim Hills","baths":4.5,"slug":"20251103175749123711000000","mlsSource":"CRMLS","propertyType":"B","propertySubType":"Single Family Residence","livingArea":4515,"unparsedAddress":"1030 South Summer Breeze Lane, Anaheim Hills, CA 92808"}},{"type":"Feature","geometry":{"type":"Point","coordinates":[-117.768007,33.850769]},"properties":{"listingKey":"20251114065924001529000000","listingId":"PW-25245953","listPrice":2299999,"city":"Anaheim Hills","baths":4,"slug":"20251114065924001529000000","mlsSource":"CRMLS","propertyType":"A","propertySubType":"Single Family Residence","livingArea":4232,"associationFee":211,"unparsedAddress":"6641 East Canyon Hills, Anaheim Hills, CA 92807"}},{"type":"Feature","id":160359,"properties":{"cluster":true,"cluster_id":160359,"point_count":9,"point_count_abbreviated":9},"geometry":{"type":"Point","coordinates":[-117.73637831211089,33.848317499468706]}},{"type":"Feature","geometry":{"type":"Point","coordinates":[-117.755755,33.842059]},"properties":{"listingKey":"20251108230806623070000000","listingId":"PW-25252738","listPrice":5900,"city":"Anaheim Hills","baths":2.5,"slug":"20251108230806623070000000","mlsSource":"CRMLS","propertyType":"B","propertySubType":"Single Family Residence","livingArea":2847,"unparsedAddress":"795 South Quail, Anaheim Hills, CA 92807"}},{"type":"Feature","id":194215,"properties":{"cluster":true,"cluster_id":194215,"point_count":6,"point_count_abbreviated":6},"geometry":{"type":"Point","coordinates":[-117.74542987346649,33.842625011088444]}},{"type":"Feature","id":754248,"properties":{"cluster":true,"cluster_id":754248,"point_count":2,"point_count_abbreviated":2},"geometry":{"type":"Point","coordinates":[-117.74912327528,33.83506958891738]}},{"type":"Feature","id":194087,"properties":{"cluster":true,"cluster_id":194087,"point_count":3,"point_count_abbreviated":3},"geometry":{"type":"Point","coordinates":[-117.76201665401459,33.83457646560802]}},{"type":"Feature","geometry":{"type":"Point","coordinates":[-117.761805,33.839812]},"properties":{"listingKey":"20251029050503988395000000","listingId":"PW-25249401","listPrice":950000,"city":"Anaheim","baths":2.5,"slug":"20251029050503988395000000","mlsSource":"CRMLS","propertyType":"A","propertySubType":"Townhouse","livingArea":1769,"associationFee":550,"unparsedAddress":"6525 East Camino Vista, Anaheim, CA 92807"}},{"type":"Feature","id":306921,"properties":{"cluster":true,"cluster_id":306921,"point_count":2,"point_count_abbreviated":2},"geometry":{"type":"Point","coordinates":[-117.76628941297531,33.83699898078858]}},{"type":"Feature","id":535879,"properties":{"cluster":true,"cluster_id":535879,"point_count":2,"point_count_abbreviated":2},"geometry":{"type":"Point","coordinates":[-117.7391642332077,33.86774306280641]}},{"type":"Feature","geometry":{"type":"Point","coordinates":[-117.764216,33.866032]},"properties":{"listingKey":"20251118203300572288000000","listingId":"PW-25261883","listPrice":1265000,"city":"Anaheim","baths":3,"slug":"20251118203300572288000000","mlsSource":"CRMLS","propertyType":"A","propertySubType":"Single Family Residence","livingArea":2232,"associationFee":0,"unparsedAddress":"7715 East Camino Tampico, Anaheim, CA 92808"}},{"type":"Feature","id":197864,"properties":{"cluster":true,"cluster_id":197864,"point_count":2,"point_count_abbreviated":2},"geometry":{"type":"Point","coordinates":[-117.76181280612946,33.86201474807153]}},{"type":"Feature","id":275977,"properties":{"cluster":true,"cluster_id":275977,"point_count":2,"point_count_abbreviated":2},"geometry":{"type":"Point","coordinates":[-117.74118661880493,33.860985748797106]}},{"type":"Feature","geometry":{"type":"Point","coordinates":[-117.735652,33.856806]},"properties":{"listingKey":"20251017134458160469000000","listingId":"PW-25240598","listPrice":1100000,"city":"Anaheim Hills","baths":3,"slug":"20251017134458160469000000","mlsSource":"CRMLS","propertyType":"A","propertySubType":"Single Family Residence","livingArea":1796,"associationFee":115,"unparsedAddress":"927 South Lone Pine, Anaheim Hills, CA 92808"}},{"type":"Feature","geometry":{"type":"Point","coordinates":[-117.729852,33.8578]},"properties":{"listingKey":"20250730065406376609000000","listingId":"OC-25170088","listPrice":700000,"city":"Anaheim Hills","baths":2,"slug":"20250730065406376609000000","mlsSource":"CRMLS","propertyType":"A","propertySubType":"Townhouse","livingArea":998,"associationFee":285,"unparsedAddress":"8449 East Arrowhead Way, Anaheim Hills, CA 92808"}},{"type":"Feature","id":676007,"properties":{"cluster":true,"cluster_id":676007,"point_count":2,"point_count_abbreviated":2},"geometry":{"type":"Point","coordinates":[-117.75749981403351,33.85724828348961]}},{"type":"Feature","geometry":{"type":"Point","coordinates":[-117.770252,33.855679]},"properties":{"listingKey":"20250718173701087017000000","listingId":"PW-25157576","listPrice":1749900,"city":"Anaheim","baths":3,"slug":"20250718173701087017000000","mlsSource":"CRMLS","propertyType":"A","propertySubType":"Single Family Residence","livingArea":2689,"associationFee":180,"unparsedAddress":"157 South Donna Court, Anaheim, CA 92807"}}]