[{"type":"Feature","geometry":{"type":"Point","coordinates":[-119.791412,37.196721]},"properties":{"listingKey":"20251106221107156300000000","listingId":"FR-25253420","listPrice":459800,"city":"Coarsegold","baths":2.25,"slug":"20251106221107156300000000","mlsSource":"CRMLS","propertyType":"A","propertySubType":"Single Family Residence","livingArea":1712,"associationFee":178,"unparsedAddress":"41443 Roaring River Court, Coarsegold, CA 93614"}},{"type":"Feature","geometry":{"type":"Point","coordinates":[-119.734707,37.225338]},"properties":{"listingKey":"20250808105259257949000000","listingId":"FR-25178293","listPrice":475000,"city":"Coarsegold","baths":2,"slug":"20250808105259257949000000","mlsSource":"CRMLS","propertyType":"A","propertySubType":"Manufactured On Land","livingArea":1782,"associationFee":0,"unparsedAddress":"32791 Road 416, Coarsegold, CA 93614"}},{"type":"Feature","geometry":{"type":"Point","coordinates":[-119.785711,37.207562]},"properties":{"listingKey":"20250723043956542798000000","listingId":"FR-25164282","listPrice":515000,"city":"Coarsegold","baths":3,"slug":"20250723043956542798000000","mlsSource":"CRMLS","propertyType":"A","propertySubType":"Single Family Residence","livingArea":2290,"associationFee":173.33,"unparsedAddress":"31749 Road 400, Coarsegold, CA 93614"}},{"type":"Feature","id":214438,"properties":{"cluster":true,"cluster_id":214438,"point_count":3,"point_count_abbreviated":3},"geometry":{"type":"Point","coordinates":[-119.7768473625183,37.182717939810075]}},{"type":"Feature","id":212454,"properties":{"cluster":true,"cluster_id":212454,"point_count":3,"point_count_abbreviated":3},"geometry":{"type":"Point","coordinates":[-119.7612690925598,37.19778904782696]}},{"type":"Feature","id":434153,"properties":{"cluster":true,"cluster_id":434153,"point_count":2,"point_count_abbreviated":2},"geometry":{"type":"Point","coordinates":[-119.77324157953262,37.20207336563472]}},{"type":"Feature","id":217926,"properties":{"cluster":true,"cluster_id":217926,"point_count":3,"point_count_abbreviated":3},"geometry":{"type":"Point","coordinates":[-119.75847423076628,37.170499303284316]}},{"type":"Feature","geometry":{"type":"Point","coordinates":[-119.779153,37.222204]},"properties":{"listingKey":"20251119201406381110000000","listingId":"FR-25263080","listPrice":599000,"city":"Coarsegold","baths":2,"slug":"20251119201406381110000000","mlsSource":"CRMLS","propertyType":"A","propertySubType":"Single Family Residence","livingArea":2396,"associationFee":0,"unparsedAddress":"32628 River Knolls Road, Coarsegold, CA 93614"}},{"type":"Feature","geometry":{"type":"Point","coordinates":[-119.745211,37.22844]},"properties":{"listingKey":"20250816194157685492000000","listingId":"FR-25183702","listPrice":575000,"city":"Coarsegold","baths":3.5,"slug":"20250816194157685492000000","mlsSource":"CRMLS","propertyType":"A","propertySubType":"Single Family Residence","livingArea":2288,"associationFee":0,"unparsedAddress":"33032 Mill Creek Way, Coarsegold, CA 93614"}},{"type":"Feature","id":357640,"properties":{"cluster":true,"cluster_id":357640,"point_count":2,"point_count_abbreviated":2},"geometry":{"type":"Point","coordinates":[-119.78107362985611,37.193984517916974]}},{"type":"Feature","geometry":{"type":"Point","coordinates":[-119.707038,37.20954]},"properties":{"listingKey":"20251024213400258540000000","listingId":"FR-25246886","listPrice":490000,"city":"Coarsegold","baths":2,"slug":"20251024213400258540000000","mlsSource":"CRMLS","propertyType":"A","propertySubType":"Single Family Residence","livingArea":2030,"associationFee":0,"unparsedAddress":"31678 Buck Run, Coarsegold, CA 93614"}}]