[{"type":"Feature","geometry":{"type":"Point","coordinates":[-118.390681,34.053789]},"properties":{"listingKey":"20251018074230388383000000","listingId":"SB-25191664","listPrice":1948000,"city":"Los Angeles","baths":2,"slug":"20251018074230388383000000","mlsSource":"CRMLS","propertyType":"A","propertySubType":"Single Family Residence","livingArea":2030,"associationFee":0,"unparsedAddress":"1446 South Oakhurst Drive, Los Angeles, CA 90035"}},{"type":"Feature","geometry":{"type":"Point","coordinates":[-118.395292,34.056717]},"properties":{"listingKey":"20251007202220342795000000","listingId":"CV-25231378","listPrice":575000,"city":"Los Angeles","baths":1.5,"slug":"20251007202220342795000000","mlsSource":"CRMLS","propertyType":"A","propertySubType":"Condominium","livingArea":811,"associationFee":480,"unparsedAddress":"1115 South Elm Drive, 207, Los Angeles, CA 90035"}},{"type":"Feature","geometry":{"type":"Point","coordinates":[-118.409967,34.054931]},"properties":{"listingKey":"20251028022338619617000000","listingId":"RS-25248459","listPrice":1590000,"city":"Los Angeles","baths":2.5,"slug":"20251028022338619617000000","mlsSource":"CRMLS","propertyType":"A","propertySubType":"Townhouse","livingArea":2372,"associationFee":2623,"unparsedAddress":"2235 Century Hill, Los Angeles, CA 90067"}},{"type":"Feature","geometry":{"type":"Point","coordinates":[-118.405928,34.065819]},"properties":{"listingKey":"20250913031716449591000000","listingId":"PW-25216472","listPrice":3500,"city":"Beverly Hills","baths":1,"slug":"20250913031716449591000000","mlsSource":"CRMLS","propertyType":"B","propertySubType":"Condominium","livingArea":750,"associationFee":0,"unparsedAddress":"137 South Roxbury Drive, Beverly Hills, CA 90212"}},{"type":"Feature","geometry":{"type":"Point","coordinates":[-118.392295,34.066641]},"properties":{"listingKey":"20251114051743748480000000","listingId":"WS-25260388","listPrice":30000,"city":"Beverly Hills","baths":2,"slug":"20251114051743748480000000","mlsSource":"CRMLS","propertyType":"B","propertySubType":"Condominium","livingArea":1257,"unparsedAddress":"9200 Wilshire, 304W, Beverly Hills, CA 90212"}},{"type":"Feature","geometry":{"type":"Point","coordinates":[-118.3962,34.065414]},"properties":{"listingKey":"20251115032358820036000000","listingId":"SW-25261022","listPrice":3200,"city":"Beverly Hills","baths":1,"slug":"20251115032358820036000000","mlsSource":"CRMLS","propertyType":"B","propertySubType":"Quadruplex","livingArea":800,"associationFee":0,"unparsedAddress":"149 South Crescent Drive, B, Beverly Hills, CA 90212"}},{"type":"Feature","id":220776,"properties":{"cluster":true,"cluster_id":220776,"point_count":3,"point_count_abbreviated":3},"geometry":{"type":"Point","coordinates":[-118.39563131332399,34.059480042364896]}},{"type":"Feature","geometry":{"type":"Point","coordinates":[-118.400956,34.06436]},"properties":{"listingKey":"20251110220210450651000000","listingId":"BB-25257652","listPrice":4500000,"city":"Beverly Hills","baths":2,"slug":"20251110220210450651000000","mlsSource":"CRMLS","propertyType":"A","propertySubType":"Single Family Residence","livingArea":2640,"associationFee":0,"unparsedAddress":"212 South Rodeo, Beverly Hills, CA 90212"}}]