[{"type":"Feature","geometry":{"type":"Point","coordinates":[-118.409191,33.772145]},"properties":{"listingKey":"20251021204846819100000000","listingId":"PV-25243423","listPrice":2425000,"city":"Palos Verdes Estates","baths":3,"slug":"20251021204846819100000000","mlsSource":"CRMLS","propertyType":"A","propertySubType":"Single Family Residence","livingArea":3300,"associationFee":0,"unparsedAddress":"2605 Via Olivera, Palos Verdes Estates, CA 90274"}},{"type":"Feature","id":275400,"properties":{"cluster":true,"cluster_id":275400,"point_count":2,"point_count_abbreviated":2},"geometry":{"type":"Point","coordinates":[-118.40948045253754,33.761970181369364]}},{"type":"Feature","id":141064,"properties":{"cluster":true,"cluster_id":141064,"point_count":9,"point_count_abbreviated":9},"geometry":{"type":"Point","coordinates":[-118.39383602142333,33.7635152153768]}},{"type":"Feature","id":283497,"properties":{"cluster":true,"cluster_id":283497,"point_count":2,"point_count_abbreviated":2},"geometry":{"type":"Point","coordinates":[-118.39136213064194,33.77673952715685]}},{"type":"Feature","geometry":{"type":"Point","coordinates":[-118.397364,33.774629]},"properties":{"listingKey":"20250919031522742255000000","listingId":"SB-25220735","listPrice":7000,"city":"Rancho Palos Verdes","baths":3,"slug":"20250919031522742255000000","mlsSource":"CRMLS","propertyType":"B","propertySubType":"Single Family Residence","livingArea":2440,"associationFee":0,"unparsedAddress":"28603 Cedarbluff Drive, Rancho Palos Verdes, CA 90275"}},{"type":"Feature","id":273672,"properties":{"cluster":true,"cluster_id":273672,"point_count":2,"point_count_abbreviated":2},"geometry":{"type":"Point","coordinates":[-118.40407311916351,33.77464379069569]}},{"type":"Feature","id":506825,"properties":{"cluster":true,"cluster_id":506825,"point_count":2,"point_count_abbreviated":2},"geometry":{"type":"Point","coordinates":[-118.39145332574844,33.76479760218113]}},{"type":"Feature","geometry":{"type":"Point","coordinates":[-118.394286,33.769508]},"properties":{"listingKey":"20250812094405389031000000","listingId":"SB-25181094","listPrice":1850000,"city":"Rancho Palos Verdes","baths":2.5,"slug":"20250812094405389031000000","mlsSource":"CRMLS","propertyType":"A","propertySubType":"Single Family Residence","livingArea":2513,"associationFee":0,"unparsedAddress":"6701 Kings Harbor Drive, Rancho Palos Verdes, CA 90275"}}]