[{"type":"Feature","id":182249,"properties":{"cluster":true,"cluster_id":182249,"point_count":2,"point_count_abbreviated":2},"geometry":{"type":"Point","coordinates":[-117.66406238079071,34.10997466164622]}},{"type":"Feature","id":599401,"properties":{"cluster":true,"cluster_id":599401,"point_count":2,"point_count_abbreviated":2},"geometry":{"type":"Point","coordinates":[-117.67785966396332,34.10781604656836]}},{"type":"Feature","geometry":{"type":"Point","coordinates":[-117.676819,34.122806]},"properties":{"listingKey":"20250924163618177650000000","listingId":"CV-25223772","listPrice":824900,"city":"Upland","baths":2.5,"slug":"20250924163618177650000000","mlsSource":"CRMLS","propertyType":"A","propertySubType":"Single Family Residence","livingArea":2209,"associationFee":0,"unparsedAddress":"1635 Wilson, Upland, CA 91784"}},{"type":"Feature","geometry":{"type":"Point","coordinates":[-117.6642,34.124568]},"properties":{"listingKey":"20251029224408312127000000","listingId":"AR-25249951","listPrice":4100,"city":"Upland","baths":2,"slug":"20251029224408312127000000","mlsSource":"CRMLS","propertyType":"B","propertySubType":"Single Family Residence","livingArea":2166,"associationFee":0,"unparsedAddress":"1682 Colfax Way, Upland, CA 91784"}},{"type":"Feature","geometry":{"type":"Point","coordinates":[-117.678429,34.118558]},"properties":{"listingKey":"20251015005025524709000000","listingId":"CV-25239784","listPrice":870000,"city":"Upland","baths":3,"slug":"20251015005025524709000000","mlsSource":"CRMLS","propertyType":"A","propertySubType":"Single Family Residence","livingArea":2229,"associationFee":175.75,"unparsedAddress":"1520 Cantabria Place, Upland, CA 91786"}},{"type":"Feature","id":664232,"properties":{"cluster":true,"cluster_id":664232,"point_count":2,"point_count_abbreviated":2},"geometry":{"type":"Point","coordinates":[-117.66991227865219,34.12301401247167]}},{"type":"Feature","geometry":{"type":"Point","coordinates":[-117.665645,34.117556]},"properties":{"listingKey":"20251003001135964208000000","listingId":"NP-25228155","listPrice":1195000,"city":"Upland","baths":3,"slug":"20251003001135964208000000","mlsSource":"CRMLS","propertyType":"A","propertySubType":"Single Family Residence","livingArea":2631,"associationFee":0,"unparsedAddress":"1018 West 15th Street, Upland, CA 91786"}}]