[{"type":"Feature","geometry":{"type":"Point","coordinates":[-119.12744,35.343752]},"properties":{"listingKey":"20250807214242907561000000","listingId":"V1-31678","listPrice":599000,"city":"Bakersfield","baths":2.5,"slug":"20250807214242907561000000","mlsSource":"CRMLS","propertyType":"A","propertySubType":"Single Family Residence","livingArea":3086,"associationFee":135,"unparsedAddress":"11224 Bright Water Way, Bakersfield, CA 93311"}},{"type":"Feature","geometry":{"type":"Point","coordinates":[-119.126083,35.337352]},"properties":{"listingKey":"20250912234052756615000000","listingId":"PI-25215880","listPrice":649000,"city":"Bakersfield","baths":3.5,"slug":"20250912234052756615000000","mlsSource":"CRMLS","propertyType":"A","propertySubType":"Single Family Residence","livingArea":3135,"associationFee":130,"unparsedAddress":"1904 Wedgemont Place, Bakersfield, CA 93311"}},{"type":"Feature","geometry":{"type":"Point","coordinates":[-119.134763,35.335678]},"properties":{"listingKey":"20251102201203085173000000","listingId":"V1-33441","listPrice":2600000,"city":"Bakersfield","baths":6,"slug":"20251102201203085173000000","mlsSource":"CRMLS","propertyType":"A","propertySubType":"Single Family Residence","livingArea":6385,"associationFee":245,"unparsedAddress":"2006 Brighton Park Drive, Bakersfield, CA 93311"}},{"type":"Feature","geometry":{"type":"Point","coordinates":[-119.124279,35.345605]},"properties":{"listingKey":"20250912041920793646000000","listingId":"OC-25214722","listPrice":829999,"city":"Bakersfield","baths":3,"slug":"20250912041920793646000000","mlsSource":"CRMLS","propertyType":"A","propertySubType":"Single Family Residence","livingArea":3466,"associationFee":45,"unparsedAddress":"1001 Sungro Way, Bakersfield, CA 93311"}},{"type":"Feature","geometry":{"type":"Point","coordinates":[-119.133641,35.347819]},"properties":{"listingKey":"20250827041251546291000000","listingId":"PW-25176402","listPrice":525000,"city":"Bakersfield","baths":3.5,"slug":"20250827041251546291000000","mlsSource":"CRMLS","propertyType":"A","propertySubType":"Single Family Residence","livingArea":2543,"associationFee":0,"unparsedAddress":"803 Mountain Park Drive, Bakersfield, CA 93311"}}]