[{"type":"Feature","geometry":{"type":"Point","coordinates":[-118.300505,34.007568]},"properties":{"listingKey":"20251118174914096666000000","listingId":"P1-24968","listPrice":3770,"city":"Los Angeles","baths":3,"slug":"20251118174914096666000000","mlsSource":"CRMLS","propertyType":"B","propertySubType":"Townhouse","livingArea":1520,"unparsedAddress":"4177 South Normandie Avenue, Los Angeles, CA 90037"}},{"type":"Feature","geometry":{"type":"Point","coordinates":[-118.300497,34.015365]},"properties":{"listingKey":"20250930045809076528000000","listingId":"SB-25227934","listPrice":879000,"city":"Los Angeles","baths":4,"slug":"20250930045809076528000000","mlsSource":"CRMLS","propertyType":"A","propertySubType":"Duplex","livingArea":2380,"associationFee":0,"unparsedAddress":"3901 South Normandie, Los Angeles, CA 90037"}},{"type":"Feature","geometry":{"type":"Point","coordinates":[-118.29721,34.010527]},"properties":{"listingKey":"20250913014258236289000000","listingId":"DW-25216052","listPrice":1349000,"city":"Los Angeles","baths":0,"slug":"20250913014258236289000000","mlsSource":"CRMLS","propertyType":"C","propertySubType":"Commercial/Residential","livingArea":13294,"unparsedAddress":"1234 West Marting Luter King Jr., Los Angeles, CA 90037"}},{"type":"Feature","geometry":{"type":"Point","coordinates":[-118.298366,34.011244]},"properties":{"listingKey":"20250928072431374385000000","listingId":"SB-25226812","listPrice":1020000,"city":"Los Angeles","baths":0,"slug":"20250928072431374385000000","mlsSource":"CRMLS","propertyType":"C","propertySubType":"Quadruplex","livingArea":1,"unparsedAddress":"1307 West Martin Luther King Jr Boulevard, Los Angeles, CA 90037"}},{"type":"Feature","geometry":{"type":"Point","coordinates":[-118.295593,34.01034]},"properties":{"listingKey":"20251113192955393119000000","listingId":"RS-25259696","listPrice":1200000,"city":"Los Angeles","baths":2,"slug":"20251113192955393119000000","mlsSource":"CRMLS","propertyType":"A","propertySubType":"Single Family Residence","livingArea":1440,"associationFee":0,"unparsedAddress":"4012 South Budlong Avenue, Los Angeles, CA 90037"}},{"type":"Feature","geometry":{"type":"Point","coordinates":[-118.294603,34.009309]},"properties":{"listingKey":"20250726125146256655000000","listingId":"RS-25168163","listPrice":859999,"city":"Los Angeles","baths":2,"slug":"20250726125146256655000000","mlsSource":"CRMLS","propertyType":"A","propertySubType":"Single Family Residence","livingArea":2182,"associationFee":0,"unparsedAddress":"1115 West 41st Street, Los Angeles, CA 90037"}},{"type":"Feature","geometry":{"type":"Point","coordinates":[-118.296919,34.009283]},"properties":{"listingKey":"20250527211743853821000000","listingId":"DW-25117623","listPrice":5000,"city":"West Los Angeles","baths":4,"slug":"20250527211743853821000000","mlsSource":"CRMLS","propertyType":"B","propertySubType":"Duplex","livingArea":800,"associationFee":0,"unparsedAddress":"1225 West 41st, West Los Angeles, CA 90034"}},{"type":"Feature","geometry":{"type":"Point","coordinates":[-118.297211,34.015115]},"properties":{"listingKey":"20250928065047273943000000","listingId":"TR-25226655","listPrice":2450,"city":"Los Angeles","baths":1,"slug":"20250928065047273943000000","mlsSource":"CRMLS","propertyType":"B","propertySubType":"Apartment","livingArea":780,"associationFee":0,"unparsedAddress":"1194 39th Street, 7, Los Angeles, CA 90037"}},{"type":"Feature","geometry":{"type":"Point","coordinates":[-118.289812,34.008525]},"properties":{"listingKey":"20251111232612240628000000","listingId":"PW-25258503","listPrice":3800,"city":"Los Angeles","baths":1.75,"slug":"20251111232612240628000000","mlsSource":"CRMLS","propertyType":"B","propertySubType":"Apartment","livingArea":1044,"associationFee":0,"unparsedAddress":"873 West 41st Drive, Los Angeles, CA 90037"}}]