[{"type":"Feature","id":245385,"properties":{"cluster":true,"cluster_id":245385,"point_count":2,"point_count_abbreviated":2},"geometry":{"type":"Point","coordinates":[-118.30049693584442,34.01667764099872]}},{"type":"Feature","geometry":{"type":"Point","coordinates":[-118.300479,34.021358]},"properties":{"listingKey":"20251015172550716944000000","listingId":"PW-25240077","listPrice":2800,"city":"Los Angeles","baths":2,"slug":"20251015172550716944000000","mlsSource":"CRMLS","propertyType":"B","propertySubType":"Apartment","livingArea":952,"associationFee":0,"unparsedAddress":"3665 South Normandie, Los Angeles, CA 90007"}},{"type":"Feature","geometry":{"type":"Point","coordinates":[-118.299303,34.018559]},"properties":{"listingKey":"20251021205217393228000000","listingId":"CV-25243916","listPrice":825000,"city":"Los Angeles","baths":0,"slug":"20251021205217393228000000","mlsSource":"CRMLS","propertyType":"C","propertySubType":"Quadruplex","livingArea":2321,"associationFee":0,"unparsedAddress":"1261 Exposition, Los Angeles, CA 90007"}},{"type":"Feature","id":744777,"properties":{"cluster":true,"cluster_id":744777,"point_count":2,"point_count_abbreviated":2},"geometry":{"type":"Point","coordinates":[-118.29793006181717,34.017549136951914]}},{"type":"Feature","geometry":{"type":"Point","coordinates":[-118.295668,34.018818]},"properties":{"listingKey":"20250903004215341583000000","listingId":"AR-25197309","listPrice":1080000,"city":"Los Angeles","baths":0,"slug":"20250903004215341583000000","mlsSource":"CRMLS","propertyType":"C","propertySubType":"Single Family Residence","livingArea":1450,"associationFee":0,"unparsedAddress":"1234 West 37TH Drive, Los Angeles, CA 90007"}},{"type":"Feature","geometry":{"type":"Point","coordinates":[-118.296111,34.023107]},"properties":{"listingKey":"20251024064709535089000000","listingId":"OC-25246470","listPrice":4800,"city":"Los Angeles","baths":3,"slug":"20251024064709535089000000","mlsSource":"CRMLS","propertyType":"B","propertySubType":"Single Family Residence","livingArea":3663,"associationFee":0,"unparsedAddress":"1249 West 36th, Los Angeles, CA 90007"}},{"type":"Feature","geometry":{"type":"Point","coordinates":[-118.29889,34.023956]},"properties":{"listingKey":"20250822002224873067000000","listingId":"PW-25189101","listPrice":1449950,"city":"Los Angeles","baths":0,"slug":"20250822002224873067000000","mlsSource":"CRMLS","propertyType":"C","propertySubType":"Quadruplex","livingArea":3254,"associationFee":0,"unparsedAddress":"1349 West 35th Place, Los Angeles, CA 90007"}}]