[{"type":"Feature","geometry":{"type":"Point","coordinates":[-118.29655,33.791603]},"properties":{"listingKey":"20250826072032728265000000","listingId":"PW-25173311","listPrice":945000,"city":"Harbor City","baths":3.5,"slug":"20250826072032728265000000","mlsSource":"CRMLS","propertyType":"A","propertySubType":"Single Family Residence","livingArea":1574,"associationFee":0,"unparsedAddress":"1118 256th Street, Harbor City, CA 90710"}},{"type":"Feature","geometry":{"type":"Point","coordinates":[-118.291846,33.79296]},"properties":{"listingKey":"20251105215322615668000000","listingId":"PV-25254485","listPrice":695000,"city":"Harbor City","baths":2.5,"slug":"20251105215322615668000000","mlsSource":"CRMLS","propertyType":"A","propertySubType":"Single Family Residence","livingArea":1424,"associationFee":254,"unparsedAddress":"25507 Bayside Place, Harbor City, CA 90710"}},{"type":"Feature","geometry":{"type":"Point","coordinates":[-118.293591,33.793058]},"properties":{"listingKey":"20251015193924793751000000","listingId":"SB-25239636","listPrice":675000,"city":"Harbor City","baths":2.5,"slug":"20251015193924793751000000","mlsSource":"CRMLS","propertyType":"A","propertySubType":"Condominium","livingArea":1434,"associationFee":279.52,"unparsedAddress":"1008 South Harbor Heights Drive, B, Harbor City, CA 90710"}},{"type":"Feature","id":247849,"properties":{"cluster":true,"cluster_id":247849,"point_count":2,"point_count_abbreviated":2},"geometry":{"type":"Point","coordinates":[-118.29713344573975,33.79533136887365]}},{"type":"Feature","geometry":{"type":"Point","coordinates":[-118.295713,33.794905]},"properties":{"listingKey":"20250812145959949608000000","listingId":"PW-25181420","listPrice":884000,"city":"Harbor City","baths":2,"slug":"20250812145959949608000000","mlsSource":"CRMLS","propertyType":"A","propertySubType":"Single Family Residence","livingArea":945,"associationFee":0,"unparsedAddress":"1087 253rd Street, Harbor City, CA 90710"}},{"type":"Feature","geometry":{"type":"Point","coordinates":[-118.300242,33.791617]},"properties":{"listingKey":"20251118191517536228000000","listingId":"AR-25250880","listPrice":699950,"city":"Harbor City","baths":0,"slug":"20251118191517536228000000","mlsSource":"CRMLS","propertyType":"C","propertySubType":"Duplex","livingArea":1920,"associationFee":0,"unparsedAddress":"25531 Frampton, Harbor City, CA 90710"}},{"type":"Feature","id":1093801,"properties":{"cluster":true,"cluster_id":1093801,"point_count":2,"point_count_abbreviated":2},"geometry":{"type":"Point","coordinates":[-118.29949378967285,33.795763792929435]}}]