[{"type":"Feature","geometry":{"type":"Point","coordinates":[-117.214981,34.24249]},"properties":{"listingKey":"20251108020845451078000000","listingId":"IV-25256566","listPrice":300000,"city":"Blue Jay","baths":1,"slug":"20251108020845451078000000","mlsSource":"CRMLS","propertyType":"A","propertySubType":"Single Family Residence","livingArea":996,"associationFee":0,"unparsedAddress":"26978 State Highway 189, Blue Jay, CA 92317"}},{"type":"Feature","id":442345,"properties":{"cluster":true,"cluster_id":442345,"point_count":2,"point_count_abbreviated":2},"geometry":{"type":"Point","coordinates":[-117.22115993499756,34.23905366851639]}},{"type":"Feature","geometry":{"type":"Point","coordinates":[-117.220566,34.241508]},"properties":{"listingKey":"20251024184306982816000000","listingId":"CV-25246662","listPrice":599999,"city":"Lake Arrowhead","baths":2,"slug":"20251024184306982816000000","mlsSource":"CRMLS","propertyType":"A","propertySubType":"Cabin","livingArea":1572,"associationFee":0,"unparsedAddress":"612 Karenken Pines, Lake Arrowhead, CA 92352"}},{"type":"Feature","geometry":{"type":"Point","coordinates":[-117.219275,34.237762]},"properties":{"listingKey":"20251114012253248136000000","listingId":"IG-25258012","listPrice":425000,"city":"Twin Peaks","baths":3,"slug":"20251114012253248136000000","mlsSource":"CRMLS","propertyType":"A","propertySubType":"Single Family Residence","livingArea":2033,"associationFee":0,"unparsedAddress":"26791 Highway 189, Twin Peaks, CA 92391"}},{"type":"Feature","geometry":{"type":"Point","coordinates":[-117.222484,34.241455]},"properties":{"listingKey":"20251108054606860931000000","listingId":"SW-25256646","listPrice":580000,"city":"Twin Peaks","baths":2.5,"slug":"20251108054606860931000000","mlsSource":"CRMLS","propertyType":"A","propertySubType":"Cabin","livingArea":2312,"associationFee":0,"unparsedAddress":"26638 Lake Forest, Twin Peaks, CA 92391"}},{"type":"Feature","geometry":{"type":"Point","coordinates":[-117.218125,34.238392]},"properties":{"listingKey":"20251016235420614823000000","listingId":"PW-25179722","listPrice":154900,"city":"Lake Arrowhead","baths":0,"slug":"20251016235420614823000000","mlsSource":"CRMLS","propertyType":"A","propertySubType":"Boat Slip","associationFee":0,"unparsedAddress":"0 Dock MBM3 Slip #15, Lake Arrowhead, CA 92317"}}]