[{"type":"Feature","geometry":{"type":"Point","coordinates":[-117.222191,33.815417]},"properties":{"listingKey":"20250901210502237839000000","listingId":"CV-25196360","listPrice":485000,"city":"Perris","baths":2.5,"slug":"20250901210502237839000000","mlsSource":"CRMLS","propertyType":"A","propertySubType":"Single Family Residence","livingArea":1807,"associationFee":200,"unparsedAddress":"174 Linden Court, Perris, CA 92571"}},{"type":"Feature","id":204745,"properties":{"cluster":true,"cluster_id":204745,"point_count":3,"point_count_abbreviated":3},"geometry":{"type":"Point","coordinates":[-117.22235977649687,33.81360123864515]}},{"type":"Feature","id":205001,"properties":{"cluster":true,"cluster_id":205001,"point_count":3,"point_count_abbreviated":3},"geometry":{"type":"Point","coordinates":[-117.22258329391481,33.81504233595585]}},{"type":"Feature","geometry":{"type":"Point","coordinates":[-117.2229,33.807702]},"properties":{"listingKey":"20251118182222216460000000","listingId":"SW-25261980","listPrice":2395,"city":"Perris","baths":2,"slug":"20251118182222216460000000","mlsSource":"CRMLS","propertyType":"B","propertySubType":"Single Family Residence","livingArea":888,"associationFee":0,"unparsedAddress":"171 Oaktree, Perris, CA 92571"}},{"type":"Feature","geometry":{"type":"Point","coordinates":[-117.214655,33.809367]},"properties":{"listingKey":"20251112060740145250000000","listingId":"IG-25258536","listPrice":499995,"city":"Perris","baths":3,"slug":"20251112060740145250000000","mlsSource":"CRMLS","propertyType":"A","propertySubType":"Single Family Residence","livingArea":1650,"associationFee":0,"unparsedAddress":"509 Granite View, Perris, CA 92571"}},{"type":"Feature","geometry":{"type":"Point","coordinates":[-117.219543,33.810156]},"properties":{"listingKey":"20250803060515240553000000","listingId":"PW-25172114","listPrice":483000,"city":"Perris","baths":2,"slug":"20250803060515240553000000","mlsSource":"CRMLS","propertyType":"A","propertySubType":"Single Family Residence","livingArea":1011,"associationFee":0,"unparsedAddress":"302 Daystar Drive, Perris, CA 92571"}},{"type":"Feature","geometry":{"type":"Point","coordinates":[-117.213469,33.812948]},"properties":{"listingKey":"20251111211045741302000000","listingId":"OC-25256982","listPrice":455000,"city":"Perris","baths":2,"slug":"20251111211045741302000000","mlsSource":"CRMLS","propertyType":"A","propertySubType":"Single Family Residence","livingArea":900,"associationFee":0,"unparsedAddress":"575 Prairie, Perris, CA 92571"}}]