[{"type":"Feature","geometry":{"type":"Point","coordinates":[-117.992703,33.680253]},"properties":{"listingKey":"20251030194323596283000000","listingId":"OC-25250574","listPrice":3395,"city":"Huntington Beach","baths":2.5,"slug":"20251030194323596283000000","mlsSource":"CRMLS","propertyType":"B","propertySubType":"Townhouse","livingArea":1200,"associationFee":0,"unparsedAddress":"2526 Delaware St., Huntington Beach, CA 92648"}},{"type":"Feature","geometry":{"type":"Point","coordinates":[-117.991221,33.679858]},"properties":{"listingKey":"20251107173117075553000000","listingId":"OC-25255260","listPrice":4000,"city":"Huntington Beach","baths":2,"slug":"20251107173117075553000000","mlsSource":"CRMLS","propertyType":"B","propertySubType":"Apartment","livingArea":1691,"associationFee":0,"unparsedAddress":"2511 Florida Street, 1, Huntington Beach, CA 92648"}},{"type":"Feature","geometry":{"type":"Point","coordinates":[-117.992013,33.687205]},"properties":{"listingKey":"20251113190146540801000000","listingId":"TR-25259826","listPrice":5500,"city":"Huntington Beach","baths":2.5,"slug":"20251113190146540801000000","mlsSource":"CRMLS","propertyType":"B","propertySubType":"Single Family Residence","livingArea":1844,"unparsedAddress":"7805 Garfield, Huntington Beach, CA 92648"}},{"type":"Feature","geometry":{"type":"Point","coordinates":[-117.985783,33.687461]},"properties":{"listingKey":"20251107044034465246000000","listingId":"PW-25255853","listPrice":2450,"city":"Huntington Beach","baths":1,"slug":"20251107044034465246000000","mlsSource":"CRMLS","propertyType":"B","propertySubType":"Quadruplex","livingArea":900,"associationFee":0,"unparsedAddress":"18891 Mora Kai, G, Huntington Beach, CA 92646"}},{"type":"Feature","geometry":{"type":"Point","coordinates":[-117.986109,33.684354]},"properties":{"listingKey":"20251120155258072566000000","listingId":"NP-25257838","listPrice":1679000,"city":"Huntington Beach","baths":2.5,"slug":"20251120155258072566000000","mlsSource":"CRMLS","propertyType":"A","propertySubType":"Single Family Residence","livingArea":2780,"associationFee":0,"unparsedAddress":"8142 Wadebridge, Huntington Beach, CA 92646"}}]