[{"type":"Feature","geometry":{"type":"Point","coordinates":[-118.113984,34.162858]},"properties":{"listingKey":"20251114190331049884000000","listingId":"P1-24938","listPrice":2000000,"city":"Pasadena","baths":2.5,"slug":"20251114190331049884000000","mlsSource":"CRMLS","propertyType":"A","propertySubType":"Single Family Residence","livingArea":2436,"unparsedAddress":"1768 Casa Grande Street, Pasadena, CA 91104"}},{"type":"Feature","geometry":{"type":"Point","coordinates":[-118.108867,34.187078]},"properties":{"listingKey":"20250923175518065689000000","listingId":"P1-24246","listPrice":2998000,"city":"Altadena","baths":2.25,"slug":"20250923175518065689000000","mlsSource":"CRMLS","propertyType":"A","propertySubType":"Single Family Residence","livingArea":3380,"unparsedAddress":"2051 Mendocino Lane, Altadena, CA 91001"}},{"type":"Feature","geometry":{"type":"Point","coordinates":[-118.113319,34.181764]},"properties":{"listingKey":"20250903160756084993000000","listingId":"P1-23937","listPrice":1850000,"city":"Altadena","baths":1.75,"slug":"20250903160756084993000000","mlsSource":"CRMLS","propertyType":"A","propertySubType":"Single Family Residence","livingArea":2044,"unparsedAddress":"1807 Vistillas Road, Altadena, CA 91001"}},{"type":"Feature","id":684327,"properties":{"cluster":true,"cluster_id":684327,"point_count":2,"point_count_abbreviated":2},"geometry":{"type":"Point","coordinates":[-118.10267597436905,34.179948770425185]}},{"type":"Feature","geometry":{"type":"Point","coordinates":[-118.105811,34.164001]},"properties":{"listingKey":"20250831230912702556000000","listingId":"OC-25196041","listPrice":5600,"city":"Pasadena","baths":2,"slug":"20250831230912702556000000","mlsSource":"CRMLS","propertyType":"B","propertySubType":"Single Family Residence","livingArea":1615,"associationFee":0,"unparsedAddress":"2166 Casa Grande Street, Pasadena, CA 91104"}},{"type":"Feature","id":106887,"properties":{"cluster":true,"cluster_id":106887,"point_count":11,"point_count_abbreviated":11},"geometry":{"type":"Point","coordinates":[-118.11331483450803,34.171179505092724]}},{"type":"Feature","geometry":{"type":"Point","coordinates":[-118.094257,34.163602]},"properties":{"listingKey":"20251102172735940460000000","listingId":"DW-25141051","listPrice":1695000,"city":"Pasadena","baths":3,"slug":"20251102172735940460000000","mlsSource":"CRMLS","propertyType":"A","propertySubType":"Single Family Residence","livingArea":2144,"associationFee":0,"unparsedAddress":"1007 Rose Avenue, Pasadena, CA 91107"}},{"type":"Feature","id":115303,"properties":{"cluster":true,"cluster_id":115303,"point_count":2,"point_count_abbreviated":2},"geometry":{"type":"Point","coordinates":[-118.08192908763885,34.16221321478048]}},{"type":"Feature","geometry":{"type":"Point","coordinates":[-118.088127,34.182527]},"properties":{"listingKey":"20250711205633828321000000","listingId":"P1-23218","listPrice":4480000,"city":"Pasadena","baths":4,"slug":"20250711205633828321000000","mlsSource":"CRMLS","propertyType":"A","propertySubType":"Single Family Residence","livingArea":5237,"associationFee":200,"unparsedAddress":"2330 Crystal Lane, Pasadena, CA 91107"}},{"type":"Feature","id":281225,"properties":{"cluster":true,"cluster_id":281225,"point_count":2,"point_count_abbreviated":2},"geometry":{"type":"Point","coordinates":[-118.09747517108917,34.16787248686454]}},{"type":"Feature","geometry":{"type":"Point","coordinates":[-118.120224,34.19538]},"properties":{"listingKey":"20251105161008198736000000","listingId":"P1-24860","listPrice":2885000,"city":"Altadena","baths":5.5,"slug":"20251105161008198736000000","mlsSource":"CRMLS","propertyType":"A","propertySubType":"Single Family Residence","livingArea":4583,"unparsedAddress":"2954 Zane Grey Terrace, Altadena, CA 91001"}},{"type":"Feature","id":220039,"properties":{"cluster":true,"cluster_id":220039,"point_count":2,"point_count_abbreviated":2},"geometry":{"type":"Point","coordinates":[-118.12316805124283,34.18473264883073]}},{"type":"Feature","id":84615,"properties":{"cluster":true,"cluster_id":84615,"point_count":3,"point_count_abbreviated":3},"geometry":{"type":"Point","coordinates":[-118.11734318733214,34.188411346679985]}},{"type":"Feature","id":192871,"properties":{"cluster":true,"cluster_id":192871,"point_count":3,"point_count_abbreviated":3},"geometry":{"type":"Point","coordinates":[-118.11603605747223,34.17840586001516]}},{"type":"Feature","geometry":{"type":"Point","coordinates":[-118.121157,34.167635]},"properties":{"listingKey":"20250924161821826820000000","listingId":"P1-24363","listPrice":2149000,"city":"Pasadena","baths":3.5,"slug":"20250924161821826820000000","mlsSource":"CRMLS","propertyType":"A","propertySubType":"Single Family Residence","livingArea":2618,"unparsedAddress":"1254 North Hill Avenue, Pasadena, CA 91104"}},{"type":"Feature","id":914953,"properties":{"cluster":true,"cluster_id":914953,"point_count":2,"point_count_abbreviated":2},"geometry":{"type":"Point","coordinates":[-118.11972677707672,34.17445008161798]}}]