[{"type":"Feature","id":155239,"properties":{"cluster":true,"cluster_id":155239,"point_count":7,"point_count_abbreviated":7},"geometry":{"type":"Point","coordinates":[-118.09049912861416,34.00821375579389]}},{"type":"Feature","id":492871,"properties":{"cluster":true,"cluster_id":492871,"point_count":2,"point_count_abbreviated":2},"geometry":{"type":"Point","coordinates":[-118.08314949274063,34.00389319014289]}},{"type":"Feature","geometry":{"type":"Point","coordinates":[-118.107881,34.00629]},"properties":{"listingKey":"20250902212549003323000000","listingId":"RS-25194732","listPrice":1499000,"city":"Montebello","baths":0,"slug":"20250902212549003323000000","mlsSource":"CRMLS","propertyType":"C","propertySubType":"Apartment","livingArea":2304,"unparsedAddress":"252 South 7th Street, Montebello, CA 90640"}},{"type":"Feature","id":177735,"properties":{"cluster":true,"cluster_id":177735,"point_count":4,"point_count_abbreviated":4},"geometry":{"type":"Point","coordinates":[-118.11365559697151,34.00589436168404]}},{"type":"Feature","id":118760,"properties":{"cluster":true,"cluster_id":118760,"point_count":4,"point_count_abbreviated":4},"geometry":{"type":"Point","coordinates":[-118.08196529746056,33.997889392608016]}},{"type":"Feature","id":598344,"properties":{"cluster":true,"cluster_id":598344,"point_count":2,"point_count_abbreviated":2},"geometry":{"type":"Point","coordinates":[-118.08994889259338,33.995621180882196]}},{"type":"Feature","geometry":{"type":"Point","coordinates":[-118.11377,33.995135]},"properties":{"listingKey":"20251120005008597995000000","listingId":"MB-25263288","listPrice":2200,"city":"Montebello","baths":1,"slug":"20251120005008597995000000","mlsSource":"CRMLS","propertyType":"B","propertySubType":"Apartment","livingArea":850,"associationFee":0,"unparsedAddress":"901 Carob Way, E, Montebello, CA 90640"}},{"type":"Feature","geometry":{"type":"Point","coordinates":[-118.085552,33.991518]},"properties":{"listingKey":"20250822063710926917000000","listingId":"DW-25189346","listPrice":775000,"city":"Pico Rivera","baths":2,"slug":"20250822063710926917000000","mlsSource":"CRMLS","propertyType":"A","propertySubType":"Single Family Residence","livingArea":1887,"associationFee":0,"unparsedAddress":"9140 Rosehedge Drive, Pico Rivera, CA 90660"}},{"type":"Feature","id":901129,"properties":{"cluster":true,"cluster_id":901129,"point_count":2,"point_count_abbreviated":2},"geometry":{"type":"Point","coordinates":[-118.10334384441376,33.98716599931937]}},{"type":"Feature","geometry":{"type":"Point","coordinates":[-118.08544,33.981749]},"properties":{"listingKey":"20251029030227898674000000","listingId":"DW-25249316","listPrice":815000,"city":"Pico Rivera","baths":2,"slug":"20251029030227898674000000","mlsSource":"CRMLS","propertyType":"A","propertySubType":"Single Family Residence","livingArea":1578,"associationFee":0,"unparsedAddress":"9603 Homebrook, Pico Rivera, CA 90660"}},{"type":"Feature","id":107111,"properties":{"cluster":true,"cluster_id":107111,"point_count":2,"point_count_abbreviated":2},"geometry":{"type":"Point","coordinates":[-118.09265524148941,33.9805204634967]}},{"type":"Feature","geometry":{"type":"Point","coordinates":[-118.09488,34.013814]},"properties":{"listingKey":"20250708165953047137000000","listingId":"TR-25151486","listPrice":2400,"city":"Montebello","baths":1,"slug":"20250708165953047137000000","mlsSource":"CRMLS","propertyType":"B","propertySubType":"Apartment","livingArea":800,"associationFee":0,"unparsedAddress":"420 Bradley Avenue, Montebello, CA 90640"}},{"type":"Feature","id":137863,"properties":{"cluster":true,"cluster_id":137863,"point_count":2,"point_count_abbreviated":2},"geometry":{"type":"Point","coordinates":[-118.08837711811066,34.012924770498756]}},{"type":"Feature","id":116935,"properties":{"cluster":true,"cluster_id":116935,"point_count":5,"point_count_abbreviated":5},"geometry":{"type":"Point","coordinates":[-118.10652279853822,34.012341370991805]}},{"type":"Feature","id":112295,"properties":{"cluster":true,"cluster_id":112295,"point_count":2,"point_count_abbreviated":2},"geometry":{"type":"Point","coordinates":[-118.08192640542984,34.01051021753901]}},{"type":"Feature","geometry":{"type":"Point","coordinates":[-118.121498,34.013462]},"properties":{"listingKey":"20251106031730699347000000","listingId":"DW-25254834","listPrice":829999,"city":"Montebello","baths":0,"slug":"20251106031730699347000000","mlsSource":"CRMLS","propertyType":"C","propertySubType":"Triplex","livingArea":1884,"unparsedAddress":"113 North 19th Street, Montebello, CA 90640"}},{"type":"Feature","geometry":{"type":"Point","coordinates":[-118.123863,33.988964]},"properties":{"listingKey":"20251121010810763745000000","listingId":"WS-25262861","listPrice":479995,"city":"Montebello","baths":1.5,"slug":"20251121010810763745000000","mlsSource":"CRMLS","propertyType":"A","propertySubType":"Condominium","livingArea":825,"associationFee":275,"unparsedAddress":"1301 South greenwood, 31, Montebello, CA 90640"}},{"type":"Feature","geometry":{"type":"Point","coordinates":[-118.116893,33.991102]},"properties":{"listingKey":"20250930181750463812000000","listingId":"PW-25226690","listPrice":775000,"city":"Montebello","baths":2,"slug":"20250930181750463812000000","mlsSource":"CRMLS","propertyType":"A","propertySubType":"Single Family Residence","livingArea":1285,"associationFee":0,"unparsedAddress":"740 Albee, Montebello, CA 90640"}},{"type":"Feature","geometry":{"type":"Point","coordinates":[-118.114841,34.012193]},"properties":{"listingKey":"20251118203229220992000000","listingId":"WS-25261624","listPrice":540000,"city":"Montebello","baths":1,"slug":"20251118203229220992000000","mlsSource":"CRMLS","propertyType":"A","propertySubType":"Single Family Residence","livingArea":828,"associationFee":0,"unparsedAddress":"1325 Charleston, Montebello, CA 90640"}}]