[{"type":"Feature","geometry":{"type":"Point","coordinates":[-116.531424,33.83964]},"properties":{"listingKey":"20251022194815009574000000","listingId":"CV-25244852","listPrice":1750000,"city":"Palm Springs","baths":3.5,"slug":"20251022194815009574000000","mlsSource":"CRMLS","propertyType":"A","propertySubType":"Single Family Residence","livingArea":1822,"associationFee":0,"unparsedAddress":"1281 Linda Vista, Palm Springs, CA 92262"}},{"type":"Feature","id":116425,"properties":{"cluster":true,"cluster_id":116425,"point_count":2,"point_count_abbreviated":2},"geometry":{"type":"Point","coordinates":[-116.53091222047806,33.84588787954482]}},{"type":"Feature","id":87592,"properties":{"cluster":true,"cluster_id":87592,"point_count":4,"point_count_abbreviated":4},"geometry":{"type":"Point","coordinates":[-116.52970924973488,33.83458166421198]}},{"type":"Feature","id":100712,"properties":{"cluster":true,"cluster_id":100712,"point_count":2,"point_count_abbreviated":2},"geometry":{"type":"Point","coordinates":[-116.53288900852203,33.84988869610126]}},{"type":"Feature","geometry":{"type":"Point","coordinates":[-116.532847,33.837163]},"properties":{"listingKey":"20250512224839082154000000","listingId":"219130274","listPrice":1374000,"city":"Palm Springs","baths":4,"slug":"20250512224839082154000000","mlsSource":"GPS","propertyType":"A","propertySubType":"Single Family Residence","livingArea":2415,"associationFee":0,"unparsedAddress":"1190 E Buena Vista Drive, Palm Springs, CA 92262"}},{"type":"Feature","id":43592,"properties":{"cluster":true,"cluster_id":43592,"point_count":5,"point_count_abbreviated":5},"geometry":{"type":"Point","coordinates":[-116.52986133098604,33.85079041329115]}},{"type":"Feature","id":37897,"properties":{"cluster":true,"cluster_id":37897,"point_count":3,"point_count_abbreviated":3},"geometry":{"type":"Point","coordinates":[-116.52954697608948,33.84204133509098]}},{"type":"Feature","id":38600,"properties":{"cluster":true,"cluster_id":38600,"point_count":3,"point_count_abbreviated":3},"geometry":{"type":"Point","coordinates":[-116.52547895908354,33.835443885433676]}},{"type":"Feature","geometry":{"type":"Point","coordinates":[-116.522058,33.837083]},"properties":{"listingKey":"20251112045236921366000000","listingId":"CV-25258646","listPrice":1299000,"city":"Palm Springs","baths":2,"slug":"20251112045236921366000000","mlsSource":"CRMLS","propertyType":"A","propertySubType":"Single Family Residence","livingArea":1660,"associationFee":0,"unparsedAddress":"951 North Camino Condor, Palm Springs, CA 92262"}},{"type":"Feature","geometry":{"type":"Point","coordinates":[-116.527336,33.850817]},"properties":{"listingKey":"20250905181654747824000000","listingId":"219134930","listPrice":950000,"city":"Palm Springs","baths":2,"slug":"20250905181654747824000000","mlsSource":"GPS","propertyType":"A","propertySubType":"Single Family Residence","livingArea":1399,"associationFee":0,"unparsedAddress":"2355 W Nicola Road, Palm Springs, CA 92262"}},{"type":"Feature","id":40872,"properties":{"cluster":true,"cluster_id":40872,"point_count":4,"point_count_abbreviated":4},"geometry":{"type":"Point","coordinates":[-116.52180343866348,33.84650717186901]}},{"type":"Feature","id":82984,"properties":{"cluster":true,"cluster_id":82984,"point_count":4,"point_count_abbreviated":4},"geometry":{"type":"Point","coordinates":[-116.52578115463257,33.84877490184819]}},{"type":"Feature","geometry":{"type":"Point","coordinates":[-116.526215,33.841524]},"properties":{"listingKey":"20250911182718919682000000","listingId":"219135231","listPrice":519000,"city":"Palm Springs","baths":1.75,"slug":"20250911182718919682000000","mlsSource":"GPS","propertyType":"A","propertySubType":"Condominium","livingArea":1248,"associationFee":700,"unparsedAddress":"1878 E Chia Road, Palm Springs, CA 92262"}},{"type":"Feature","geometry":{"type":"Point","coordinates":[-116.536321,33.835057]},"properties":{"listingKey":"20250906115219068179000000","listingId":"219134959","listPrice":1100000,"city":"Palm Springs","baths":4,"slug":"20250906115219068179000000","mlsSource":"GPS","propertyType":"A","propertySubType":"Single Family Residence","livingArea":2100,"associationFee":0,"unparsedAddress":"1029 E El Alameda, Palm Springs, CA 92262"}},{"type":"Feature","id":96104,"properties":{"cluster":true,"cluster_id":96104,"point_count":2,"point_count_abbreviated":2},"geometry":{"type":"Point","coordinates":[-116.54074519872665,33.849603566155366]}},{"type":"Feature","geometry":{"type":"Point","coordinates":[-116.53608,33.851819]},"properties":{"listingKey":"20251007012412240748000000","listingId":"GD-25229180","listPrice":1360000,"city":"Palm Springs","baths":4,"slug":"20251007012412240748000000","mlsSource":"CRMLS","propertyType":"A","propertySubType":"Single Family Residence","livingArea":2749,"associationFee":0,"unparsedAddress":"1055 East Racquet Club, Palm Springs, CA 92262"}},{"type":"Feature","geometry":{"type":"Point","coordinates":[-116.536517,33.847575]},"properties":{"listingKey":"20251021000536841618000000","listingId":"219137497","listPrice":899000,"city":"Palm Springs","baths":2,"slug":"20251021000536841618000000","mlsSource":"GPS","propertyType":"A","propertySubType":"Single Family Residence","livingArea":1452,"associationFee":0,"unparsedAddress":"1031 E El Conquistador, Palm Springs, CA 92262"}},{"type":"Feature","id":42696,"properties":{"cluster":true,"cluster_id":42696,"point_count":3,"point_count_abbreviated":3},"geometry":{"type":"Point","coordinates":[-116.54160618782043,33.84631559270868]}},{"type":"Feature","id":94696,"properties":{"cluster":true,"cluster_id":94696,"point_count":3,"point_count_abbreviated":3},"geometry":{"type":"Point","coordinates":[-116.536728143692,33.84477997368509]}},{"type":"Feature","geometry":{"type":"Point","coordinates":[-116.535965,33.838845]},"properties":{"listingKey":"20251030232358442651000000","listingId":"SB-25247838","listPrice":15000,"city":"Palm Springs","baths":4,"slug":"20251030232358442651000000","mlsSource":"CRMLS","propertyType":"B","propertySubType":"Single Family Residence","livingArea":2129,"associationFee":0,"unparsedAddress":"1057 East Marshall Way, Palm Springs, CA 92262"}},{"type":"Feature","geometry":{"type":"Point","coordinates":[-116.535426,33.842091]},"properties":{"listingKey":"20250817083454470935000000","listingId":"OC-25182081","listPrice":1599000,"city":"Palm Springs","baths":3.5,"slug":"20250817083454470935000000","mlsSource":"CRMLS","propertyType":"A","propertySubType":"Single Family Residence","livingArea":2692,"associationFee":0,"unparsedAddress":"1045 East Deepak Road, Palm Springs, CA 92262"}}]