[{"type":"Feature","geometry":{"type":"Point","coordinates":[-122.035455,37.539276]},"properties":{"listingKey":"20251107205104521324000000","listingId":"01-41116965","listPrice":1499000,"city":"Newark","baths":3,"slug":"20251107205104521324000000","mlsSource":"CRMLS","propertyType":"A","propertySubType":"Single Family Residence","livingArea":1939,"unparsedAddress":"6140 Mayhews Landing Rd, Newark, CA 94560"}},{"type":"Feature","geometry":{"type":"Point","coordinates":[-122.021762,37.530241]},"properties":{"listingKey":"20251030033620667321000000","listingId":"01-41116170","listPrice":1999950,"city":"Newark","baths":3,"slug":"20251030033620667321000000","mlsSource":"CRMLS","propertyType":"A","propertySubType":"Single Family Residence","livingArea":1996,"unparsedAddress":"6257 Honeysuckle Dr, Newark, CA 94560"}},{"type":"Feature","geometry":{"type":"Point","coordinates":[-122.027582,37.534566]},"properties":{"listingKey":"20250912235200435132000000","listingId":"01-41111435","listPrice":599888,"city":"Newark","baths":2,"slug":"20250912235200435132000000","mlsSource":"CRMLS","propertyType":"A","propertySubType":"Condominium","livingArea":840,"associationFee":400,"unparsedAddress":"6198 Civic Terrace Ave, A, Newark, CA 94560"}},{"type":"Feature","geometry":{"type":"Point","coordinates":[-122.033136,37.535211]},"properties":{"listingKey":"20251031012751193732000000","listingId":"01-41116292","listPrice":699000,"city":"Newark","baths":2.5,"slug":"20251031012751193732000000","mlsSource":"CRMLS","propertyType":"A","propertySubType":"Townhouse","livingArea":1166,"associationFee":525,"unparsedAddress":"6189 Thornton Ave, C, Newark, CA 94560"}},{"type":"Feature","id":546023,"properties":{"cluster":true,"cluster_id":546023,"point_count":2,"point_count_abbreviated":2},"geometry":{"type":"Point","coordinates":[-122.00653731822968,37.53010606439757]}},{"type":"Feature","geometry":{"type":"Point","coordinates":[-122.008149,37.539828]},"properties":{"listingKey":"20251115024553654362000000","listingId":"01-41117541","listPrice":1798000,"city":"Fremont","baths":2,"slug":"20251115024553654362000000","mlsSource":"CRMLS","propertyType":"A","propertySubType":"Single Family Residence","livingArea":1906,"associationFee":43,"unparsedAddress":"38278 Alta Dr, Fremont, CA 94536"}},{"type":"Feature","geometry":{"type":"Point","coordinates":[-121.992935,37.538228]},"properties":{"listingKey":"20250930014110955491000000","listingId":"01-41113127","listPrice":1888000,"city":"Fremont","baths":2,"slug":"20250930014110955491000000","mlsSource":"CRMLS","propertyType":"A","propertySubType":"Single Family Residence","livingArea":2060,"unparsedAddress":"4714 Serra Ave, Fremont, CA 94538"}},{"type":"Feature","id":815944,"properties":{"cluster":true,"cluster_id":815944,"point_count":2,"point_count_abbreviated":2},"geometry":{"type":"Point","coordinates":[-122.0158526301384,37.53978790963707]}},{"type":"Feature","id":121991,"properties":{"cluster":true,"cluster_id":121991,"point_count":7,"point_count_abbreviated":7},"geometry":{"type":"Point","coordinates":[-121.99888842446462,37.51731087749009]}}]