[{"type":"Feature","geometry":{"type":"Point","coordinates":[-120.686083,35.461216]},"properties":{"listingKey":"20250921225316592513000000","listingId":"NS-25144061","listPrice":849000,"city":"Atascadero","baths":1.75,"slug":"20250921225316592513000000","mlsSource":"CRMLS","propertyType":"A","propertySubType":"Single Family Residence","livingArea":1814,"associationFee":0,"unparsedAddress":"8565 Casanova Road, Atascadero, CA 93422"}},{"type":"Feature","geometry":{"type":"Point","coordinates":[-120.705557,35.464824]},"properties":{"listingKey":"20250729060552742047000000","listingId":"SC-25129964","listPrice":1320000,"city":"Atascadero","baths":2.5,"slug":"20250729060552742047000000","mlsSource":"CRMLS","propertyType":"A","propertySubType":"Single Family Residence","livingArea":3237,"associationFee":0,"unparsedAddress":"11555 Cenegal Road, Atascadero, CA 93422"}},{"type":"Feature","geometry":{"type":"Point","coordinates":[-120.677501,35.486807]},"properties":{"listingKey":"20251017204009729478000000","listingId":"SC-25242071","listPrice":899000,"city":"Atascadero","baths":2,"slug":"20251017204009729478000000","mlsSource":"CRMLS","propertyType":"A","propertySubType":"Single Family Residence","livingArea":2019,"associationFee":0,"unparsedAddress":"5450 Pescado Court, Atascadero, CA 93422"}},{"type":"Feature","geometry":{"type":"Point","coordinates":[-120.683521,35.490193]},"properties":{"listingKey":"20251015233557942250000000","listingId":"NS-25237642","listPrice":1049000,"city":"Atascadero","baths":3,"slug":"20251015233557942250000000","mlsSource":"CRMLS","propertyType":"A","propertySubType":"Single Family Residence","livingArea":2712,"associationFee":0,"unparsedAddress":"3880 Ardilla, Atascadero, CA 93422"}},{"type":"Feature","id":493063,"properties":{"cluster":true,"cluster_id":493063,"point_count":2,"point_count_abbreviated":2},"geometry":{"type":"Point","coordinates":[-120.6780257821083,35.484090858068384]}},{"type":"Feature","geometry":{"type":"Point","coordinates":[-120.685656,35.483105]},"properties":{"listingKey":"20250827041232885459000000","listingId":"NS-25192447","listPrice":929000,"city":"Atascadero","baths":2,"slug":"20250827041232885459000000","mlsSource":"CRMLS","propertyType":"A","propertySubType":"Single Family Residence","livingArea":1548,"associationFee":0,"unparsedAddress":"9080 Santa Lucia Road, Atascadero, CA 93422"}},{"type":"Feature","geometry":{"type":"Point","coordinates":[-120.68167,35.467503]},"properties":{"listingKey":"20251001030449404813000000","listingId":"NS-25225707","listPrice":1450000,"city":"Atascadero","baths":3,"slug":"20251001030449404813000000","mlsSource":"CRMLS","propertyType":"A","propertySubType":"Single Family Residence","livingArea":2812,"associationFee":0,"unparsedAddress":"7215 San Gabriel, Atascadero, CA 93422"}}]