[{"type":"Feature","id":44841,"properties":{"cluster":true,"cluster_id":44841,"point_count":3,"point_count_abbreviated":3},"geometry":{"type":"Point","coordinates":[-116.38277113437653,33.752303919583184]}},{"type":"Feature","id":86729,"properties":{"cluster":true,"cluster_id":86729,"point_count":3,"point_count_abbreviated":3},"geometry":{"type":"Point","coordinates":[-116.38094902038576,33.75582148273082]}},{"type":"Feature","geometry":{"type":"Point","coordinates":[-116.378676,33.754142]},"properties":{"listingKey":"20251105152123360020000000","listingId":"219138238","listPrice":464999,"city":"Palm Desert","baths":2,"slug":"20251105152123360020000000","mlsSource":"GPS","propertyType":"A","propertySubType":"Condominium","livingArea":1675,"associationFee":590,"unparsedAddress":"41515 Navarre Court, Palm Desert, CA 92260"}},{"type":"Feature","geometry":{"type":"Point","coordinates":[-116.378749,33.752985]},"properties":{"listingKey":"20250917081654246696000000","listingId":"8P-2507099","listPrice":488990,"city":"Palm Desert","baths":2,"slug":"20250917081654246696000000","mlsSource":"CRMLS","propertyType":"A","propertySubType":"Condominium","livingArea":1576,"associationFee":590,"unparsedAddress":"41665 Navarre Court, Palm Desert, CA 92260"}},{"type":"Feature","id":46665,"properties":{"cluster":true,"cluster_id":46665,"point_count":2,"point_count_abbreviated":2},"geometry":{"type":"Point","coordinates":[-116.38034105300903,33.75413854153031]}},{"type":"Feature","geometry":{"type":"Point","coordinates":[-116.379066,33.758835]},"properties":{"listingKey":"20251024000246527984000000","listingId":"219137567","listPrice":389950,"city":"Palm Desert","baths":2,"slug":"20251024000246527984000000","mlsSource":"GPS","propertyType":"E","livingArea":1790,"associationFee":400,"unparsedAddress":"39880 Palm Greens Parkway, Palm Desert, CA 92260"}},{"type":"Feature","id":34793,"properties":{"cluster":true,"cluster_id":34793,"point_count":2,"point_count_abbreviated":2},"geometry":{"type":"Point","coordinates":[-116.38592004776001,33.75980718607603]}},{"type":"Feature","geometry":{"type":"Point","coordinates":[-116.388734,33.759953]},"properties":{"listingKey":"20251112213848813700000000","listingId":"219138657","listPrice":2600,"city":"Palm Desert","baths":2,"slug":"20251112213848813700000000","mlsSource":"GPS","propertyType":"B","propertySubType":"Single Family Residence","livingArea":1400,"associationFee":1,"unparsedAddress":"248 Strada Fortuna, Palm Desert, CA 92260"}},{"type":"Feature","geometry":{"type":"Point","coordinates":[-116.382992,33.758997]},"properties":{"listingKey":"20251103181448932720000000","listingId":"219138112","listPrice":399000,"city":"Palm Desert","baths":2,"slug":"20251103181448932720000000","mlsSource":"GPS","propertyType":"E","livingArea":1690,"associationFee":0,"unparsedAddress":"73450 Country Club Drive, 22, Palm Desert, CA 92260"}}]