[{"type":"Feature","geometry":{"type":"Point","coordinates":[-116.380215,33.763833]},"properties":{"listingKey":"20251019152857946325000000","listingId":"219137257","listPrice":220000,"city":"Palm Desert","baths":0,"slug":"20251019152857946325000000","mlsSource":"GPS","propertyType":"E","livingArea":1344,"associationFee":400,"unparsedAddress":"39188 Warm Springs Drive, Palm Desert, CA 92260"}},{"type":"Feature","geometry":{"type":"Point","coordinates":[-116.379876,33.766815]},"properties":{"listingKey":"20251105193656069007000000","listingId":"219138260","listPrice":410000,"city":"Palm Desert","baths":2,"slug":"20251105193656069007000000","mlsSource":"GPS","propertyType":"E","livingArea":1760,"associationFee":400,"unparsedAddress":"38785 Bautista Canyon Way, Palm Desert, CA 92260"}},{"type":"Feature","geometry":{"type":"Point","coordinates":[-116.378452,33.767423]},"properties":{"listingKey":"20251027191201144778000000","listingId":"219137756","listPrice":349900,"city":"Palm Desert","baths":1.5,"slug":"20251027191201144778000000","mlsSource":"GPS","propertyType":"E","livingArea":1248,"associationFee":400,"unparsedAddress":"38703 Desert Greens Drive E, Palm Desert, CA 92260"}},{"type":"Feature","id":64681,"properties":{"cluster":true,"cluster_id":64681,"point_count":2,"point_count_abbreviated":2},"geometry":{"type":"Point","coordinates":[-116.38122081756592,33.76106931161175]}},{"type":"Feature","geometry":{"type":"Point","coordinates":[-116.387773,33.761025]},"properties":{"listingKey":"20251001032328766444000000","listingId":"219136251","listPrice":3550,"city":"Palm Desert","baths":1.75,"slug":"20251001032328766444000000","mlsSource":"GPS","propertyType":"B","propertySubType":"Single Family Residence","livingArea":1910,"associationFee":90,"unparsedAddress":"275 Strada Nova, Palm Desert, CA 92260"}},{"type":"Feature","id":63945,"properties":{"cluster":true,"cluster_id":63945,"point_count":2,"point_count_abbreviated":2},"geometry":{"type":"Point","coordinates":[-116.38616144657135,33.76579654243936]}},{"type":"Feature","geometry":{"type":"Point","coordinates":[-116.388453,33.769892]},"properties":{"listingKey":"20251031172406206921000000","listingId":"219138289","listPrice":395000,"city":"Palm Desert","baths":2,"slug":"20251031172406206921000000","mlsSource":"GPS","propertyType":"E","livingArea":1440,"associationFee":400,"unparsedAddress":"72967 Cabazon Peak Drive, Palm Desert, CA 92260"}},{"type":"Feature","geometry":{"type":"Point","coordinates":[-116.386732,33.767143]},"properties":{"listingKey":"20250929174436300419000000","listingId":"219136353","listPrice":360000,"city":"Palm Desert","baths":2.75,"slug":"20250929174436300419000000","mlsSource":"GPS","propertyType":"E","livingArea":1755,"associationFee":400,"unparsedAddress":"38700 Stone Circle, Palm Desert, CA 92260"}},{"type":"Feature","geometry":{"type":"Point","coordinates":[-116.381857,33.768422]},"properties":{"listingKey":"20251007192223119393000000","listingId":"219136661","listPrice":429000,"city":"Palm Desert","baths":2,"slug":"20251007192223119393000000","mlsSource":"GPS","propertyType":"E","livingArea":1680,"associationFee":400,"unparsedAddress":"73646 Cabazon Peak Drive, Palm Desert, CA 92260"}},{"type":"Feature","geometry":{"type":"Point","coordinates":[-116.387324,33.762558]},"properties":{"listingKey":"20251021215852314479000000","listingId":"219137491","listPrice":219000,"city":"Palm Desert","baths":2,"slug":"20251021215852314479000000","mlsSource":"GPS","propertyType":"E","livingArea":1340,"associationFee":0,"unparsedAddress":"73450 Country Club Drive, 309, Palm Desert, CA 92260"}},{"type":"Feature","id":62825,"properties":{"cluster":true,"cluster_id":62825,"point_count":3,"point_count_abbreviated":3},"geometry":{"type":"Point","coordinates":[-116.38426065444945,33.76395919690573]}},{"type":"Feature","geometry":{"type":"Point","coordinates":[-116.383658,33.766353]},"properties":{"listingKey":"20251004175017992460000000","listingId":"PV-25232548","listPrice":2650,"city":"Palm Desert","baths":2,"slug":"20251004175017992460000000","mlsSource":"CRMLS","propertyType":"B","propertySubType":"Manufactured On Land","livingArea":1464,"unparsedAddress":"73418 Palm Greens Pkwy, Palm Desert, CA 92260"}},{"type":"Feature","geometry":{"type":"Point","coordinates":[-116.382886,33.765327]},"properties":{"listingKey":"20251024230255655880000000","listingId":"219137598","listPrice":295000,"city":"Palm Desert","baths":1.75,"slug":"20251024230255655880000000","mlsSource":"GPS","propertyType":"E","livingArea":1440,"associationFee":400,"unparsedAddress":"73461 Adobe Springs Drive, Palm Desert, CA 92260"}},{"type":"Feature","geometry":{"type":"Point","coordinates":[-116.385007,33.769261]},"properties":{"listingKey":"20251014102552934564000000","listingId":"219136917","listPrice":285000,"city":"Palm Desert","baths":2,"slug":"20251014102552934564000000","mlsSource":"GPS","propertyType":"E","livingArea":1440,"associationFee":400,"unparsedAddress":"73330 Linda Circle, Palm Desert, CA 92260"}},{"type":"Feature","id":63689,"properties":{"cluster":true,"cluster_id":63689,"point_count":2,"point_count_abbreviated":2},"geometry":{"type":"Point","coordinates":[-116.38598173856735,33.76253210523498]}}]