[{"type":"Feature","geometry":{"type":"Point","coordinates":[-119.032901,34.24443]},"properties":{"listingKey":"20251008133401762891000000","listingId":"V1-32762","listPrice":1295000,"city":"Camarillo","baths":2.5,"slug":"20251008133401762891000000","mlsSource":"CRMLS","propertyType":"A","propertySubType":"Single Family Residence","livingArea":2041,"unparsedAddress":"511 Beverly Circle, Camarillo, CA 93010"}},{"type":"Feature","geometry":{"type":"Point","coordinates":[-119.027423,34.235655]},"properties":{"listingKey":"20251018231723033216000000","listingId":"V1-32954","listPrice":980000,"city":"Camarillo","baths":3,"slug":"20251018231723033216000000","mlsSource":"CRMLS","propertyType":"A","propertySubType":"Single Family Residence","livingArea":1884,"unparsedAddress":"1772 Weston Circle, Camarillo, CA 93010"}},{"type":"Feature","id":585001,"properties":{"cluster":true,"cluster_id":585001,"point_count":2,"point_count_abbreviated":2},"geometry":{"type":"Point","coordinates":[-119.04291361570358,34.235288481848684]}},{"type":"Feature","id":430280,"properties":{"cluster":true,"cluster_id":430280,"point_count":3,"point_count_abbreviated":3},"geometry":{"type":"Point","coordinates":[-119.04107987880705,34.23777349437704]}},{"type":"Feature","geometry":{"type":"Point","coordinates":[-119.037752,34.242525]},"properties":{"listingKey":"20251017210248378355000000","listingId":"V1-32960","listPrice":1275000,"city":"Camarillo","baths":3,"slug":"20251017210248378355000000","mlsSource":"CRMLS","propertyType":"A","propertySubType":"Single Family Residence","livingArea":2281,"unparsedAddress":"2496 Parkway Drive, Camarillo, CA 93010"}},{"type":"Feature","id":163497,"properties":{"cluster":true,"cluster_id":163497,"point_count":2,"point_count_abbreviated":2},"geometry":{"type":"Point","coordinates":[-119.04606521129608,34.24266347735292]}},{"type":"Feature","geometry":{"type":"Point","coordinates":[-119.047259,34.247297]},"properties":{"listingKey":"20250913155613781224000000","listingId":"V1-32357","listPrice":1620000,"city":"Camarillo","baths":3.5,"slug":"20250913155613781224000000","mlsSource":"CRMLS","propertyType":"A","propertySubType":"Single Family Residence","livingArea":3438,"unparsedAddress":"520 Marissa Lane, Camarillo, CA 93010"}},{"type":"Feature","geometry":{"type":"Point","coordinates":[-119.037017,34.250911]},"properties":{"listingKey":"20250928152027280708000000","listingId":"V1-32598","listPrice":1729000,"city":"Camarillo","baths":4,"slug":"20250928152027280708000000","mlsSource":"CRMLS","propertyType":"A","propertySubType":"Single Family Residence","livingArea":4745,"associationFee":250,"unparsedAddress":"390 East Highland Hills Drive, Camarillo, CA 93010"}}]