[{"type":"Feature","geometry":{"type":"Point","coordinates":[-117.293984,34.171903]},"properties":{"listingKey":"20251003192925865403000000","listingId":"CV-25231941","listPrice":1850,"city":"San Bernardino","baths":1,"slug":"20251003192925865403000000","mlsSource":"CRMLS","propertyType":"B","propertySubType":"Single Family Residence","livingArea":400,"associationFee":0,"unparsedAddress":"4837 North E Street, San Bernardino, CA 92407"}},{"type":"Feature","geometry":{"type":"Point","coordinates":[-117.292766,34.174402]},"properties":{"listingKey":"20251119030517726481000000","listingId":"CV-25262827","listPrice":480000,"city":"San Bernardino","baths":1,"slug":"20251119030517726481000000","mlsSource":"CRMLS","propertyType":"A","propertySubType":"Single Family Residence","livingArea":980,"associationFee":0,"unparsedAddress":"4995 North Stoddard Avenue, San Bernardino, CA 92407"}},{"type":"Feature","geometry":{"type":"Point","coordinates":[-117.292879,34.178229]},"properties":{"listingKey":"20251016210935710355000000","listingId":"IV-25241217","listPrice":689000,"city":"San Bernardino","baths":3,"slug":"20251016210935710355000000","mlsSource":"CRMLS","propertyType":"A","propertySubType":"Single Family Residence","livingArea":2115,"associationFee":0,"unparsedAddress":"5406 North D, San Bernardino, CA 92407"}},{"type":"Feature","geometry":{"type":"Point","coordinates":[-117.300883,34.175293]},"properties":{"listingKey":"20251030113751862531000000","listingId":"IG-25250338","listPrice":1850,"city":"San Bernardino","baths":1,"slug":"20251030113751862531000000","mlsSource":"CRMLS","propertyType":"B","propertySubType":"Single Family Residence","livingArea":500,"associationFee":0,"unparsedAddress":"4298 North H Street, San Bernardino, CA 92407"}},{"type":"Feature","geometry":{"type":"Point","coordinates":[-117.297376,34.17137]},"properties":{"listingKey":"20251118211405448291000000","listingId":"IG-25262529","listPrice":575000,"city":"San Bernardino","baths":1,"slug":"20251118211405448291000000","mlsSource":"CRMLS","propertyType":"A","propertySubType":"Single Family Residence","livingArea":1898,"associationFee":0,"unparsedAddress":"641 West 48th, San Bernardino, CA 92407"}},{"type":"Feature","geometry":{"type":"Point","coordinates":[-117.298527,34.174535]},"properties":{"listingKey":"20251001161603505504000000","listingId":"PW-25228777","listPrice":535000,"city":"San Bernardino","baths":2.5,"slug":"20251001161603505504000000","mlsSource":"CRMLS","propertyType":"A","propertySubType":"Single Family Residence","livingArea":1728,"associationFee":0,"unparsedAddress":"5095 North G Street, San Bernardino, CA 92407"}},{"type":"Feature","geometry":{"type":"Point","coordinates":[-117.291549,34.175195]},"properties":{"listingKey":"20251006233611363488000000","listingId":"TR-25233100","listPrice":3000,"city":"San Bernardino","baths":2,"slug":"20251006233611363488000000","mlsSource":"CRMLS","propertyType":"B","propertySubType":"Single Family Residence","livingArea":1584,"associationFee":0,"unparsedAddress":"386 Sequoia St, San Bernardino, CA 92407"}}]