[{"type":"Feature","geometry":{"type":"Point","coordinates":[-116.429217,34.105287]},"properties":{"listingKey":"20251007012402193935000000","listingId":"JT-25233168","listPrice":350000,"city":"Yucca Valley","baths":2,"slug":"20251007012402193935000000","mlsSource":"CRMLS","propertyType":"A","propertySubType":"Single Family Residence","livingArea":1102,"associationFee":0,"unparsedAddress":"56616 Joshua, Yucca Valley, CA 92284"}},{"type":"Feature","id":457321,"properties":{"cluster":true,"cluster_id":457321,"point_count":2,"point_count_abbreviated":2},"geometry":{"type":"Point","coordinates":[-116.42828553915024,34.100278228248456]}},{"type":"Feature","geometry":{"type":"Point","coordinates":[-116.426281,34.098905]},"properties":{"listingKey":"20250725084121022716000000","listingId":"SW-25164288","listPrice":394900,"city":"Yucca Valley","baths":2,"slug":"20250725084121022716000000","mlsSource":"CRMLS","propertyType":"A","propertySubType":"Single Family Residence","livingArea":1816,"associationFee":0,"unparsedAddress":"56740 Free Gold Drive, Yucca Valley, CA 92284"}},{"type":"Feature","geometry":{"type":"Point","coordinates":[-116.426061,34.106642]},"properties":{"listingKey":"20251004022134431736000000","listingId":"219136386","listPrice":425000,"city":"Yucca Valley","baths":2,"slug":"20251004022134431736000000","mlsSource":"GPS","propertyType":"A","propertySubType":"Single Family Residence","livingArea":1858,"associationFee":0,"unparsedAddress":"7995 Grand Avenue, Yucca Valley, CA 92284"}},{"type":"Feature","geometry":{"type":"Point","coordinates":[-116.424714,34.100324]},"properties":{"listingKey":"20251014225444350883000000","listingId":"219137295","listPrice":417000,"city":"Yucca Valley","baths":1.75,"slug":"20251014225444350883000000","mlsSource":"GPS","propertyType":"A","propertySubType":"Single Family Residence","livingArea":1375,"associationFee":0,"unparsedAddress":"56811 Desert Gold Drive, Yucca Valley, CA 92284"}}]