[{"type":"Feature","geometry":{"type":"Point","coordinates":[-117.787875,34.130878]},"properties":{"listingKey":"20251106192153500002000000","listingId":"PW-25254777","listPrice":1194500,"city":"San Dimas","baths":2,"slug":"20251106192153500002000000","mlsSource":"CRMLS","propertyType":"A","propertySubType":"Single Family Residence","livingArea":2124,"associationFee":0,"unparsedAddress":"1752 Grasscreek, San Dimas, CA 91773"}},{"type":"Feature","geometry":{"type":"Point","coordinates":[-117.815861,34.145737]},"properties":{"listingKey":"20251105235347629644000000","listingId":"AR-25251391","listPrice":9500000,"city":"Glendora","baths":5.5,"slug":"20251105235347629644000000","mlsSource":"CRMLS","propertyType":"A","propertySubType":"Single Family Residence","livingArea":8943,"associationFee":595,"unparsedAddress":"658 Oakhill Drive, Glendora, CA 91741"}},{"type":"Feature","geometry":{"type":"Point","coordinates":[-117.78332,34.134495]},"properties":{"listingKey":"20250809153718557413000000","listingId":"CV-25126107","listPrice":1189000,"city":"San Dimas","baths":2,"slug":"20250809153718557413000000","mlsSource":"CRMLS","propertyType":"A","propertySubType":"Single Family Residence","livingArea":2244,"associationFee":0,"unparsedAddress":"2040 Whitebluff Drive, San Dimas, CA 91773"}},{"type":"Feature","id":861736,"properties":{"cluster":true,"cluster_id":861736,"point_count":3,"point_count_abbreviated":3},"geometry":{"type":"Point","coordinates":[-117.80747473239899,34.13784516178046]}},{"type":"Feature","geometry":{"type":"Point","coordinates":[-117.776126,34.134949]},"properties":{"listingKey":"20250826160630479057000000","listingId":"219134632","listPrice":1648000,"city":"La Verne","baths":3,"slug":"20250826160630479057000000","mlsSource":"GPS","propertyType":"A","propertySubType":"Single Family Residence","livingArea":3528,"associationFee":0,"unparsedAddress":"5905 Old Wheeler Road, La Verne, CA 91750"}}]