[{"type":"Feature","id":185128,"properties":{"cluster":true,"cluster_id":185128,"point_count":2,"point_count_abbreviated":2},"geometry":{"type":"Point","coordinates":[-118.2971066236496,34.25489753777575]}},{"type":"Feature","geometry":{"type":"Point","coordinates":[-118.297635,34.261132]},"properties":{"listingKey":"20251106224832238896000000","listingId":"GD-25255326","listPrice":1150000,"city":"Tujunga","baths":2,"slug":"20251106224832238896000000","mlsSource":"CRMLS","propertyType":"A","propertySubType":"Single Family Residence","livingArea":1916,"associationFee":0,"unparsedAddress":"10554 Plainview, Tujunga, CA 91042"}},{"type":"Feature","geometry":{"type":"Point","coordinates":[-118.29481,34.257928]},"properties":{"listingKey":"20251112182928446345000000","listingId":"BB-25258798","listPrice":1100000,"city":"Tujunga","baths":1,"slug":"20251112182928446345000000","mlsSource":"CRMLS","propertyType":"A","propertySubType":"Single Family Residence","livingArea":1121,"associationFee":0,"unparsedAddress":"10406 Mcclemont, Tujunga, CA 91042"}},{"type":"Feature","geometry":{"type":"Point","coordinates":[-118.294087,34.260204]},"properties":{"listingKey":"20250813043515906848000000","listingId":"AR-25176548","listPrice":3600,"city":"Tujunga","baths":1.75,"slug":"20250813043515906848000000","mlsSource":"CRMLS","propertyType":"B","propertySubType":"Single Family Residence","livingArea":1375,"associationFee":0,"unparsedAddress":"10522 Fernglen Avenue, Tujunga, CA 91042"}},{"type":"Feature","id":190888,"properties":{"cluster":true,"cluster_id":190888,"point_count":2,"point_count_abbreviated":2},"geometry":{"type":"Point","coordinates":[-118.29457461833954,34.25397084446486]}},{"type":"Feature","id":207048,"properties":{"cluster":true,"cluster_id":207048,"point_count":2,"point_count_abbreviated":2},"geometry":{"type":"Point","coordinates":[-118.29058885574341,34.260847641109265]}},{"type":"Feature","geometry":{"type":"Point","coordinates":[-118.286325,34.258428]},"properties":{"listingKey":"20250720225243073183000000","listingId":"GD-25163131","listPrice":1500000,"city":"Tujunga","baths":1,"slug":"20250720225243073183000000","mlsSource":"CRMLS","propertyType":"A","propertySubType":"Single Family Residence","livingArea":1027,"associationFee":0,"unparsedAddress":"10418 Samoa Avenue, Tujunga, CA 91042"}},{"type":"Feature","id":453832,"properties":{"cluster":true,"cluster_id":453832,"point_count":2,"point_count_abbreviated":2},"geometry":{"type":"Point","coordinates":[-118.28451097011566,34.25359839068926]}},{"type":"Feature","id":179113,"properties":{"cluster":true,"cluster_id":179113,"point_count":2,"point_count_abbreviated":2},"geometry":{"type":"Point","coordinates":[-118.28375995159149,34.25667551885074]}},{"type":"Feature","geometry":{"type":"Point","coordinates":[-118.292587,34.262319]},"properties":{"listingKey":"20251106004624762458000000","listingId":"GD-25252699","listPrice":905000,"city":"Tujunga","baths":2,"slug":"20251106004624762458000000","mlsSource":"CRMLS","propertyType":"A","propertySubType":"Single Family Residence","livingArea":1276,"associationFee":0,"unparsedAddress":"10635 Redmont Avenue, Tujunga, CA 91042"}},{"type":"Feature","id":131272,"properties":{"cluster":true,"cluster_id":131272,"point_count":2,"point_count_abbreviated":2},"geometry":{"type":"Point","coordinates":[-118.29581648111343,34.26281170354241]}},{"type":"Feature","id":308233,"properties":{"cluster":true,"cluster_id":308233,"point_count":2,"point_count_abbreviated":2},"geometry":{"type":"Point","coordinates":[-118.2922813296318,34.266274194010336]}}]