[{"type":"Feature","id":151080,"properties":{"cluster":true,"cluster_id":151080,"point_count":4,"point_count_abbreviated":4},"geometry":{"type":"Point","coordinates":[-118.2949461042881,34.1732406770512]}},{"type":"Feature","geometry":{"type":"Point","coordinates":[-118.288524,34.173374]},"properties":{"listingKey":"20251017164458757899000000","listingId":"GD-25241785","listPrice":4390,"city":"Glendale","baths":2,"slug":"20251017164458757899000000","mlsSource":"CRMLS","propertyType":"B","propertySubType":"Apartment","livingArea":1200,"associationFee":0,"unparsedAddress":"1164 Raymond, 2, Glendale, CA 91201"}},{"type":"Feature","geometry":{"type":"Point","coordinates":[-118.292762,34.178371]},"properties":{"listingKey":"20250909234943790378000000","listingId":"GD-25208260","listPrice":4000,"city":"Glendale","baths":2,"slug":"20250909234943790378000000","mlsSource":"CRMLS","propertyType":"B","propertySubType":"Duplex","livingArea":1150,"associationFee":0,"unparsedAddress":"1217 Elm Avenue, A, Glendale, CA 91201"}},{"type":"Feature","geometry":{"type":"Point","coordinates":[-118.299226,34.178631]},"properties":{"listingKey":"20250714203240903082000000","listingId":"GD-25157570","listPrice":4999999,"city":"Burbank","baths":0,"slug":"20250714203240903082000000","mlsSource":"CRMLS","propertyType":"C","propertySubType":"Commercial/Residential","livingArea":10256,"unparsedAddress":"724 Glenoaks Boulevard South, Burbank, CA 91502"}},{"type":"Feature","geometry":{"type":"Point","coordinates":[-118.295294,34.176688]},"properties":{"listingKey":"20251021204228744268000000","listingId":"GD-25244219","listPrice":1989,"city":"Glendale","baths":1,"slug":"20251021204228744268000000","mlsSource":"CRMLS","propertyType":"B","propertySubType":"Apartment","livingArea":650,"associationFee":0,"unparsedAddress":"1130 Spazier, A, Glendale, CA 91201"}},{"type":"Feature","geometry":{"type":"Point","coordinates":[-118.289707,34.176396]},"properties":{"listingKey":"20250930203230488399000000","listingId":"BB-25228505","listPrice":2500,"city":"Glendale","baths":1,"slug":"20250930203230488399000000","mlsSource":"CRMLS","propertyType":"B","propertySubType":"Duplex","livingArea":600,"associationFee":0,"unparsedAddress":"1221 Irving, Glendale, CA 91201"}},{"type":"Feature","geometry":{"type":"Point","coordinates":[-118.298919,34.175799]},"properties":{"listingKey":"20251119183805667570000000","listingId":"GD-25262512","listPrice":2450,"city":"Burbank","baths":1,"slug":"20251119183805667570000000","mlsSource":"CRMLS","propertyType":"B","propertySubType":"Single Family Residence","livingArea":585,"associationFee":0,"unparsedAddress":"301 East Alameda Avenue, A, Burbank, CA 91502"}},{"type":"Feature","id":127944,"properties":{"cluster":true,"cluster_id":127944,"point_count":3,"point_count_abbreviated":3},"geometry":{"type":"Point","coordinates":[-118.29135775566102,34.17500041043526]}},{"type":"Feature","geometry":{"type":"Point","coordinates":[-118.287853,34.167564]},"properties":{"listingKey":"20251101204530120054000000","listingId":"GD-25251982","listPrice":4200,"city":"Glendale","baths":2.5,"slug":"20251101204530120054000000","mlsSource":"CRMLS","propertyType":"B","propertySubType":"Townhouse","livingArea":1501,"associationFee":0,"unparsedAddress":"1030 Ruberta Ave, 12, Glendale, CA 91201"}},{"type":"Feature","id":161864,"properties":{"cluster":true,"cluster_id":161864,"point_count":2,"point_count_abbreviated":2},"geometry":{"type":"Point","coordinates":[-118.27884614467621,34.167055799651436]}},{"type":"Feature","geometry":{"type":"Point","coordinates":[-118.28034,34.179481]},"properties":{"listingKey":"20251023233208600572000000","listingId":"GD-25241341","listPrice":3395000,"city":"Glendale","baths":4.5,"slug":"20251023233208600572000000","mlsSource":"CRMLS","propertyType":"A","propertySubType":"Single Family Residence","livingArea":3709,"associationFee":0,"unparsedAddress":"1456 Western Avenue, Glendale, CA 91201"}}]