[{"type":"Feature","id":161511,"properties":{"cluster":true,"cluster_id":161511,"point_count":3,"point_count_abbreviated":3},"geometry":{"type":"Point","coordinates":[-118.00191164016722,33.86630285395296]}},{"type":"Feature","geometry":{"type":"Point","coordinates":[-118.000435,33.853975]},"properties":{"listingKey":"20251118203511593109000000","listingId":"PW-25261693","listPrice":899000,"city":"Buena Park","baths":2,"slug":"20251118203511593109000000","mlsSource":"CRMLS","propertyType":"A","propertySubType":"Single Family Residence","livingArea":1567,"associationFee":0,"unparsedAddress":"7635 El Capitan Way, Buena Park, CA 90620"}},{"type":"Feature","geometry":{"type":"Point","coordinates":[-118.021602,33.857688]},"properties":{"listingKey":"20251120184821381057000000","listingId":"IG-25261509","listPrice":899000,"city":"Buena Park","baths":1.5,"slug":"20251120184821381057000000","mlsSource":"CRMLS","propertyType":"A","propertySubType":"Single Family Residence","livingArea":1243,"associationFee":0,"unparsedAddress":"6437 Pheasant Circle, Buena Park, CA 90620"}},{"type":"Feature","id":205800,"properties":{"cluster":true,"cluster_id":205800,"point_count":3,"point_count_abbreviated":3},"geometry":{"type":"Point","coordinates":[-117.99887716770172,33.861272325598435]}},{"type":"Feature","id":622632,"properties":{"cluster":true,"cluster_id":622632,"point_count":2,"point_count_abbreviated":2},"geometry":{"type":"Point","coordinates":[-118.01067888736725,33.85336364083706]}},{"type":"Feature","geometry":{"type":"Point","coordinates":[-118.018191,33.853334]},"properties":{"listingKey":"20251111025706394849000000","listingId":"IG-25257872","listPrice":869999,"city":"Buena Park","baths":2,"slug":"20251111025706394849000000","mlsSource":"CRMLS","propertyType":"A","propertySubType":"Single Family Residence","livingArea":1324,"associationFee":0,"unparsedAddress":"6601 Naomi, Buena Park, CA 90620"}},{"type":"Feature","id":583527,"properties":{"cluster":true,"cluster_id":583527,"point_count":3,"point_count_abbreviated":3},"geometry":{"type":"Point","coordinates":[-118.03534090518953,33.835515179822366]}},{"type":"Feature","id":117767,"properties":{"cluster":true,"cluster_id":117767,"point_count":3,"point_count_abbreviated":3},"geometry":{"type":"Point","coordinates":[-118.00097823143004,33.837948065195874]}},{"type":"Feature","geometry":{"type":"Point","coordinates":[-118.01949,33.834274]},"properties":{"listingKey":"20251015150510834969000000","listingId":"CV-25239867","listPrice":949900,"city":"Buena Park","baths":2,"slug":"20251015150510834969000000","mlsSource":"CRMLS","propertyType":"A","propertySubType":"Single Family Residence","livingArea":1072,"associationFee":0,"unparsedAddress":"6507 San Alano, Buena Park, CA 90620"}},{"type":"Feature","geometry":{"type":"Point","coordinates":[-118.008579,33.843146]},"properties":{"listingKey":"20250721051311211274000000","listingId":"PW-25163263","listPrice":628900,"city":"Buena Park","baths":1.5,"slug":"20250721051311211274000000","mlsSource":"CRMLS","propertyType":"A","propertySubType":"Townhouse","livingArea":1150,"associationFee":270,"unparsedAddress":"7114 Santa Isabel Circle, Buena Park, CA 90620"}},{"type":"Feature","id":537223,"properties":{"cluster":true,"cluster_id":537223,"point_count":3,"point_count_abbreviated":3},"geometry":{"type":"Point","coordinates":[-118.01767587661745,33.836587559077685]}},{"type":"Feature","geometry":{"type":"Point","coordinates":[-118.027168,33.840905]},"properties":{"listingKey":"20250820044746336790000000","listingId":"RS-25180508","listPrice":950000,"city":"Buena Park","baths":1.75,"slug":"20250820044746336790000000","mlsSource":"CRMLS","propertyType":"A","propertySubType":"Single Family Residence","livingArea":1344,"associationFee":0,"unparsedAddress":"8456 San Clemente Way, Buena Park, CA 90620"}},{"type":"Feature","id":533127,"properties":{"cluster":true,"cluster_id":533127,"point_count":2,"point_count_abbreviated":2},"geometry":{"type":"Point","coordinates":[-118.03220629692078,33.8532299917304]}},{"type":"Feature","geometry":{"type":"Point","coordinates":[-117.993257,33.840124]},"properties":{"listingKey":"20251008081555565993000000","listingId":"SB-25234866","listPrice":999999,"city":"Buena Park","baths":2,"slug":"20251008081555565993000000","mlsSource":"CRMLS","propertyType":"A","propertySubType":"Single Family Residence","livingArea":1514,"associationFee":0,"unparsedAddress":"8452 Stanton Avenue, Buena Park, CA 90620"}},{"type":"Feature","id":657160,"properties":{"cluster":true,"cluster_id":657160,"point_count":2,"point_count_abbreviated":2},"geometry":{"type":"Point","coordinates":[-118.02972257137299,33.83555528288987]}}]