[{"type":"Feature","id":129513,"properties":{"cluster":true,"cluster_id":129513,"point_count":2,"point_count_abbreviated":2},"geometry":{"type":"Point","coordinates":[-116.3538408279419,33.72451812895751]}},{"type":"Feature","id":116937,"properties":{"cluster":true,"cluster_id":116937,"point_count":2,"point_count_abbreviated":2},"geometry":{"type":"Point","coordinates":[-116.35473400354385,33.725905698855954]}},{"type":"Feature","geometry":{"type":"Point","coordinates":[-116.34894,33.72663]},"properties":{"listingKey":"20250325202200071641000000","listingId":"219127681","listPrice":1050000,"city":"Indian Wells","baths":2.5,"slug":"20250325202200071641000000","mlsSource":"GPS","propertyType":"A","propertySubType":"Single Family Residence","livingArea":2855,"associationFee":2148,"unparsedAddress":"44839 Winged Foot Drive, Indian Wells, CA 92210"}},{"type":"Feature","geometry":{"type":"Point","coordinates":[-116.345489,33.728267]},"properties":{"listingKey":"20251006152831296638000000","listingId":"219136448","listPrice":1499000,"city":"Indian Wells","baths":3.75,"slug":"20251006152831296638000000","mlsSource":"GPS","propertyType":"A","propertySubType":"Single Family Residence","livingArea":3380,"associationFee":2148,"unparsedAddress":"75487 Camino De Paco, Indian Wells, CA 92210"}},{"type":"Feature","geometry":{"type":"Point","coordinates":[-116.349614,33.728385]},"properties":{"listingKey":"20250926224010713830000000","listingId":"219136001","listPrice":8000,"city":"Indian Wells","baths":3.5,"slug":"20250926224010713830000000","mlsSource":"GPS","propertyType":"B","propertySubType":"Condominium","livingArea":2871,"associationFee":1,"unparsedAddress":"75337 Spyglass Drive, Indian Wells, CA 92210"}},{"type":"Feature","geometry":{"type":"Point","coordinates":[-116.355974,33.729473]},"properties":{"listingKey":"20250918192433852518000000","listingId":"219136079","listPrice":639000,"city":"Palm Desert","baths":2.5,"slug":"20250918192433852518000000","mlsSource":"GPS","propertyType":"A","propertySubType":"Single Family Residence","livingArea":1855,"associationFee":160,"unparsedAddress":"43911 La Carmela Drive, Palm Desert, CA 92211"}},{"type":"Feature","geometry":{"type":"Point","coordinates":[-116.355145,33.728407]},"properties":{"listingKey":"20250516203445834409000000","listingId":"219130290","listPrice":899000,"city":"Indian Wells","baths":2.75,"slug":"20250516203445834409000000","mlsSource":"GPS","propertyType":"A","propertySubType":"Single Family Residence","livingArea":2568,"associationFee":2148,"unparsedAddress":"44140 Lakeside Drive, Indian Wells, CA 92210"}},{"type":"Feature","id":70537,"properties":{"cluster":true,"cluster_id":70537,"point_count":3,"point_count_abbreviated":3},"geometry":{"type":"Point","coordinates":[-116.35465085506439,33.7318528102321]}},{"type":"Feature","geometry":{"type":"Point","coordinates":[-116.35378,33.727839]},"properties":{"listingKey":"20251028214929519436000000","listingId":"219137931","listPrice":1899000,"city":"Indian Wells","baths":3.5,"slug":"20251028214929519436000000","mlsSource":"GPS","propertyType":"A","propertySubType":"Single Family Residence","livingArea":3000,"associationFee":2148,"unparsedAddress":"75161 Spyglass Drive, Indian Wells, CA 92210"}}]