[{"type":"Feature","id":435431,"properties":{"cluster":true,"cluster_id":435431,"point_count":6,"point_count_abbreviated":6},"geometry":{"type":"Point","coordinates":[-121.68388456106184,37.991327737850426]}},{"type":"Feature","geometry":{"type":"Point","coordinates":[-121.671277,37.995511]},"properties":{"listingKey":"20251021204940765181000000","listingId":"01-41115336","listPrice":868888,"city":"Oakley","baths":3,"slug":"20251021204940765181000000","mlsSource":"CRMLS","propertyType":"A","propertySubType":"Single Family Residence","livingArea":2833,"unparsedAddress":"780 Dimock, Oakley, CA 94561"}},{"type":"Feature","geometry":{"type":"Point","coordinates":[-121.67708,37.9891]},"properties":{"listingKey":"20250917130740458471000000","listingId":"PW-25219153","listPrice":704888,"city":"Oakley","baths":2,"slug":"20250917130740458471000000","mlsSource":"CRMLS","propertyType":"A","propertySubType":"Single Family Residence","livingArea":2035,"associationFee":0,"unparsedAddress":"313 Orso Way, Oakley, CA 94561"}},{"type":"Feature","geometry":{"type":"Point","coordinates":[-121.678525,37.995771]},"properties":{"listingKey":"20250920042021259634000000","listingId":"01-41112229","listPrice":635000,"city":"Oakley","baths":2.5,"slug":"20250920042021259634000000","mlsSource":"CRMLS","propertyType":"A","propertySubType":"Single Family Residence","livingArea":1772,"unparsedAddress":"268 Coolcrest Dr, Oakley, CA 94561"}},{"type":"Feature","geometry":{"type":"Point","coordinates":[-121.653419,37.980615]},"properties":{"listingKey":"20250826042516228242000000","listingId":"01-41109350","listPrice":2499000,"city":"Knightsen","baths":5,"slug":"20250826042516228242000000","mlsSource":"CRMLS","propertyType":"A","propertySubType":"Single Family Residence","livingArea":4417,"unparsedAddress":"2380 Tule Lane, Knightsen, CA"}}]