[{"type":"Feature","geometry":{"type":"Point","coordinates":[-118.496974,34.275301]},"properties":{"listingKey":"20251114003046287558000000","listingId":"DW-25260200","listPrice":849000,"city":"Granada Hills","baths":2,"slug":"20251114003046287558000000","mlsSource":"CRMLS","propertyType":"A","propertySubType":"Single Family Residence","livingArea":1325,"associationFee":0,"unparsedAddress":"16738 Index, Granada Hills, CA 91344"}},{"type":"Feature","id":147209,"properties":{"cluster":true,"cluster_id":147209,"point_count":2,"point_count_abbreviated":2},"geometry":{"type":"Point","coordinates":[-118.48385274410248,34.276252994471974]}},{"type":"Feature","geometry":{"type":"Point","coordinates":[-118.489338,34.27831]},"properties":{"listingKey":"20251112172138626082000000","listingId":"GD-25258791","listPrice":895000,"city":"Granada Hills","baths":2,"slug":"20251112172138626082000000","mlsSource":"CRMLS","propertyType":"A","propertySubType":"Single Family Residence","livingArea":1406,"associationFee":0,"unparsedAddress":"11435 Gothic, Granada Hills, CA 91344"}},{"type":"Feature","geometry":{"type":"Point","coordinates":[-118.48788,34.288058]},"properties":{"listingKey":"20250829025956725259000000","listingId":"IG-25194578","listPrice":2195,"city":"Granada Hills","baths":1,"slug":"20250829025956725259000000","mlsSource":"CRMLS","propertyType":"B","propertySubType":"Apartment","livingArea":700,"associationFee":0,"unparsedAddress":"16331 Shamhart Drive, Granada Hills, CA 91344"}},{"type":"Feature","geometry":{"type":"Point","coordinates":[-118.48923,34.273379]},"properties":{"listingKey":"20251118182128163062000000","listingId":"GD-25259850","listPrice":2500,"city":"Granada Hills","baths":1,"slug":"20251118182128163062000000","mlsSource":"CRMLS","propertyType":"B","propertySubType":"Single Family Residence","livingArea":640,"associationFee":0,"unparsedAddress":"16404 Donmetz Street, Granada Hills, CA 91344"}},{"type":"Feature","geometry":{"type":"Point","coordinates":[-118.48098,34.277612]},"properties":{"listingKey":"20251119030434775195000000","listingId":"GD-25262390","listPrice":950000,"city":"Granada Hills","baths":2,"slug":"20251119030434775195000000","mlsSource":"CRMLS","propertyType":"A","propertySubType":"Single Family Residence","livingArea":1382,"associationFee":0,"unparsedAddress":"11377 Gaynor Avenue, Granada Hills, CA 91344"}},{"type":"Feature","geometry":{"type":"Point","coordinates":[-118.494893,34.288789]},"properties":{"listingKey":"20251113014728528115000000","listingId":"BB-25257958","listPrice":1495000,"city":"Granada Hills","baths":3,"slug":"20251113014728528115000000","mlsSource":"CRMLS","propertyType":"A","propertySubType":"Single Family Residence","livingArea":2790,"associationFee":52,"unparsedAddress":"16711 Knollwood, Granada Hills, CA 91344"}},{"type":"Feature","id":209705,"properties":{"cluster":true,"cluster_id":209705,"point_count":3,"point_count_abbreviated":3},"geometry":{"type":"Point","coordinates":[-118.48434090614319,34.27314998482102]}}]