[{"type":"Feature","geometry":{"type":"Point","coordinates":[-117.265447,34.234921]},"properties":{"listingKey":"20251119002904324973000000","listingId":"IG-25259246","listPrice":425000,"city":"Crestline","baths":2,"slug":"20251119002904324973000000","mlsSource":"CRMLS","propertyType":"A","propertySubType":"Single Family Residence","livingArea":1530,"associationFee":0,"unparsedAddress":"24646 Lake Gregory, Crestline, CA 92325"}},{"type":"Feature","geometry":{"type":"Point","coordinates":[-117.264281,34.241892]},"properties":{"listingKey":"20250819233348757708000000","listingId":"WS-25186911","listPrice":3300,"city":"Crestline","baths":4.5,"slug":"20250819233348757708000000","mlsSource":"CRMLS","propertyType":"B","propertySubType":"Single Family Residence","livingArea":2559,"associationFee":0,"unparsedAddress":"652 Arbula Drive, Crestline, CA 92325"}},{"type":"Feature","geometry":{"type":"Point","coordinates":[-117.257222,34.242693]},"properties":{"listingKey":"20251017185615295427000000","listingId":"IG-25241952","listPrice":530000,"city":"Crestline","baths":2.75,"slug":"20251017185615295427000000","mlsSource":"CRMLS","propertyType":"A","propertySubType":"Single Family Residence","livingArea":2395,"associationFee":0,"unparsedAddress":"617 Acacia, Crestline, CA 92325"}},{"type":"Feature","id":203849,"properties":{"cluster":true,"cluster_id":203849,"point_count":5,"point_count_abbreviated":5},"geometry":{"type":"Point","coordinates":[-117.26140058040617,34.24138454067575]}},{"type":"Feature","geometry":{"type":"Point","coordinates":[-117.257384,34.239191]},"properties":{"listingKey":"20250814004941296442000000","listingId":"GD-25182477","listPrice":539000,"city":"Crestline","baths":2.5,"slug":"20250814004941296442000000","mlsSource":"CRMLS","propertyType":"A","propertySubType":"Single Family Residence","livingArea":1728,"associationFee":0,"unparsedAddress":"784 Arosa Drive, Crestline, CA 92325"}},{"type":"Feature","geometry":{"type":"Point","coordinates":[-117.258189,34.236826]},"properties":{"listingKey":"20250701073029622088000000","listingId":"CV-25146563","listPrice":725000,"city":"Crestline","baths":2.5,"slug":"20250701073029622088000000","mlsSource":"CRMLS","propertyType":"A","propertySubType":"Single Family Residence","livingArea":2296,"associationFee":0,"unparsedAddress":"25152 Valle Drive, Crestline, CA 92325"}},{"type":"Feature","geometry":{"type":"Point","coordinates":[-117.264132,34.234984]},"properties":{"listingKey":"20251021225831309245000000","listingId":"CV-25244486","listPrice":675000,"city":"Crestline","baths":4.5,"slug":"20251021225831309245000000","mlsSource":"CRMLS","propertyType":"A","propertySubType":"Single Family Residence","livingArea":2852,"associationFee":0,"unparsedAddress":"1015 Nesthorn, Crestline, CA 92325"}},{"type":"Feature","id":381449,"properties":{"cluster":true,"cluster_id":381449,"point_count":3,"point_count_abbreviated":3},"geometry":{"type":"Point","coordinates":[-117.26007521152498,34.238559931604826]}},{"type":"Feature","geometry":{"type":"Point","coordinates":[-117.262202,34.236862]},"properties":{"listingKey":"20251021210410209193000000","listingId":"OC-25243222","listPrice":365000,"city":"Crestline","baths":1.5,"slug":"20251021210410209193000000","mlsSource":"CRMLS","propertyType":"A","propertySubType":"Single Family Residence","livingArea":1080,"associationFee":0,"unparsedAddress":"912 Berne, Crestline, CA 92325"}},{"type":"Feature","geometry":{"type":"Point","coordinates":[-117.266835,34.235498]},"properties":{"listingKey":"20251009042710351731000000","listingId":"IG-25234814","listPrice":635000,"city":"Crestline","baths":3,"slug":"20251009042710351731000000","mlsSource":"CRMLS","propertyType":"A","propertySubType":"Single Family Residence","livingArea":1822,"associationFee":0,"unparsedAddress":"24571 Geneva, Crestline, CA 92325"}},{"type":"Feature","geometry":{"type":"Point","coordinates":[-117.263002,34.239727]},"properties":{"listingKey":"20250930012806896845000000","listingId":"IG-25227627","listPrice":429000,"city":"Crestline","baths":2,"slug":"20250930012806896845000000","mlsSource":"CRMLS","propertyType":"A","propertySubType":"Single Family Residence","livingArea":1672,"associationFee":0,"unparsedAddress":"770 Berne Drive, Crestline, CA 92325"}}]