[{"type":"Feature","geometry":{"type":"Point","coordinates":[-117.263538,33.683635]},"properties":{"listingKey":"20250831025055841732000000","listingId":"IG-25195616","listPrice":545000,"city":"Canyon Lake","baths":2,"slug":"20250831025055841732000000","mlsSource":"CRMLS","propertyType":"A","propertySubType":"Single Family Residence","livingArea":1394,"associationFee":350,"unparsedAddress":"22658 Canyon Lake Drive North, Canyon Lake, CA 92587"}},{"type":"Feature","geometry":{"type":"Point","coordinates":[-117.262127,33.67898]},"properties":{"listingKey":"20251111213138225808000000","listingId":"IV-25258398","listPrice":699999,"city":"Canyon Lake","baths":3,"slug":"20251111213138225808000000","mlsSource":"CRMLS","propertyType":"A","propertySubType":"Single Family Residence","livingArea":2290,"associationFee":350,"unparsedAddress":"22730 Canyon Lake South, Canyon Lake, CA 92587"}},{"type":"Feature","id":597609,"properties":{"cluster":true,"cluster_id":597609,"point_count":2,"point_count_abbreviated":2},"geometry":{"type":"Point","coordinates":[-117.26538956165314,33.679233569473396]}},{"type":"Feature","geometry":{"type":"Point","coordinates":[-117.267117,33.679943]},"properties":{"listingKey":"20250704113058028876000000","listingId":"SW-25150045","listPrice":675000,"city":"Canyon Lake","baths":2.5,"slug":"20250704113058028876000000","mlsSource":"CRMLS","propertyType":"A","propertySubType":"Single Family Residence","livingArea":1428,"associationFee":303,"unparsedAddress":"22473 Canyon Lake Drive South, Canyon Lake, CA 92587"}},{"type":"Feature","geometry":{"type":"Point","coordinates":[-117.258809,33.686759]},"properties":{"listingKey":"20251021222628592507000000","listingId":"SW-25240881","listPrice":1449000,"city":"Canyon Lake","baths":4,"slug":"20251021222628592507000000","mlsSource":"CRMLS","propertyType":"A","propertySubType":"Single Family Residence","livingArea":4270,"associationFee":341,"unparsedAddress":"23160 Compass Drive, Canyon Lake, CA 92587"}},{"type":"Feature","geometry":{"type":"Point","coordinates":[-117.265482,33.687258]},"properties":{"listingKey":"20251003060823269379000000","listingId":"SW-25231576","listPrice":1999000,"city":"Canyon Lake","baths":4,"slug":"20251003060823269379000000","mlsSource":"CRMLS","propertyType":"A","propertySubType":"Single Family Residence","livingArea":3997,"associationFee":350,"unparsedAddress":"22477 Boating Way, Canyon Lake, CA 92587"}},{"type":"Feature","id":210761,"properties":{"cluster":true,"cluster_id":210761,"point_count":2,"point_count_abbreviated":2},"geometry":{"type":"Point","coordinates":[-117.2676533460617,33.68540709878525]}}]