[{"type":"Feature","id":544585,"properties":{"cluster":true,"cluster_id":544585,"point_count":2,"point_count_abbreviated":2},"geometry":{"type":"Point","coordinates":[-122.36483752727509,37.952619811473085]}},{"type":"Feature","geometry":{"type":"Point","coordinates":[-122.360144,37.944279]},"properties":{"listingKey":"20250816063100311580000000","listingId":"01-41108330","listPrice":569900,"city":"Richmond","baths":2,"slug":"20250816063100311580000000","mlsSource":"CRMLS","propertyType":"A","propertySubType":"Single Family Residence","livingArea":1408,"unparsedAddress":"940 Lucas Ave, Richmond, CA 94801"}},{"type":"Feature","geometry":{"type":"Point","coordinates":[-122.35045,37.953187]},"properties":{"listingKey":"20251024042656924534000000","listingId":"01-41115690","listPrice":688888,"city":"San Pablo","baths":2,"slug":"20251024042656924534000000","mlsSource":"CRMLS","propertyType":"A","propertySubType":"Single Family Residence","livingArea":1243,"unparsedAddress":"1932 California Ave, San Pablo, CA 94806"}},{"type":"Feature","id":441576,"properties":{"cluster":true,"cluster_id":441576,"point_count":2,"point_count_abbreviated":2},"geometry":{"type":"Point","coordinates":[-122.35276222229004,37.954206025130674]}},{"type":"Feature","geometry":{"type":"Point","coordinates":[-122.348989,37.947914]},"properties":{"listingKey":"20250719062223977336000000","listingId":"01-41105371","listPrice":645000,"city":"Richmond","baths":2,"slug":"20250719062223977336000000","mlsSource":"CRMLS","propertyType":"A","propertySubType":"Single Family Residence","livingArea":1278,"unparsedAddress":"2110 Hellings Avenue, Richmond, CA 94801"}},{"type":"Feature","geometry":{"type":"Point","coordinates":[-122.364838,37.955247]},"properties":{"listingKey":"20251106050411659493000000","listingId":"01-41116815","listPrice":695000,"city":"Richmond","baths":0,"slug":"20251106050411659493000000","mlsSource":"CRMLS","propertyType":"C","propertySubType":"Duplex","associationFee":0,"unparsedAddress":"1520 4th st, Richmond, CA 94801"}},{"type":"Feature","id":322536,"properties":{"cluster":true,"cluster_id":322536,"point_count":2,"point_count_abbreviated":2},"geometry":{"type":"Point","coordinates":[-122.35130578279495,37.9565535584846]}},{"type":"Feature","geometry":{"type":"Point","coordinates":[-122.34973,37.959696]},"properties":{"listingKey":"20251110205100899263000000","listingId":"01-41117110","listPrice":535000,"city":"San Pablo","baths":2,"slug":"20251110205100899263000000","mlsSource":"CRMLS","propertyType":"A","propertySubType":"Single Family Residence","livingArea":1152,"unparsedAddress":"1939 20Th St, San Pablo, CA 94806"}},{"type":"Feature","id":115752,"properties":{"cluster":true,"cluster_id":115752,"point_count":4,"point_count_abbreviated":4},"geometry":{"type":"Point","coordinates":[-122.34466597437859,37.955832387303076]}}]