[{"type":"Feature","id":699337,"properties":{"cluster":true,"cluster_id":699337,"point_count":2,"point_count_abbreviated":2},"geometry":{"type":"Point","coordinates":[-117.75576710700989,34.04713022683194]}},{"type":"Feature","geometry":{"type":"Point","coordinates":[-117.754945,34.045263]},"properties":{"listingKey":"20250801065422110872000000","listingId":"IV-25172293","listPrice":669000,"city":"Pomona","baths":2,"slug":"20250801065422110872000000","mlsSource":"CRMLS","propertyType":"A","propertySubType":"Single Family Residence","livingArea":1454,"associationFee":0,"unparsedAddress":"647 Muir Avenue, Pomona, CA 91766"}},{"type":"Feature","geometry":{"type":"Point","coordinates":[-117.759555,34.045279]},"properties":{"listingKey":"20251010215643656781000000","listingId":"PW-25236196","listPrice":485000,"city":"Pomona","baths":3,"slug":"20251010215643656781000000","mlsSource":"CRMLS","propertyType":"A","propertySubType":"Condominium","livingArea":1101,"associationFee":400,"unparsedAddress":"1425 South White South, A, Pomona, CA 91766"}},{"type":"Feature","geometry":{"type":"Point","coordinates":[-117.75783,34.046489]},"properties":{"listingKey":"20250918211336741846000000","listingId":"CV-25219848","listPrice":639999,"city":"Pomona","baths":3.25,"slug":"20250918211336741846000000","mlsSource":"CRMLS","propertyType":"A","propertySubType":"Single Family Residence","livingArea":1580,"associationFee":115,"unparsedAddress":"1356 South White Avenue, Pomona, CA 91766"}},{"type":"Feature","geometry":{"type":"Point","coordinates":[-117.756859,34.051038]},"properties":{"listingKey":"20251101160043902755000000","listingId":"SB-25251872","listPrice":625650,"city":"Pomona","baths":1,"slug":"20251101160043902755000000","mlsSource":"CRMLS","propertyType":"A","propertySubType":"Single Family Residence","livingArea":1140,"associationFee":0,"unparsedAddress":"730 West 9th Street, Pomona, CA 91766"}}]