[{"type":"Feature","geometry":{"type":"Point","coordinates":[-117.757337,33.98985]},"properties":{"listingKey":"20251107074824929904000000","listingId":"TR-25255918","listPrice":4000,"city":"Chino Hills","baths":2.5,"slug":"20251107074824929904000000","mlsSource":"CRMLS","propertyType":"B","propertySubType":"Single Family Residence","livingArea":1726,"associationFee":0,"unparsedAddress":"2117 Sun Ridge, Chino Hills, CA 91709"}},{"type":"Feature","geometry":{"type":"Point","coordinates":[-117.761789,33.994567]},"properties":{"listingKey":"20251027012942165264000000","listingId":"WS-25247716","listPrice":3500,"city":"Chino Hills","baths":2.5,"slug":"20251027012942165264000000","mlsSource":"CRMLS","propertyType":"B","propertySubType":"Duplex","livingArea":2045,"unparsedAddress":"2018 Villa Del Lago Dr. Unit A, A, Chino Hills, CA 91709"}},{"type":"Feature","geometry":{"type":"Point","coordinates":[-117.76091,33.991984]},"properties":{"listingKey":"20251106180456481975000000","listingId":"SW-25255201","listPrice":4500,"city":"Chino Hills","baths":3,"slug":"20251106180456481975000000","mlsSource":"CRMLS","propertyType":"B","propertySubType":"Single Family Residence","livingArea":2842,"associationFee":0,"unparsedAddress":"2052 Deer Haven, Chino Hills, CA 91709"}},{"type":"Feature","geometry":{"type":"Point","coordinates":[-117.761988,33.99692]},"properties":{"listingKey":"20251023231134117085000000","listingId":"PW-25245634","listPrice":1295000,"city":"Chino Hills","baths":3,"slug":"20251023231134117085000000","mlsSource":"CRMLS","propertyType":"A","propertySubType":"Single Family Residence","livingArea":2232,"associationFee":0,"unparsedAddress":"14155 Applegate Lane, Chino Hills, CA 91709"}},{"type":"Feature","geometry":{"type":"Point","coordinates":[-117.76017,33.993275]},"properties":{"listingKey":"20251114195652521382000000","listingId":"TR-25260612","listPrice":4600,"city":"Chino Hills","baths":4.5,"slug":"20251114195652521382000000","mlsSource":"CRMLS","propertyType":"B","propertySubType":"Single Family Residence","livingArea":2514,"unparsedAddress":"2036 Legacy, Chino Hills, CA 91709"}}]