[{"type":"Feature","id":284649,"properties":{"cluster":true,"cluster_id":284649,"point_count":4,"point_count_abbreviated":4},"geometry":{"type":"Point","coordinates":[-117.7614788711071,33.685880250491195]}},{"type":"Feature","id":274857,"properties":{"cluster":true,"cluster_id":274857,"point_count":2,"point_count_abbreviated":2},"geometry":{"type":"Point","coordinates":[-117.7585056424141,33.68111736872767]}},{"type":"Feature","geometry":{"type":"Point","coordinates":[-117.758367,33.683279]},"properties":{"listingKey":"20251017222512191745000000","listingId":"OC-25242107","listPrice":1850000,"city":"Irvine","baths":2.5,"slug":"20251017222512191745000000","mlsSource":"CRMLS","propertyType":"A","propertySubType":"Condominium","livingArea":1907,"associationFee":135,"unparsedAddress":"64 Wildvine, Irvine, CA 92620"}},{"type":"Feature","geometry":{"type":"Point","coordinates":[-117.756526,33.681871]},"properties":{"listingKey":"20251024041416000576000000","listingId":"TR-25246414","listPrice":1400000,"city":"Irvine","baths":3,"slug":"20251024041416000576000000","mlsSource":"CRMLS","propertyType":"A","propertySubType":"Condominium","livingArea":1481,"associationFee":241,"unparsedAddress":"96 Tallowood, Irvine, CA 92620"}},{"type":"Feature","geometry":{"type":"Point","coordinates":[-117.75606,33.685797]},"properties":{"listingKey":"20251119231922689174000000","listingId":"OC-25263159","listPrice":2099888,"city":"Irvine","baths":2.5,"slug":"20251119231922689174000000","mlsSource":"CRMLS","propertyType":"A","propertySubType":"Single Family Residence","livingArea":2535,"associationFee":135,"unparsedAddress":"72 Honeyflower, Irvine, CA 92620"}},{"type":"Feature","geometry":{"type":"Point","coordinates":[-117.755678,33.680955]},"properties":{"listingKey":"20251009055858121441000000","listingId":"TR-25233894","listPrice":1385000,"city":"Irvine","baths":3,"slug":"20251009055858121441000000","mlsSource":"CRMLS","propertyType":"A","propertySubType":"Condominium","livingArea":1535,"associationFee":241,"unparsedAddress":"58 Bronze Leaf, Irvine, CA 92620"}},{"type":"Feature","geometry":{"type":"Point","coordinates":[-117.755561,33.683873]},"properties":{"listingKey":"20251024215315215111000000","listingId":"OC-25246903","listPrice":1900000,"city":"Irvine","baths":2.5,"slug":"20251024215315215111000000","mlsSource":"CRMLS","propertyType":"A","propertySubType":"Single Family Residence","livingArea":2052,"associationFee":135,"unparsedAddress":"81 Island Coral, Irvine, CA 92620"}},{"type":"Feature","geometry":{"type":"Point","coordinates":[-117.75211,33.687514]},"properties":{"listingKey":"20250817131536907975000000","listingId":"TR-25182854","listPrice":6000,"city":"Irvine","baths":3.5,"slug":"20250817131536907975000000","mlsSource":"CRMLS","propertyType":"B","propertySubType":"Single Family Residence","livingArea":2889,"unparsedAddress":"89 Field Poppy, Irvine, CA 92620"}}]