[{"type":"Feature","geometry":{"type":"Point","coordinates":[-118.190479,34.168928]},"properties":{"listingKey":"20250816194337917180000000","listingId":"PW-25183188","listPrice":2149000,"city":"Glendale","baths":3,"slug":"20250816194337917180000000","mlsSource":"CRMLS","propertyType":"A","propertySubType":"Single Family Residence","livingArea":3023,"associationFee":325,"unparsedAddress":"3537 Foxglove Road, Glendale, CA 91206"}},{"type":"Feature","geometry":{"type":"Point","coordinates":[-118.180204,34.172661]},"properties":{"listingKey":"20251017181305055444000000","listingId":"P1-24621","listPrice":3395000,"city":"Pasadena","baths":1.75,"slug":"20251017181305055444000000","mlsSource":"CRMLS","propertyType":"A","propertySubType":"Single Family Residence","livingArea":2583,"unparsedAddress":"1450 Arroyo View Drive, Pasadena, CA 91103"}},{"type":"Feature","geometry":{"type":"Point","coordinates":[-118.177682,34.166395]},"properties":{"listingKey":"20251020213202785268000000","listingId":"P1-24645","listPrice":3500000,"city":"Pasadena","baths":4.25,"slug":"20251020213202785268000000","mlsSource":"CRMLS","propertyType":"A","propertySubType":"Single Family Residence","livingArea":4330,"unparsedAddress":"1146 Wellington Avenue, Pasadena, CA 91103"}},{"type":"Feature","id":806504,"properties":{"cluster":true,"cluster_id":806504,"point_count":2,"point_count_abbreviated":2},"geometry":{"type":"Point","coordinates":[-118.18412125110626,34.17373109823984]}},{"type":"Feature","geometry":{"type":"Point","coordinates":[-118.183479,34.17723]},"properties":{"listingKey":"20251006233513550510000000","listingId":"AR-25232911","listPrice":38000,"city":"Pasadena","baths":4,"slug":"20251006233513550510000000","mlsSource":"CRMLS","propertyType":"B","propertySubType":"Single Family Residence","livingArea":5341,"associationFee":0,"unparsedAddress":"1372 Edgehill Pl, Pasadena, CA 91103"}},{"type":"Feature","geometry":{"type":"Point","coordinates":[-118.180236,34.17673]},"properties":{"listingKey":"20250826193051090129000000","listingId":"P1-23940","listPrice":1848000,"city":"Pasadena","baths":2,"slug":"20250826193051090129000000","mlsSource":"CRMLS","propertyType":"A","propertySubType":"Single Family Residence","livingArea":1714,"unparsedAddress":"1372 Inverness Drive, Pasadena, CA 91103"}}]