[{"type":"Feature","geometry":{"type":"Point","coordinates":[-118.184694,34.100975]},"properties":{"listingKey":"20250918042842750026000000","listingId":"WS-25182583","listPrice":1325000,"city":"Los Angeles","baths":2,"slug":"20250918042842750026000000","mlsSource":"CRMLS","propertyType":"A","propertySubType":"Single Family Residence","livingArea":2172,"associationFee":0,"unparsedAddress":"573 Kendall Avenue, Los Angeles, CA 90042"}},{"type":"Feature","id":360808,"properties":{"cluster":true,"cluster_id":360808,"point_count":3,"point_count_abbreviated":3},"geometry":{"type":"Point","coordinates":[-118.18501710891724,34.09336760137593]}},{"type":"Feature","id":864521,"properties":{"cluster":true,"cluster_id":864521,"point_count":2,"point_count_abbreviated":2},"geometry":{"type":"Point","coordinates":[-118.18030446767807,34.091593580433525]}},{"type":"Feature","geometry":{"type":"Point","coordinates":[-118.185533,34.104146]},"properties":{"listingKey":"20250828205021639747000000","listingId":"DW-25174866","listPrice":759499,"city":"Los Angeles","baths":2.5,"slug":"20250828205021639747000000","mlsSource":"CRMLS","propertyType":"A","propertySubType":"Condominium","livingArea":1810,"associationFee":438,"unparsedAddress":"5805 Monterey Rd, Los Angeles, CA 90042"}},{"type":"Feature","id":245768,"properties":{"cluster":true,"cluster_id":245768,"point_count":3,"point_count_abbreviated":3},"geometry":{"type":"Point","coordinates":[-118.18895101547243,34.106498346368525]}},{"type":"Feature","id":176008,"properties":{"cluster":true,"cluster_id":176008,"point_count":4,"point_count_abbreviated":4},"geometry":{"type":"Point","coordinates":[-118.18567156791687,34.097544104040296]}},{"type":"Feature","id":172840,"properties":{"cluster":true,"cluster_id":172840,"point_count":6,"point_count_abbreviated":6},"geometry":{"type":"Point","coordinates":[-118.18826258182526,34.09647871193259]}},{"type":"Feature","geometry":{"type":"Point","coordinates":[-118.188518,34.102241]},"properties":{"listingKey":"20250819191430317325000000","listingId":"SW-25186895","listPrice":999999,"city":"Los Angeles","baths":1,"slug":"20250819191430317325000000","mlsSource":"CRMLS","propertyType":"A","propertySubType":"Single Family Residence","livingArea":720,"associationFee":0,"unparsedAddress":"5506 Bushnell Way, Los Angeles, CA 90042"}},{"type":"Feature","id":169768,"properties":{"cluster":true,"cluster_id":169768,"point_count":3,"point_count_abbreviated":3},"geometry":{"type":"Point","coordinates":[-118.1824439764023,34.0996282061807]}},{"type":"Feature","geometry":{"type":"Point","coordinates":[-118.169051,34.092529]},"properties":{"listingKey":"20250822063556883386000000","listingId":"PW-25189009","listPrice":545000,"city":"El Sereno","baths":4,"slug":"20250822063556883386000000","mlsSource":"CRMLS","propertyType":"A","propertySubType":"Quadruplex","livingArea":1558,"associationFee":0,"unparsedAddress":"5148 Wadena St, El Sereno, CA 90032"}},{"type":"Feature","id":586472,"properties":{"cluster":true,"cluster_id":586472,"point_count":2,"point_count_abbreviated":2},"geometry":{"type":"Point","coordinates":[-118.17255824804306,34.08989208468485]}},{"type":"Feature","geometry":{"type":"Point","coordinates":[-118.174657,34.099881]},"properties":{"listingKey":"20251027183544658673000000","listingId":"SB-25188894","listPrice":1799888,"city":"South Pasadena","baths":5.5,"slug":"20251027183544658673000000","mlsSource":"CRMLS","propertyType":"A","propertySubType":"Single Family Residence","livingArea":4075,"associationFee":0,"unparsedAddress":"2076 Hanscom Drive, South Pasadena, CA 91030"}}]