[{"type":"Feature","geometry":{"type":"Point","coordinates":[-118.17076,34.044433]},"properties":{"listingKey":"20250919031700544386000000","listingId":"DW-25183465","listPrice":1299999,"city":"Los Angeles","baths":0,"slug":"20250919031700544386000000","mlsSource":"CRMLS","propertyType":"C","propertySubType":"Triplex","livingArea":2977,"unparsedAddress":"4421 Floral Drive, Los Angeles, CA 90022"}},{"type":"Feature","geometry":{"type":"Point","coordinates":[-118.186648,34.03687]},"properties":{"listingKey":"20251119171949695987000000","listingId":"WS-25260105","listPrice":699900,"city":"Los Angeles","baths":1.75,"slug":"20251119171949695987000000","mlsSource":"CRMLS","propertyType":"A","propertySubType":"Single Family Residence","livingArea":1142,"associationFee":0,"unparsedAddress":"132 North Rowan Avenue, Los Angeles, CA 90063"}},{"type":"Feature","geometry":{"type":"Point","coordinates":[-118.188406,34.035185]},"properties":{"listingKey":"20251106014548772526000000","listingId":"DW-25254780","listPrice":910000,"city":"Los Angeles","baths":0,"slug":"20251106014548772526000000","mlsSource":"CRMLS","propertyType":"C","propertySubType":"Duplex","livingArea":2382,"unparsedAddress":"127 South Townsend, Los Angeles, CA 90063"}},{"type":"Feature","geometry":{"type":"Point","coordinates":[-118.184982,34.038546]},"properties":{"listingKey":"20251111215526623226000000","listingId":"AR-25257868","listPrice":1950,"city":"Los Angeles","baths":1,"slug":"20251111215526623226000000","mlsSource":"CRMLS","propertyType":"B","propertySubType":"Duplex","livingArea":598,"associationFee":0,"unparsedAddress":"211 East Gage Avenue, Los Angeles, CA 90063"}},{"type":"Feature","geometry":{"type":"Point","coordinates":[-118.17219,34.037223]},"properties":{"listingKey":"20251022230311166319000000","listingId":"CV-25245363","listPrice":799999,"city":"East Los Angeles","baths":3,"slug":"20251022230311166319000000","mlsSource":"CRMLS","propertyType":"A","propertySubType":"Duplex","livingArea":1320,"associationFee":0,"unparsedAddress":"4339 East 1st, East Los Angeles, CA 90022"}},{"type":"Feature","id":521704,"properties":{"cluster":true,"cluster_id":521704,"point_count":3,"point_count_abbreviated":3},"geometry":{"type":"Point","coordinates":[-118.17360877990724,34.040299721852236]}},{"type":"Feature","geometry":{"type":"Point","coordinates":[-118.180601,34.040813]},"properties":{"listingKey":"20251029015410702165000000","listingId":"P1-24731","listPrice":3950,"city":"Los Angeles","baths":2.5,"slug":"20251029015410702165000000","mlsSource":"CRMLS","propertyType":"B","propertySubType":"Single Family Residence","livingArea":2000,"unparsedAddress":"3951 East Cesar E Chavez Avenue, Los Angeles, CA 90063"}},{"type":"Feature","geometry":{"type":"Point","coordinates":[-118.176474,34.036638]},"properties":{"listingKey":"20251009000130045822000000","listingId":"OC-25235339","listPrice":734500,"city":"Los Angeles","baths":1,"slug":"20251009000130045822000000","mlsSource":"CRMLS","propertyType":"A","propertySubType":"Single Family Residence","livingArea":1025,"associationFee":0,"unparsedAddress":"4126 East 1st, Los Angeles, CA 90063"}},{"type":"Feature","geometry":{"type":"Point","coordinates":[-118.183291,34.035106]},"properties":{"listingKey":"20251109003955112392000000","listingId":"DW-25256885","listPrice":1050000,"city":"Los Angeles","baths":5.5,"slug":"20251109003955112392000000","mlsSource":"CRMLS","propertyType":"A","propertySubType":"Quadruplex","livingArea":4541,"associationFee":0,"unparsedAddress":"127 North Herbert, Los Angeles, CA 90063"}},{"type":"Feature","geometry":{"type":"Point","coordinates":[-118.176808,34.039086]},"properties":{"listingKey":"20250816210056216413000000","listingId":"DW-25183974","listPrice":500000,"city":"Los Angeles","baths":0,"slug":"20250816210056216413000000","mlsSource":"CRMLS","propertyType":"C","propertySubType":"Duplex","livingArea":1320,"associationFee":0,"unparsedAddress":"317 Gifford Avenue, Los Angeles, CA 90063"}},{"type":"Feature","id":797705,"properties":{"cluster":true,"cluster_id":797705,"point_count":3,"point_count_abbreviated":3},"geometry":{"type":"Point","coordinates":[-118.18044662475586,34.03652418715747]}},{"type":"Feature","geometry":{"type":"Point","coordinates":[-118.177349,34.047184]},"properties":{"listingKey":"20251110050056101213000000","listingId":"DW-25255002","listPrice":769000,"city":"East Los Angeles","baths":2,"slug":"20251110050056101213000000","mlsSource":"CRMLS","propertyType":"A","propertySubType":"Single Family Residence","livingArea":1182,"associationFee":0,"unparsedAddress":"1006 Van Pelt, East Los Angeles, CA 90063"}},{"type":"Feature","geometry":{"type":"Point","coordinates":[-118.181404,34.051709]},"properties":{"listingKey":"20251107185534199776000000","listingId":"PW-25256124","listPrice":3350,"city":"Los Angeles","baths":1,"slug":"20251107185534199776000000","mlsSource":"CRMLS","propertyType":"B","propertySubType":"Single Family Residence","livingArea":899,"associationFee":0,"unparsedAddress":"1178 Buelah, Los Angeles, CA 90063"}},{"type":"Feature","id":118888,"properties":{"cluster":true,"cluster_id":118888,"point_count":2,"point_count_abbreviated":2},"geometry":{"type":"Point","coordinates":[-118.189297914505,34.05145049645721]}},{"type":"Feature","id":520008,"properties":{"cluster":true,"cluster_id":520008,"point_count":2,"point_count_abbreviated":2},"geometry":{"type":"Point","coordinates":[-118.18366527557373,34.04864590204582]}},{"type":"Feature","id":607720,"properties":{"cluster":true,"cluster_id":607720,"point_count":2,"point_count_abbreviated":2},"geometry":{"type":"Point","coordinates":[-118.18836450576782,34.04729024074362]}},{"type":"Feature","geometry":{"type":"Point","coordinates":[-118.184935,34.044512]},"properties":{"listingKey":"20251112021811724177000000","listingId":"DW-25258644","listPrice":675000,"city":"Los Angeles","baths":1,"slug":"20251112021811724177000000","mlsSource":"CRMLS","propertyType":"A","propertySubType":"Single Family Residence","livingArea":600,"associationFee":0,"unparsedAddress":"3724 Folsom St, Los Angeles, CA 90063"}}]