[{"type":"Feature","geometry":{"type":"Point","coordinates":[-118.179279,33.79965]},"properties":{"listingKey":"20251001164927932352000000","listingId":"PW-25229610","listPrice":2150,"city":"Signal Hill","baths":1,"slug":"20251001164927932352000000","mlsSource":"CRMLS","propertyType":"B","propertySubType":"Apartment","livingArea":790,"associationFee":0,"unparsedAddress":"2352 Lewis Avenue, 6, Signal Hill, CA 90755"}},{"type":"Feature","id":579720,"properties":{"cluster":true,"cluster_id":579720,"point_count":2,"point_count_abbreviated":2},"geometry":{"type":"Point","coordinates":[-118.1868651509285,33.799700088778934]}},{"type":"Feature","geometry":{"type":"Point","coordinates":[-118.173127,33.803921]},"properties":{"listingKey":"20251102060849719216000000","listingId":"PW-25250765","listPrice":545000,"city":"Signal Hill","baths":1.75,"slug":"20251102060849719216000000","mlsSource":"CRMLS","propertyType":"A","propertySubType":"Condominium","livingArea":1193,"associationFee":493,"unparsedAddress":"1460 East Willow Street, 103, Signal Hill, CA 90755"}},{"type":"Feature","id":760425,"properties":{"cluster":true,"cluster_id":760425,"point_count":2,"point_count_abbreviated":2},"geometry":{"type":"Point","coordinates":[-118.19055050611496,33.812742511384684]}},{"type":"Feature","geometry":{"type":"Point","coordinates":[-118.190241,33.815542]},"properties":{"listingKey":"20250912142441390540000000","listingId":"OC-25215445","listPrice":3795,"city":"Long Beach","baths":2,"slug":"20250912142441390540000000","mlsSource":"CRMLS","propertyType":"B","propertySubType":"Single Family Residence","livingArea":1400,"associationFee":0,"unparsedAddress":"3214 Locust Avenue, Long Beach, CA 90807"}}]