[{"type":"Feature","geometry":{"type":"Point","coordinates":[-122.3434,37.956792]},"properties":{"listingKey":"20250917042435022883000000","listingId":"01-41111757","listPrice":550000,"city":"San Pablo","baths":1.5,"slug":"20250917042435022883000000","mlsSource":"CRMLS","propertyType":"A","propertySubType":"Single Family Residence","livingArea":1088,"unparsedAddress":"1840 Pullman St, San Pablo, CA 94806"}},{"type":"Feature","geometry":{"type":"Point","coordinates":[-122.34032,37.9599]},"properties":{"listingKey":"20250923090125714354000000","listingId":"01-41112356","listPrice":1750,"city":"San Pablo","baths":1,"slug":"20250923090125714354000000","mlsSource":"CRMLS","propertyType":"B","livingArea":7694,"unparsedAddress":"2235 Church Ln, San Pablo, CA 94806"}},{"type":"Feature","geometry":{"type":"Point","coordinates":[-122.342415,37.955042]},"properties":{"listingKey":"20250904041741629496000000","listingId":"01-41110257","listPrice":549000,"city":"Richmond","baths":2,"slug":"20250904041741629496000000","mlsSource":"CRMLS","propertyType":"A","propertySubType":"Single Family Residence","livingArea":1404,"unparsedAddress":"2719 Bush Ave, Richmond, CA 94806"}},{"type":"Feature","geometry":{"type":"Point","coordinates":[-122.339814,37.957449]},"properties":{"listingKey":"20251110190743527486000000","listingId":"01-41117099","listPrice":799900,"city":"San Pablo","baths":2,"slug":"20251110190743527486000000","mlsSource":"CRMLS","propertyType":"A","propertySubType":"Single Family Residence","livingArea":1921,"associationFee":198,"unparsedAddress":"2806 Chattleton Lane, San Pablo, CA 94806"}},{"type":"Feature","geometry":{"type":"Point","coordinates":[-122.33719,37.956949]},"properties":{"listingKey":"20251029233508417496000000","listingId":"01-41116151","listPrice":2595,"city":"San Pablo","baths":2,"slug":"20251029233508417496000000","mlsSource":"CRMLS","propertyType":"B","propertySubType":"Condominium","livingArea":1136,"unparsedAddress":"1000 Evergreen Ter, San Pablo, CA 94806"}},{"type":"Feature","geometry":{"type":"Point","coordinates":[-122.336823,37.955361]},"properties":{"listingKey":"20250923093743952208000000","listingId":"01-41112368","listPrice":3600,"city":"San Pablo","baths":3,"slug":"20250923093743952208000000","mlsSource":"CRMLS","propertyType":"B","propertySubType":"Single Family Residence","livingArea":1858,"unparsedAddress":"2121 Vale Rd, San Pablo, CA 94806"}},{"type":"Feature","id":377641,"properties":{"cluster":true,"cluster_id":377641,"point_count":2,"point_count_abbreviated":2},"geometry":{"type":"Point","coordinates":[-122.33864843845367,37.95812276867093]}},{"type":"Feature","geometry":{"type":"Point","coordinates":[-122.335072,37.958447]},"properties":{"listingKey":"20251120213536551269000000","listingId":"01-41117906","listPrice":850000,"city":"San Pablo","baths":3,"slug":"20251120213536551269000000","mlsSource":"CRMLS","propertyType":"A","propertySubType":"Single Family Residence","livingArea":2088,"unparsedAddress":"9 Cherrywood Ct, San Pablo, CA 94806"}}]