[{"type":"Feature","geometry":{"type":"Point","coordinates":[-117.177907,33.549598]},"properties":{"listingKey":"20251022172203248557000000","listingId":"SW-25244070","listPrice":635000,"city":"Murrieta","baths":2.5,"slug":"20251022172203248557000000","mlsSource":"CRMLS","propertyType":"A","propertySubType":"Single Family Residence","livingArea":2099,"associationFee":140,"unparsedAddress":"40688 La Salle, Murrieta, CA 92563"}},{"type":"Feature","id":539305,"properties":{"cluster":true,"cluster_id":539305,"point_count":2,"point_count_abbreviated":2},"geometry":{"type":"Point","coordinates":[-117.17170000076294,33.549554172412726]}},{"type":"Feature","geometry":{"type":"Point","coordinates":[-117.173977,33.549869]},"properties":{"listingKey":"20251015171339590431000000","listingId":"IG-25240032","listPrice":819000,"city":"Murrieta","baths":3,"slug":"20251015171339590431000000","mlsSource":"CRMLS","propertyType":"A","propertySubType":"Single Family Residence","livingArea":3242,"associationFee":0,"unparsedAddress":"40412 Jacob Way, Murrieta, CA 92563"}},{"type":"Feature","geometry":{"type":"Point","coordinates":[-117.169756,33.541887]},"properties":{"listingKey":"20251016225715168466000000","listingId":"SW-25240066","listPrice":449500,"city":"Murrieta","baths":2,"slug":"20251016225715168466000000","mlsSource":"CRMLS","propertyType":"A","propertySubType":"Condominium","livingArea":1213,"associationFee":360,"unparsedAddress":"26373 Arboretum, 1305, Murrieta, CA 92562"}},{"type":"Feature","geometry":{"type":"Point","coordinates":[-117.169431,33.544138]},"properties":{"listingKey":"20250806081831883419000000","listingId":"IG-25175905","listPrice":609000,"city":"Murrieta","baths":2.5,"slug":"20250806081831883419000000","mlsSource":"CRMLS","propertyType":"A","propertySubType":"Condominium","livingArea":1953,"associationFee":220,"unparsedAddress":"40542 Calla Lilly Street, Murrieta, CA 92563"}}]