[{"type":"Feature","geometry":{"type":"Point","coordinates":[-118.109823,34.144998]},"properties":{"listingKey":"20251104071407048352000000","listingId":"PF-25252468","listPrice":1980,"city":"Pasadena","baths":1,"slug":"20251104071407048352000000","mlsSource":"CRMLS","propertyType":"B","propertySubType":"Apartment","livingArea":700,"associationFee":0,"unparsedAddress":"57 South Berkeley, 2, Pasadena, CA 91107"}},{"type":"Feature","geometry":{"type":"Point","coordinates":[-118.108604,34.158941]},"properties":{"listingKey":"20251002043337041112000000","listingId":"WS-25230313","listPrice":1425000,"city":"Pasadena","baths":2,"slug":"20251002043337041112000000","mlsSource":"CRMLS","propertyType":"A","propertySubType":"Single Family Residence","livingArea":1905,"associationFee":0,"unparsedAddress":"2030 Paloma Street, Pasadena, CA 91104"}},{"type":"Feature","id":188968,"properties":{"cluster":true,"cluster_id":188968,"point_count":2,"point_count_abbreviated":2},"geometry":{"type":"Point","coordinates":[-118.10898184776306,34.15112881979648]}},{"type":"Feature","geometry":{"type":"Point","coordinates":[-118.106485,34.144848]},"properties":{"listingKey":"20251118182230247604000000","listingId":"AR-25226991","listPrice":7900,"city":"Pasadena","baths":3.5,"slug":"20251118182230247604000000","mlsSource":"CRMLS","propertyType":"B","propertySubType":"Townhouse","livingArea":1740,"associationFee":412,"unparsedAddress":"67 South Craig Avenue, 5, Pasadena, CA 91107"}},{"type":"Feature","id":256361,"properties":{"cluster":true,"cluster_id":256361,"point_count":3,"point_count_abbreviated":3},"geometry":{"type":"Point","coordinates":[-118.10588121414185,34.14780810110395]}},{"type":"Feature","geometry":{"type":"Point","coordinates":[-118.123229,34.158349]},"properties":{"listingKey":"20250716005510574843000000","listingId":"P1-23370","listPrice":990000,"city":"Pasadena","baths":0,"slug":"20250716005510574843000000","mlsSource":"CRMLS","propertyType":"C","propertySubType":"Duplex","livingArea":1392,"unparsedAddress":"709 North Holliston Avenue, Pasadena, CA 91104"}},{"type":"Feature","id":134600,"properties":{"cluster":true,"cluster_id":134600,"point_count":3,"point_count_abbreviated":3},"geometry":{"type":"Point","coordinates":[-118.12260389328004,34.156432228081826]}},{"type":"Feature","geometry":{"type":"Point","coordinates":[-118.110516,34.148873]},"properties":{"listingKey":"20251108024256384703000000","listingId":"P1-24870","listPrice":3100,"city":"Pasadena","baths":1.75,"slug":"20251108024256384703000000","mlsSource":"CRMLS","propertyType":"B","propertySubType":"Duplex","livingArea":962,"unparsedAddress":"160 North Greenwood Avenue, Pasadena, CA 91107"}},{"type":"Feature","geometry":{"type":"Point","coordinates":[-118.116147,34.156875]},"properties":{"listingKey":"20251112211033255840000000","listingId":"WS-25256710","listPrice":1998000,"city":"Pasadena","baths":1.75,"slug":"20251112211033255840000000","mlsSource":"CRMLS","propertyType":"A","propertySubType":"Single Family Residence","livingArea":2432,"associationFee":0,"unparsedAddress":"1661 Las Lunas, Pasadena, CA 91106"}},{"type":"Feature","geometry":{"type":"Point","coordinates":[-118.116687,34.147466]},"properties":{"listingKey":"20251112182929200498000000","listingId":"PF-25258391","listPrice":1188000,"city":"Pasadena","baths":3.5,"slug":"20251112182929200498000000","mlsSource":"CRMLS","propertyType":"A","propertySubType":"Condominium","livingArea":2090,"associationFee":226,"unparsedAddress":"78 North Sierra Bonita Avenue, 2, Pasadena, CA 91106"}},{"type":"Feature","id":190376,"properties":{"cluster":true,"cluster_id":190376,"point_count":8,"point_count_abbreviated":8},"geometry":{"type":"Point","coordinates":[-118.11311513185501,34.14770377159675]}},{"type":"Feature","geometry":{"type":"Point","coordinates":[-118.114814,34.144872]},"properties":{"listingKey":"20250919181116317011000000","listingId":"AR-25220741","listPrice":3300000,"city":"Pasadena","baths":0,"slug":"20250919181116317011000000","mlsSource":"CRMLS","propertyType":"C","propertySubType":"Apartment","livingArea":4952,"unparsedAddress":"59 South Meridith, Pasadena, CA 91106"}},{"type":"Feature","id":229352,"properties":{"cluster":true,"cluster_id":229352,"point_count":2,"point_count_abbreviated":2},"geometry":{"type":"Point","coordinates":[-118.11475396156311,34.15092904762999]}},{"type":"Feature","id":293609,"properties":{"cluster":true,"cluster_id":293609,"point_count":2,"point_count_abbreviated":2},"geometry":{"type":"Point","coordinates":[-118.11891674995422,34.156265021911906]}}]