[{"type":"Feature","geometry":{"type":"Point","coordinates":[-118.105096,33.856077]},"properties":{"listingKey":"20251119212916688009000000","listingId":"OC-25263182","listPrice":4300,"city":"Lakewood","baths":2,"slug":"20251119212916688009000000","mlsSource":"CRMLS","propertyType":"B","propertySubType":"Single Family Residence","livingArea":1405,"associationFee":0,"unparsedAddress":"6607 Michelson, Lakewood, CA 90713"}},{"type":"Feature","geometry":{"type":"Point","coordinates":[-118.103411,33.85444]},"properties":{"listingKey":"20251120233853277260000000","listingId":"CV-25263972","listPrice":930000,"city":"Lakewood","baths":1.75,"slug":"20251120233853277260000000","mlsSource":"CRMLS","propertyType":"A","propertySubType":"Single Family Residence","livingArea":1660,"associationFee":0,"unparsedAddress":"5338 Knoxville, Lakewood, CA 90713"}},{"type":"Feature","geometry":{"type":"Point","coordinates":[-118.121093,33.857342]},"properties":{"listingKey":"20250926094035794956000000","listingId":"RS-25225924","listPrice":927000,"city":"Lakewood","baths":3,"slug":"20250926094035794956000000","mlsSource":"CRMLS","propertyType":"A","propertySubType":"Single Family Residence","livingArea":1490,"associationFee":0,"unparsedAddress":"5707 Bigelow Street, Lakewood, CA 90713"}},{"type":"Feature","geometry":{"type":"Point","coordinates":[-118.113105,33.857661]},"properties":{"listingKey":"20251120192159848406000000","listingId":"PW-25263630","listPrice":979000,"city":"Lakewood","baths":1.5,"slug":"20251120192159848406000000","mlsSource":"CRMLS","propertyType":"A","propertySubType":"Single Family Residence","livingArea":1690,"associationFee":0,"unparsedAddress":"6103 Wolfe St, Lakewood, CA 90713"}},{"type":"Feature","geometry":{"type":"Point","coordinates":[-118.11459,33.867236]},"properties":{"listingKey":"20250819050357106901000000","listingId":"RS-25186631","listPrice":1348000,"city":"Lakewood","baths":3,"slug":"20250819050357106901000000","mlsSource":"CRMLS","propertyType":"A","propertySubType":"Single Family Residence","livingArea":2394,"associationFee":0,"unparsedAddress":"6157 Carpintero Avenue, Lakewood, CA 90713"}},{"type":"Feature","geometry":{"type":"Point","coordinates":[-118.11247,33.86086]},"properties":{"listingKey":"20251009235358125744000000","listingId":"AR-25235759","listPrice":5000,"city":"Lakewood","baths":3.5,"slug":"20251009235358125744000000","mlsSource":"CRMLS","propertyType":"B","propertySubType":"Single Family Residence","livingArea":2054,"associationFee":0,"unparsedAddress":"6127 Droxford, Lakewood, CA 90713"}},{"type":"Feature","geometry":{"type":"Point","coordinates":[-118.104256,33.862412]},"properties":{"listingKey":"20251029183609993526000000","listingId":"DW-25245838","listPrice":1469000,"city":"Cerritos","baths":3,"slug":"20251029183609993526000000","mlsSource":"CRMLS","propertyType":"A","propertySubType":"Single Family Residence","livingArea":2464,"associationFee":0,"unparsedAddress":"18548 San Gabriel Avenue, Cerritos, CA 90703"}},{"type":"Feature","geometry":{"type":"Point","coordinates":[-118.110978,33.864254]},"properties":{"listingKey":"20251026022044841017000000","listingId":"PW-25247150","listPrice":967800,"city":"Lakewood","baths":2,"slug":"20251026022044841017000000","mlsSource":"CRMLS","propertyType":"A","propertySubType":"Single Family Residence","livingArea":1510,"associationFee":0,"unparsedAddress":"6208 Hedda Street, Lakewood, CA 90713"}},{"type":"Feature","geometry":{"type":"Point","coordinates":[-118.112091,33.867845]},"properties":{"listingKey":"20250824210822133943000000","listingId":"RS-25191060","listPrice":1299900,"city":"Bellflower","baths":3,"slug":"20250824210822133943000000","mlsSource":"CRMLS","propertyType":"A","propertySubType":"Single Family Residence","livingArea":2474,"associationFee":0,"unparsedAddress":"17924 Redwood Avenue, Bellflower, CA 90706"}},{"type":"Feature","geometry":{"type":"Point","coordinates":[-118.120557,33.861795]},"properties":{"listingKey":"20251120205227679428000000","listingId":"IV-25263857","listPrice":910000,"city":"Lakewood","baths":1,"slug":"20251120205227679428000000","mlsSource":"CRMLS","propertyType":"A","propertySubType":"Single Family Residence","livingArea":1119,"associationFee":0,"unparsedAddress":"5857 Eastbrook, Lakewood, CA 90713"}}]