[{"type":"Feature","geometry":{"type":"Point","coordinates":[-121.769237,37.953968]},"properties":{"listingKey":"20251024033416704253000000","listingId":"01-41115689","listPrice":848000,"city":"Antioch","baths":3,"slug":"20251024033416704253000000","mlsSource":"CRMLS","propertyType":"A","propertySubType":"Single Family Residence","livingArea":2992,"associationFee":202,"unparsedAddress":"5445 Oneida Way, Antioch, CA 94509"}},{"type":"Feature","geometry":{"type":"Point","coordinates":[-121.751708,37.949251]},"properties":{"listingKey":"20250928035800619097000000","listingId":"01-41113005","listPrice":798000,"city":"Antioch","baths":3,"slug":"20250928035800619097000000","mlsSource":"CRMLS","propertyType":"A","propertySubType":"Single Family Residence","livingArea":2457,"associationFee":180,"unparsedAddress":"5390 Shenandoah Valley Ln, Antioch, CA 94531"}},{"type":"Feature","geometry":{"type":"Point","coordinates":[-121.754189,37.9535]},"properties":{"listingKey":"20250703082915275605000000","listingId":"01-41103491","listPrice":799999,"city":"Antioch","baths":3,"slug":"20250703082915275605000000","mlsSource":"CRMLS","propertyType":"A","propertySubType":"Single Family Residence","livingArea":2461,"associationFee":180,"unparsedAddress":"5611 Trinity Lakes Ln, Antioch, CA 94531"}},{"type":"Feature","geometry":{"type":"Point","coordinates":[-121.755898,37.960222]},"properties":{"listingKey":"20251103111518956416000000","listingId":"IV-25252474","listPrice":722100,"city":"Antioch","baths":2,"slug":"20251103111518956416000000","mlsSource":"CRMLS","propertyType":"A","propertySubType":"Single Family Residence","livingArea":2329,"associationFee":0,"unparsedAddress":"5121 Deerspring Way, Antioch, CA 94531"}},{"type":"Feature","geometry":{"type":"Point","coordinates":[-121.761286,37.957538]},"properties":{"listingKey":"20250919194530225023000000","listingId":"01-41112142","listPrice":595000,"city":"Antioch","baths":2.5,"slug":"20250919194530225023000000","mlsSource":"CRMLS","propertyType":"A","propertySubType":"Single Family Residence","livingArea":1533,"unparsedAddress":"5115 Equestrian, Antioch, CA 94531"}}]