[{"type":"Feature","id":147849,"properties":{"cluster":true,"cluster_id":147849,"point_count":2,"point_count_abbreviated":2},"geometry":{"type":"Point","coordinates":[-117.05313563346863,34.032443220098386]}},{"type":"Feature","id":142441,"properties":{"cluster":true,"cluster_id":142441,"point_count":2,"point_count_abbreviated":2},"geometry":{"type":"Point","coordinates":[-117.048699259758,34.02269789474066]}},{"type":"Feature","geometry":{"type":"Point","coordinates":[-117.052264,34.023522]},"properties":{"listingKey":"20251106054931883559000000","listingId":"DW-25254976","listPrice":475000,"city":"Yucaipa","baths":2,"slug":"20251106054931883559000000","mlsSource":"CRMLS","propertyType":"A","propertySubType":"Single Family Residence","livingArea":1534,"associationFee":0,"unparsedAddress":"12672 4th, Yucaipa, CA 92399"}},{"type":"Feature","geometry":{"type":"Point","coordinates":[-117.068945,34.017677]},"properties":{"listingKey":"20251027203510194581000000","listingId":"IG-25247952","listPrice":829900,"city":"Yucaipa","baths":3,"slug":"20251027203510194581000000","mlsSource":"CRMLS","propertyType":"A","propertySubType":"Single Family Residence","livingArea":3212,"associationFee":0,"unparsedAddress":"12984 Columbia, Yucaipa, CA 92399"}},{"type":"Feature","geometry":{"type":"Point","coordinates":[-117.057543,34.021846]},"properties":{"listingKey":"20251006233833930240000000","listingId":"IG-25233587","listPrice":3400,"city":"Yucaipa","baths":3,"slug":"20251006233833930240000000","mlsSource":"CRMLS","propertyType":"B","propertySubType":"Single Family Residence","livingArea":2712,"unparsedAddress":"12764 Clifton Way, Yucaipa, CA 92399"}},{"type":"Feature","geometry":{"type":"Point","coordinates":[-117.061086,34.031428]},"properties":{"listingKey":"20250828074637043333000000","listingId":"IG-25192812","listPrice":489000,"city":"Yucaipa","baths":2.5,"slug":"20250828074637043333000000","mlsSource":"CRMLS","propertyType":"A","propertySubType":"Condominium","livingArea":1626,"associationFee":220,"unparsedAddress":"34083 Lily Road, 33, Yucaipa, CA 92399"}},{"type":"Feature","geometry":{"type":"Point","coordinates":[-117.057386,34.03064]},"properties":{"listingKey":"20251018151813423043000000","listingId":"CV-25242157","listPrice":599000,"city":"Yucaipa","baths":1,"slug":"20251018151813423043000000","mlsSource":"CRMLS","propertyType":"A","propertySubType":"Single Family Residence","livingArea":1294,"associationFee":0,"unparsedAddress":"12278 5th, Yucaipa, CA 92399"}},{"type":"Feature","geometry":{"type":"Point","coordinates":[-117.05828,34.02692]},"properties":{"listingKey":"20251113152259368868000000","listingId":"IV-25258677","listPrice":524900,"city":"Yucaipa","baths":2,"slug":"20251113152259368868000000","mlsSource":"CRMLS","propertyType":"A","propertySubType":"Single Family Residence","livingArea":1433,"associationFee":0,"unparsedAddress":"34212 Avenue East, Yucaipa, CA 92399"}}]