[{"type":"Feature","id":203048,"properties":{"cluster":true,"cluster_id":203048,"point_count":3,"point_count_abbreviated":3},"geometry":{"type":"Point","coordinates":[-117.05390274524689,34.00905315205573]}},{"type":"Feature","geometry":{"type":"Point","coordinates":[-117.064637,34.011187]},"properties":{"listingKey":"20251028063845873904000000","listingId":"IG-25247510","listPrice":950000,"city":"Yucaipa","baths":2.5,"slug":"20251028063845873904000000","mlsSource":"CRMLS","propertyType":"A","propertySubType":"Single Family Residence","livingArea":2377,"unparsedAddress":"13346 Rimview Court, Yucaipa, CA 92399"}},{"type":"Feature","geometry":{"type":"Point","coordinates":[-117.059286,34.010612]},"properties":{"listingKey":"20251026023230835386000000","listingId":"IG-25246780","listPrice":575000,"city":"Yucaipa","baths":2,"slug":"20251026023230835386000000","mlsSource":"CRMLS","propertyType":"A","propertySubType":"Single Family Residence","livingArea":1355,"associationFee":0,"unparsedAddress":"13397 Robin Court, Yucaipa, CA 92399"}},{"type":"Feature","geometry":{"type":"Point","coordinates":[-117.058622,34.002048]},"properties":{"listingKey":"20251010075456793107000000","listingId":"IV-25236450","listPrice":509000,"city":"Calimesa","baths":1,"slug":"20251010075456793107000000","mlsSource":"CRMLS","propertyType":"A","propertySubType":"Commercial/Residential","livingArea":980,"associationFee":0,"unparsedAddress":"992 Park Avenue, Calimesa, CA 92320"}},{"type":"Feature","id":166120,"properties":{"cluster":true,"cluster_id":166120,"point_count":2,"point_count_abbreviated":2},"geometry":{"type":"Point","coordinates":[-117.05665737390518,34.00798887072419]}}]