[{"type":"Feature","geometry":{"type":"Point","coordinates":[-117.051026,33.516444]},"properties":{"listingKey":"20250913012001826411000000","listingId":"SW-25214660","listPrice":3000,"city":"Temecula","baths":2,"slug":"20250913012001826411000000","mlsSource":"CRMLS","propertyType":"B","propertySubType":"Manufactured On Land","livingArea":1700,"associationFee":0,"unparsedAddress":"41685 Anza Road, Temecula, CA 92592"}},{"type":"Feature","geometry":{"type":"Point","coordinates":[-117.048355,33.51417]},"properties":{"listingKey":"20251101014925551822000000","listingId":"SW-25251696","listPrice":599000,"city":"Temecula","baths":2,"slug":"20251101014925551822000000","mlsSource":"CRMLS","propertyType":"A","propertySubType":"Manufactured On Land","livingArea":1344,"associationFee":0,"unparsedAddress":"41805 William Hawthorne, Temecula, CA 92592"}},{"type":"Feature","geometry":{"type":"Point","coordinates":[-117.055037,33.509861]},"properties":{"listingKey":"20250824234751391189000000","listingId":"PW-25178263","listPrice":1499990,"city":"Temecula","baths":3,"slug":"20250824234751391189000000","mlsSource":"CRMLS","propertyType":"A","propertySubType":"Single Family Residence","livingArea":3282,"associationFee":0,"unparsedAddress":"34670 Capitol Street, Temecula, CA 92592"}},{"type":"Feature","geometry":{"type":"Point","coordinates":[-117.059809,33.510666]},"properties":{"listingKey":"20250926085542197228000000","listingId":"SW-25224691","listPrice":1095000,"city":"Temecula","baths":1,"slug":"20250926085542197228000000","mlsSource":"CRMLS","propertyType":"A","propertySubType":"Single Family Residence","livingArea":2196,"associationFee":0,"unparsedAddress":"34325 Loi Lane, Temecula, CA 92592"}},{"type":"Feature","geometry":{"type":"Point","coordinates":[-117.060271,33.522334]},"properties":{"listingKey":"20250812082127305174000000","listingId":"SW-25180513","listPrice":1989000,"city":"Temecula","baths":3,"slug":"20250812082127305174000000","mlsSource":"CRMLS","propertyType":"A","propertySubType":"Single Family Residence","livingArea":3027,"associationFee":0,"unparsedAddress":"34020 Madera De Playa, Temecula, CA 92592"}},{"type":"Feature","geometry":{"type":"Point","coordinates":[-117.052846,33.514469]},"properties":{"listingKey":"20251001043406413182000000","listingId":"WS-25229407","listPrice":2380000,"city":"Temecula","baths":3.5,"slug":"20251001043406413182000000","mlsSource":"CRMLS","propertyType":"A","propertySubType":"Single Family Residence","livingArea":5088,"associationFee":0,"unparsedAddress":"34970 Calle Campo, Temecula, CA 92592"}},{"type":"Feature","geometry":{"type":"Point","coordinates":[-117.064998,33.520523]},"properties":{"listingKey":"20250620230333952524000000","listingId":"SW-25137203","listPrice":1500000,"city":"Temecula","baths":2.5,"slug":"20250620230333952524000000","mlsSource":"CRMLS","propertyType":"A","propertySubType":"Single Family Residence","livingArea":2182,"associationFee":0,"unparsedAddress":"33851 Madera De Playa, Temecula, CA 92592"}}]