[{"type":"Feature","id":137095,"properties":{"cluster":true,"cluster_id":137095,"point_count":6,"point_count_abbreviated":6},"geometry":{"type":"Point","coordinates":[-118.36686819791794,34.20362143598713]}},{"type":"Feature","id":511911,"properties":{"cluster":true,"cluster_id":511911,"point_count":2,"point_count_abbreviated":2},"geometry":{"type":"Point","coordinates":[-118.38057696819305,34.207055306326936]}},{"type":"Feature","geometry":{"type":"Point","coordinates":[-118.352348,34.211926]},"properties":{"listingKey":"20251107195722642016000000","listingId":"BB-25256193","listPrice":5995,"city":"Sun Valley","baths":3,"slug":"20251107195722642016000000","mlsSource":"CRMLS","propertyType":"B","propertySubType":"Single Family Residence","livingArea":3274,"associationFee":0,"unparsedAddress":"10164 Elkwood Street, Sun Valley, CA 91352"}},{"type":"Feature","id":134183,"properties":{"cluster":true,"cluster_id":134183,"point_count":3,"point_count_abbreviated":3},"geometry":{"type":"Point","coordinates":[-118.34510743618011,34.21075816907921]}},{"type":"Feature","geometry":{"type":"Point","coordinates":[-118.381881,34.233409]},"properties":{"listingKey":"20251120225156761284000000","listingId":"SB-25262547","listPrice":1249000,"city":"North Hollywood","baths":4.5,"slug":"20251120225156761284000000","mlsSource":"CRMLS","propertyType":"A","propertySubType":"Single Family Residence","livingArea":2681,"associationFee":225,"unparsedAddress":"6059 North Tujunga Avenue, North Hollywood, CA 91606"}},{"type":"Feature","id":966057,"properties":{"cluster":true,"cluster_id":966057,"point_count":2,"point_count_abbreviated":2},"geometry":{"type":"Point","coordinates":[-118.35992932319641,34.2263870707249]}},{"type":"Feature","geometry":{"type":"Point","coordinates":[-118.358387,34.218236]},"properties":{"listingKey":"20250822064743139709000000","listingId":"BB-25189549","listPrice":739900,"city":"Sun Valley","baths":1,"slug":"20250822064743139709000000","mlsSource":"CRMLS","propertyType":"A","propertySubType":"Single Family Residence","livingArea":1205,"associationFee":0,"unparsedAddress":"10425 Rainier Street, Sun Valley, CA 91352"}},{"type":"Feature","id":621543,"properties":{"cluster":true,"cluster_id":621543,"point_count":2,"point_count_abbreviated":2},"geometry":{"type":"Point","coordinates":[-118.35307359695435,34.22544232164219]}}]