[{"type":"Feature","geometry":{"type":"Point","coordinates":[-117.285507,34.138254]},"properties":{"listingKey":"20251112034046640406000000","listingId":"CV-25243330","listPrice":459000,"city":"San Bernardino","baths":2,"slug":"20251112034046640406000000","mlsSource":"CRMLS","propertyType":"A","propertySubType":"Single Family Residence","livingArea":1050,"associationFee":0,"unparsedAddress":"2450 North Sierra Way, San Bernardino, CA 92405"}},{"type":"Feature","geometry":{"type":"Point","coordinates":[-117.281595,34.138647]},"properties":{"listingKey":"20250801065450560278000000","listingId":"DW-25172405","listPrice":485000,"city":"San Bernardino","baths":1.5,"slug":"20250801065450560278000000","mlsSource":"CRMLS","propertyType":"A","propertySubType":"Single Family Residence","livingArea":1116,"associationFee":0,"unparsedAddress":"229 East 25th Street, San Bernardino, CA 92404"}},{"type":"Feature","geometry":{"type":"Point","coordinates":[-117.28807,34.137237]},"properties":{"listingKey":"20250830075000039193000000","listingId":"IV-25195102","listPrice":445000,"city":"San Bernardino","baths":1,"slug":"20250830075000039193000000","mlsSource":"CRMLS","propertyType":"A","propertySubType":"Single Family Residence","livingArea":1070,"associationFee":0,"unparsedAddress":"232 West 23rd Street, San Bernardino, CA 92405"}},{"type":"Feature","geometry":{"type":"Point","coordinates":[-117.286603,34.139535]},"properties":{"listingKey":"20250923091243452000000000","listingId":"IV-25222711","listPrice":2700,"city":"San Bernardino","baths":1,"slug":"20250923091243452000000000","mlsSource":"CRMLS","propertyType":"B","propertySubType":"Single Family Residence","livingArea":996,"associationFee":0,"unparsedAddress":"2588 Genevieve, San Bernardino, CA 92405"}},{"type":"Feature","geometry":{"type":"Point","coordinates":[-117.289273,34.141979]},"properties":{"listingKey":"20251022002429949026000000","listingId":"DW-25244594","listPrice":529900,"city":"San Bernardino","baths":1,"slug":"20251022002429949026000000","mlsSource":"CRMLS","propertyType":"A","propertySubType":"Single Family Residence","livingArea":1191,"associationFee":0,"unparsedAddress":"2779 North Arrowhead, San Bernardino, CA 92405"}},{"type":"Feature","geometry":{"type":"Point","coordinates":[-117.28662,34.136582]},"properties":{"listingKey":"20251118194843508945000000","listingId":"PW-25262422","listPrice":1450,"city":"San Bernardino","baths":1,"slug":"20251118194843508945000000","mlsSource":"CRMLS","propertyType":"B","propertySubType":"Quadruplex","livingArea":2336,"associationFee":0,"unparsedAddress":"2268 Genevieve, San Bernardino, CA 92405"}}]