[{"type":"Feature","geometry":{"type":"Point","coordinates":[-118.114814,34.144872]},"properties":{"listingKey":"20250919181116317011000000","listingId":"AR-25220741","listPrice":3300000,"city":"Pasadena","baths":0,"slug":"20250919181116317011000000","mlsSource":"CRMLS","propertyType":"C","propertySubType":"Apartment","livingArea":4952,"unparsedAddress":"59 South Meridith, Pasadena, CA 91106"}},{"type":"Feature","geometry":{"type":"Point","coordinates":[-118.115585,34.150368]},"properties":{"listingKey":"20250724050950446225000000","listingId":"WS-25165767","listPrice":985000,"city":"Pasadena","baths":2.5,"slug":"20250724050950446225000000","mlsSource":"CRMLS","propertyType":"A","propertySubType":"Townhouse","livingArea":1781,"associationFee":125,"unparsedAddress":"1688 Locust Street, Pasadena, CA 91106"}},{"type":"Feature","geometry":{"type":"Point","coordinates":[-118.116687,34.147466]},"properties":{"listingKey":"20251112182929200498000000","listingId":"PF-25258391","listPrice":1188000,"city":"Pasadena","baths":3.5,"slug":"20251112182929200498000000","mlsSource":"CRMLS","propertyType":"A","propertySubType":"Condominium","livingArea":2090,"associationFee":226,"unparsedAddress":"78 North Sierra Bonita Avenue, 2, Pasadena, CA 91106"}},{"type":"Feature","geometry":{"type":"Point","coordinates":[-118.114074,34.14879]},"properties":{"listingKey":"20251111202600817042000000","listingId":"WS-25256106","listPrice":738000,"city":"Pasadena","baths":2.5,"slug":"20251111202600817042000000","mlsSource":"CRMLS","propertyType":"A","propertySubType":"Condominium","livingArea":1153,"associationFee":426,"unparsedAddress":"154 North Meridith Avenue, 8, Pasadena, CA 91106"}},{"type":"Feature","id":298121,"properties":{"cluster":true,"cluster_id":298121,"point_count":2,"point_count_abbreviated":2},"geometry":{"type":"Point","coordinates":[-118.12366962432861,34.15049398661024]}}]