[{"type":"Feature","geometry":{"type":"Point","coordinates":[-118.156571,34.101702]},"properties":{"listingKey":"20251107184528742789000000","listingId":"P1-24858","listPrice":2600,"city":"South Pasadena","baths":1,"slug":"20251107184528742789000000","mlsSource":"CRMLS","propertyType":"B","propertySubType":"Duplex","livingArea":850,"unparsedAddress":"1104 Maple Street, South Pasadena, CA 91030"}},{"type":"Feature","geometry":{"type":"Point","coordinates":[-118.156463,34.098863]},"properties":{"listingKey":"20251103214950941957000000","listingId":"P1-24791","listPrice":1300000,"city":"South Pasadena","baths":2,"slug":"20251103214950941957000000","mlsSource":"CRMLS","propertyType":"A","propertySubType":"Single Family Residence","livingArea":1600,"unparsedAddress":"2070 Meridian Avenue, South Pasadena, CA 91030"}},{"type":"Feature","id":171497,"properties":{"cluster":true,"cluster_id":171497,"point_count":3,"point_count_abbreviated":3},"geometry":{"type":"Point","coordinates":[-118.15553426742554,34.103196602924456]}},{"type":"Feature","geometry":{"type":"Point","coordinates":[-118.153985,34.105402]},"properties":{"listingKey":"20251103210211343843000000","listingId":"AR-25247704","listPrice":3999000,"city":"South Pasadena","baths":0,"slug":"20251103210211343843000000","mlsSource":"CRMLS","propertyType":"C","propertySubType":"Single Family Residence","livingArea":1500,"unparsedAddress":"1301 Spruce, South Pasadena, CA 91030"}},{"type":"Feature","geometry":{"type":"Point","coordinates":[-118.154275,34.098266]},"properties":{"listingKey":"20251118194844909073000000","listingId":"OC-25262430","listPrice":1900,"city":"Alhambra","baths":1,"slug":"20251118194844909073000000","mlsSource":"CRMLS","propertyType":"B","propertySubType":"Single Family Residence","livingArea":700,"associationFee":0,"unparsedAddress":"2800 West Alhambra, Alhambra, CA 91801"}},{"type":"Feature","geometry":{"type":"Point","coordinates":[-118.153819,34.101263]},"properties":{"listingKey":"20251113192431173008000000","listingId":"CV-25259883","listPrice":5500,"city":"South Pasadena","baths":2,"slug":"20251113192431173008000000","mlsSource":"CRMLS","propertyType":"B","propertySubType":"Single Family Residence","livingArea":1739,"associationFee":0,"unparsedAddress":"1328 Elm Park, South Pasadena, CA 91030"}},{"type":"Feature","geometry":{"type":"Point","coordinates":[-118.153643,34.102987]},"properties":{"listingKey":"20250924041049086849000000","listingId":"AR-25222900","listPrice":1290000,"city":"South Pasadena","baths":2.5,"slug":"20250924041049086849000000","mlsSource":"CRMLS","propertyType":"A","propertySubType":"Condominium","livingArea":1696,"associationFee":220,"unparsedAddress":"1257 Huntington Drive, A, South Pasadena, CA 91030"}},{"type":"Feature","geometry":{"type":"Point","coordinates":[-118.14966,34.103704]},"properties":{"listingKey":"20250913014118735130000000","listingId":"AR-25215581","listPrice":5295000,"city":"South Pasadena","baths":0,"slug":"20250913014118735130000000","mlsSource":"CRMLS","propertyType":"C","propertySubType":"Apartment","livingArea":10463,"associationFee":0,"unparsedAddress":"1513 HUNTINGTON Drive, South Pasadena, CA 91030"}},{"type":"Feature","geometry":{"type":"Point","coordinates":[-118.148693,34.102062]},"properties":{"listingKey":"20250911180151602149000000","listingId":"P1-24073","listPrice":3198000,"city":"South Pasadena","baths":4.75,"slug":"20250911180151602149000000","mlsSource":"CRMLS","propertyType":"A","propertySubType":"Single Family Residence","livingArea":3604,"unparsedAddress":"1954 Primrose Avenue, South Pasadena, CA 91030"}},{"type":"Feature","id":718185,"properties":{"cluster":true,"cluster_id":718185,"point_count":2,"point_count_abbreviated":2},"geometry":{"type":"Point","coordinates":[-118.15117299556732,34.10552412336213]}},{"type":"Feature","geometry":{"type":"Point","coordinates":[-118.148397,34.104587]},"properties":{"listingKey":"20250911005454247190000000","listingId":"WS-25203150","listPrice":2750,"city":"South Pasadena","baths":1.75,"slug":"20250911005454247190000000","mlsSource":"CRMLS","propertyType":"B","propertySubType":"Apartment","livingArea":900,"associationFee":0,"unparsedAddress":"1628 South Huntington Dr., 10, South Pasadena, CA 91030"}}]