[{"type":"Feature","geometry":{"type":"Point","coordinates":[-122.242735,40.234449]},"properties":{"listingKey":"20251015233559165732000000","listingId":"SN-25229794","listPrice":725000,"city":"Red Bluff","baths":3.5,"slug":"20251015233559165732000000","mlsSource":"CRMLS","propertyType":"A","propertySubType":"Single Family Residence","livingArea":3677,"associationFee":0,"unparsedAddress":"15125 Kobbuntie Court, Red Bluff, CA 96080"}},{"type":"Feature","id":210629,"properties":{"cluster":true,"cluster_id":210629,"point_count":3,"point_count_abbreviated":3},"geometry":{"type":"Point","coordinates":[-122.27773904800414,40.22440710597553]}},{"type":"Feature","id":142885,"properties":{"cluster":true,"cluster_id":142885,"point_count":4,"point_count_abbreviated":4},"geometry":{"type":"Point","coordinates":[-122.2461873292923,40.196488848947865]}},{"type":"Feature","geometry":{"type":"Point","coordinates":[-122.177595,40.187329]},"properties":{"listingKey":"20251118182230547463000000","listingId":"SN-25262015","listPrice":1950,"city":"Red Bluff","baths":2,"slug":"20251118182230547463000000","mlsSource":"CRMLS","propertyType":"B","propertySubType":"Single Family Residence","livingArea":1222,"associationFee":0,"unparsedAddress":"23080 Clement Street, Red Bluff, CA 96080"}},{"type":"Feature","geometry":{"type":"Point","coordinates":[-122.319775,40.223098]},"properties":{"listingKey":"20250827004540224626000000","listingId":"SN-25192736","listPrice":275000,"city":"Red Bluff","baths":2,"slug":"20250827004540224626000000","mlsSource":"CRMLS","propertyType":"A","propertySubType":"Manufactured On Land","livingArea":1536,"associationFee":0,"unparsedAddress":"14721 NEVIS, Red Bluff, CA 96080"}},{"type":"Feature","id":135941,"properties":{"cluster":true,"cluster_id":135941,"point_count":6,"point_count_abbreviated":6},"geometry":{"type":"Point","coordinates":[-122.22370952367784,40.180657547058956]}},{"type":"Feature","geometry":{"type":"Point","coordinates":[-122.202697,40.258218]},"properties":{"listingKey":"20250930045647861165000000","listingId":"SN-25227787","listPrice":272000,"city":"Red Bluff","baths":2,"slug":"20250930045647861165000000","mlsSource":"CRMLS","propertyType":"A","propertySubType":"Manufactured On Land","livingArea":1152,"associationFee":0,"unparsedAddress":"22400 Via Pasado, Red Bluff, CA 96080"}}]