[{"type":"Feature","geometry":{"type":"Point","coordinates":[-117.426676,33.951269]},"properties":{"listingKey":"20251003053459754540000000","listingId":"IV-25231559","listPrice":560000,"city":"Riverside","baths":2,"slug":"20251003053459754540000000","mlsSource":"CRMLS","propertyType":"A","propertySubType":"Single Family Residence","livingArea":1382,"associationFee":0,"unparsedAddress":"6712 La Jolla, Riverside, CA 92504"}},{"type":"Feature","geometry":{"type":"Point","coordinates":[-117.423708,33.950424]},"properties":{"listingKey":"20250922042427809778000000","listingId":"CV-25222347","listPrice":565888,"city":"Riverside","baths":2,"slug":"20250922042427809778000000","mlsSource":"CRMLS","propertyType":"A","propertySubType":"Single Family Residence","livingArea":1687,"associationFee":0,"unparsedAddress":"6757 Clifford, Riverside, CA 92504"}},{"type":"Feature","geometry":{"type":"Point","coordinates":[-117.42318,33.948934]},"properties":{"listingKey":"20250823191410338183000000","listingId":"IV-25190635","listPrice":585000,"city":"Riverside","baths":2,"slug":"20250823191410338183000000","mlsSource":"CRMLS","propertyType":"A","propertySubType":"Single Family Residence","livingArea":1284,"associationFee":0,"unparsedAddress":"6848 Holbrook Way, Riverside, CA 92504"}},{"type":"Feature","geometry":{"type":"Point","coordinates":[-117.428126,33.94628]},"properties":{"listingKey":"20251002043248833066000000","listingId":"TR-25216720","listPrice":610000,"city":"Riverside","baths":2,"slug":"20251002043248833066000000","mlsSource":"CRMLS","propertyType":"A","propertySubType":"Single Family Residence","livingArea":1724,"associationFee":0,"unparsedAddress":"6985 Malibu Drive, Riverside, CA 92504"}},{"type":"Feature","geometry":{"type":"Point","coordinates":[-117.425066,33.945457]},"properties":{"listingKey":"20251103203257706954000000","listingId":"CV-25252770","listPrice":524900,"city":"Riverside","baths":1,"slug":"20251103203257706954000000","mlsSource":"CRMLS","propertyType":"A","propertySubType":"Single Family Residence","livingArea":931,"associationFee":0,"unparsedAddress":"4364 Via San Luis, Riverside, CA 92504"}}]