[{"type":"Feature","geometry":{"type":"Point","coordinates":[-118.279257,34.00133]},"properties":{"listingKey":"20250930210551726407000000","listingId":"IG-25226100","listPrice":824900,"city":"Los Angeles","baths":0,"slug":"20250930210551726407000000","mlsSource":"CRMLS","propertyType":"C","propertySubType":"Duplex","livingArea":1925,"associationFee":0,"unparsedAddress":"323 West 47th Place, Los Angeles, CA 90037"}},{"type":"Feature","geometry":{"type":"Point","coordinates":[-118.281662,33.998948]},"properties":{"listingKey":"20250814005041316880000000","listingId":"DW-25182655","listPrice":699900,"city":"Los Angeles","baths":2,"slug":"20250814005041316880000000","mlsSource":"CRMLS","propertyType":"A","propertySubType":"Single Family Residence","livingArea":1218,"associationFee":0,"unparsedAddress":"434 West 48th Street, Los Angeles, CA 90037"}},{"type":"Feature","geometry":{"type":"Point","coordinates":[-118.281904,34.003486]},"properties":{"listingKey":"20250624021136560653000000","listingId":"AR-25141126","listPrice":1200000,"city":"Los Angeles","baths":0,"slug":"20250624021136560653000000","mlsSource":"CRMLS","propertyType":"C","propertySubType":"Quadruplex","livingArea":3726,"associationFee":0,"unparsedAddress":"458 West Vernon Avenue, Los Angeles, CA 90037"}},{"type":"Feature","id":209129,"properties":{"cluster":true,"cluster_id":209129,"point_count":2,"point_count_abbreviated":2},"geometry":{"type":"Point","coordinates":[-118.28888028860092,34.004160015739444]}},{"type":"Feature","id":1010249,"properties":{"cluster":true,"cluster_id":1010249,"point_count":2,"point_count_abbreviated":2},"geometry":{"type":"Point","coordinates":[-118.2881212234497,34.000277620677025]}},{"type":"Feature","geometry":{"type":"Point","coordinates":[-118.283563,34.004338]},"properties":{"listingKey":"20251118203222137081000000","listingId":"IV-25261743","listPrice":990000,"city":"Los Angeles","baths":4,"slug":"20251118203222137081000000","mlsSource":"CRMLS","propertyType":"A","propertySubType":"Single Family Residence","livingArea":1197,"associationFee":0,"unparsedAddress":"530 West 43rd, Los Angeles, CA 90037"}},{"type":"Feature","geometry":{"type":"Point","coordinates":[-118.286915,34.005137]},"properties":{"listingKey":"20250819074516374729000000","listingId":"PW-25186335","listPrice":1549000,"city":"Los Angeles","baths":0,"slug":"20250819074516374729000000","mlsSource":"CRMLS","propertyType":"C","propertySubType":"Apartment","livingArea":5632,"unparsedAddress":"4302 South Hoover Street, Los Angeles, CA 90037"}}]