[{"type":"Feature","geometry":{"type":"Point","coordinates":[-118.279105,33.981183]},"properties":{"listingKey":"20250909212740065514000000","listingId":"CV-25201546","listPrice":500000,"city":"Los Angeles","baths":1,"slug":"20250909212740065514000000","mlsSource":"CRMLS","propertyType":"A","propertySubType":"Single Family Residence","livingArea":1003,"associationFee":0,"unparsedAddress":"318 West 64th Street, Los Angeles, CA 90003"}},{"type":"Feature","id":144489,"properties":{"cluster":true,"cluster_id":144489,"point_count":2,"point_count_abbreviated":2},"geometry":{"type":"Point","coordinates":[-118.28178584575653,33.98573373900466]}},{"type":"Feature","id":688617,"properties":{"cluster":true,"cluster_id":688617,"point_count":2,"point_count_abbreviated":2},"geometry":{"type":"Point","coordinates":[-118.27940136194229,33.98556471290313]}},{"type":"Feature","id":609193,"properties":{"cluster":true,"cluster_id":609193,"point_count":2,"point_count_abbreviated":2},"geometry":{"type":"Point","coordinates":[-118.28146934509277,33.9814234684123]}},{"type":"Feature","geometry":{"type":"Point","coordinates":[-118.289549,33.984185]},"properties":{"listingKey":"20251014211313288147000000","listingId":"SB-25237429","listPrice":900000,"city":"Los Angeles","baths":3,"slug":"20251014211313288147000000","mlsSource":"CRMLS","propertyType":"A","propertySubType":"Triplex","livingArea":3029,"associationFee":0,"unparsedAddress":"6111 Menlo Avenue, Los Angeles, CA 90044"}},{"type":"Feature","geometry":{"type":"Point","coordinates":[-118.286697,33.980871]},"properties":{"listingKey":"20250805230844622921000000","listingId":"IG-25172812","listPrice":749999,"city":"Los Angeles","baths":0,"slug":"20250805230844622921000000","mlsSource":"CRMLS","propertyType":"C","propertySubType":"Duplex","livingArea":2332,"associationFee":0,"unparsedAddress":"6414 South Hoover Street, Los Angeles, CA 90044"}},{"type":"Feature","geometry":{"type":"Point","coordinates":[-118.284757,33.985709]},"properties":{"listingKey":"20251118182239500644000000","listingId":"CV-25262036","listPrice":2300,"city":"Los Angeles","baths":1,"slug":"20251118182239500644000000","mlsSource":"CRMLS","propertyType":"B","propertySubType":"Apartment","livingArea":680,"associationFee":0,"unparsedAddress":"622 West 59th Pl, Los Angeles, CA 90044"}},{"type":"Feature","id":968457,"properties":{"cluster":true,"cluster_id":968457,"point_count":2,"point_count_abbreviated":2},"geometry":{"type":"Point","coordinates":[-118.28625440597534,33.98709483167485]}}]