[{"type":"Feature","geometry":{"type":"Point","coordinates":[-122.140115,37.677639]},"properties":{"listingKey":"20251022044152844794000000","listingId":"01-41115434","listPrice":880000,"city":"San Lorenzo","baths":2.5,"slug":"20251022044152844794000000","mlsSource":"CRMLS","propertyType":"A","propertySubType":"Single Family Residence","livingArea":1741,"associationFee":150,"unparsedAddress":"15822 Devonwood Way, San Lorenzo, CA 94580"}},{"type":"Feature","geometry":{"type":"Point","coordinates":[-122.135906,37.663938]},"properties":{"listingKey":"20251031185349809127000000","listingId":"01-41116355","listPrice":840000,"city":"San Lorenzo","baths":1.5,"slug":"20251031185349809127000000","mlsSource":"CRMLS","propertyType":"A","propertySubType":"Single Family Residence","livingArea":1430,"associationFee":150,"unparsedAddress":"1649 Via Tovita, San Lorenzo, CA 94580"}},{"type":"Feature","id":849321,"properties":{"cluster":true,"cluster_id":849321,"point_count":2,"point_count_abbreviated":2},"geometry":{"type":"Point","coordinates":[-122.14032590389252,37.669027948193246]}},{"type":"Feature","geometry":{"type":"Point","coordinates":[-122.127502,37.667356]},"properties":{"listingKey":"20251103171717963957000000","listingId":"01-41116524","listPrice":698888,"city":"Hayward","baths":2.5,"slug":"20251103171717963957000000","mlsSource":"CRMLS","propertyType":"A","propertySubType":"Townhouse","livingArea":1332,"associationFee":450,"unparsedAddress":"1088 AZALEA CT, Hayward, CA 94541"}},{"type":"Feature","id":657512,"properties":{"cluster":true,"cluster_id":657512,"point_count":2,"point_count_abbreviated":2},"geometry":{"type":"Point","coordinates":[-122.1431690454483,37.683332106388434]}},{"type":"Feature","geometry":{"type":"Point","coordinates":[-122.155489,37.68015]},"properties":{"listingKey":"20250805111511371537000000","listingId":"01-41107113","listPrice":999999,"city":"San Leandro","baths":3,"slug":"20250805111511371537000000","mlsSource":"CRMLS","propertyType":"A","propertySubType":"Single Family Residence","livingArea":2370,"unparsedAddress":"1950 Randy St, San Leandro, CA 94579"}}]