[{"type":"Feature","id":432041,"properties":{"cluster":true,"cluster_id":432041,"point_count":3,"point_count_abbreviated":3},"geometry":{"type":"Point","coordinates":[-117.70477116107939,33.59851139308478]}},{"type":"Feature","id":287433,"properties":{"cluster":true,"cluster_id":287433,"point_count":2,"point_count_abbreviated":2},"geometry":{"type":"Point","coordinates":[-117.69829273223877,33.59902672565754]}},{"type":"Feature","id":202889,"properties":{"cluster":true,"cluster_id":202889,"point_count":3,"point_count_abbreviated":3},"geometry":{"type":"Point","coordinates":[-117.70408093929291,33.596688342159]}},{"type":"Feature","geometry":{"type":"Point","coordinates":[-117.703925,33.600663]},"properties":{"listingKey":"20250905060745588181000000","listingId":"OC-25199358","listPrice":305000,"city":"Laguna Woods","baths":1.5,"slug":"20250905060745588181000000","mlsSource":"CRMLS","propertyType":"A","propertySubType":"Stock Cooperative","livingArea":953,"associationFee":885.04,"unparsedAddress":"650 Avenida Sevilla, C, Laguna Woods, CA 92653"}},{"type":"Feature","geometry":{"type":"Point","coordinates":[-117.697264,33.601063]},"properties":{"listingKey":"20251003220423168154000000","listingId":"OC-25227820","listPrice":1699000,"city":"Laguna Hills","baths":3,"slug":"20251003220423168154000000","mlsSource":"CRMLS","propertyType":"A","propertySubType":"Single Family Residence","livingArea":2584,"associationFee":0,"unparsedAddress":"24882 Avenida Avalon, Laguna Hills, CA 92653"}},{"type":"Feature","id":399849,"properties":{"cluster":true,"cluster_id":399849,"point_count":3,"point_count_abbreviated":3},"geometry":{"type":"Point","coordinates":[-117.70689547061919,33.59909821663828]}},{"type":"Feature","geometry":{"type":"Point","coordinates":[-117.706852,33.604292]},"properties":{"listingKey":"20251105215349922679000000","listingId":"OC-25254445","listPrice":599000,"city":"Laguna Woods","baths":2,"slug":"20251105215349922679000000","mlsSource":"CRMLS","propertyType":"A","propertySubType":"Stock Cooperative","livingArea":1300,"associationFee":1014,"unparsedAddress":"207 Avenida Majorca, C, Laguna Woods, CA 92637"}},{"type":"Feature","id":204553,"properties":{"cluster":true,"cluster_id":204553,"point_count":4,"point_count_abbreviated":4},"geometry":{"type":"Point","coordinates":[-117.70637154579163,33.60210972036998]}},{"type":"Feature","id":397065,"properties":{"cluster":true,"cluster_id":397065,"point_count":2,"point_count_abbreviated":2},"geometry":{"type":"Point","coordinates":[-117.7068167924881,33.59698920779363]}}]