[{"type":"Feature","geometry":{"type":"Point","coordinates":[-117.202691,34.477856]},"properties":{"listingKey":"20250812205315814789000000","listingId":"IV-25181713","listPrice":405000,"city":"Apple Valley","baths":2,"slug":"20250812205315814789000000","mlsSource":"CRMLS","propertyType":"A","propertySubType":"Single Family Residence","livingArea":1415,"associationFee":0,"unparsedAddress":"21133 Pahute Road, Apple Valley, CA 92308"}},{"type":"Feature","id":129480,"properties":{"cluster":true,"cluster_id":129480,"point_count":2,"point_count_abbreviated":2},"geometry":{"type":"Point","coordinates":[-117.20918118953705,34.48842130838561]}},{"type":"Feature","geometry":{"type":"Point","coordinates":[-117.211586,34.486879]},"properties":{"listingKey":"20250810053541889453000000","listingId":"IG-25179828","listPrice":509900,"city":"Apple Valley","baths":2,"slug":"20250810053541889453000000","mlsSource":"CRMLS","propertyType":"A","propertySubType":"Single Family Residence","livingArea":1763,"associationFee":0,"unparsedAddress":"20726 Nisqually Road, Apple Valley, CA 92308"}},{"type":"Feature","geometry":{"type":"Point","coordinates":[-117.205288,34.485688]},"properties":{"listingKey":"20251014003800929505000000","listingId":"NP-25238922","listPrice":1495,"city":"Apple Valley","baths":1,"slug":"20251014003800929505000000","mlsSource":"CRMLS","propertyType":"B","propertySubType":"Triplex","livingArea":900,"associationFee":0,"unparsedAddress":"21010 Sitting Bull Road, 3, Apple Valley, CA 92308"}},{"type":"Feature","geometry":{"type":"Point","coordinates":[-117.220031,34.484858]},"properties":{"listingKey":"20251021225043859345000000","listingId":"DW-25244231","listPrice":629000,"city":"Apple Valley","baths":3,"slug":"20251021225043859345000000","mlsSource":"CRMLS","propertyType":"A","propertySubType":"Single Family Residence","livingArea":3050,"associationFee":110,"unparsedAddress":"12846 Quail Vista, Apple Valley, CA 92308"}},{"type":"Feature","geometry":{"type":"Point","coordinates":[-117.216764,34.477749]},"properties":{"listingKey":"20250713075121643381000000","listingId":"IV-25156737","listPrice":585000,"city":"Apple Valley","baths":2.5,"slug":"20250713075121643381000000","mlsSource":"CRMLS","propertyType":"A","propertySubType":"Single Family Residence","livingArea":2860,"associationFee":0,"unparsedAddress":"12443 Bannock Drive, Apple Valley, CA 92308"}},{"type":"Feature","geometry":{"type":"Point","coordinates":[-117.221522,34.47554]},"properties":{"listingKey":"20251115011205895335000000","listingId":"CV-25260033","listPrice":750000,"city":"Apple Valley","baths":2.5,"slug":"20251115011205895335000000","mlsSource":"CRMLS","propertyType":"A","propertySubType":"Single Family Residence","livingArea":3184,"associationFee":177,"unparsedAddress":"20267 Fuji Court, Apple Valley, CA 92308"}}]