[{"type":"Feature","geometry":{"type":"Point","coordinates":[-117.202936,32.856385]},"properties":{"listingKey":"20251023010843719801000000","listingId":"8N-2510184","listPrice":1289000,"city":"San Diego","baths":2,"slug":"20251023010843719801000000","mlsSource":"CRMLS","propertyType":"A","propertySubType":"Single Family Residence","livingArea":1462,"associationFee":599,"unparsedAddress":"5977 Erlanger Street, San Diego, CA 92122"}},{"type":"Feature","geometry":{"type":"Point","coordinates":[-117.218052,32.853606]},"properties":{"listingKey":"20251114052546520356000000","listingId":"8P-2508574","listPrice":1400000,"city":"San Diego","baths":2,"slug":"20251114052546520356000000","mlsSource":"CRMLS","propertyType":"A","propertySubType":"Single Family Residence","livingArea":1930,"associationFee":0,"unparsedAddress":"3169 Bunche Avenue, San Diego, CA 92122"}},{"type":"Feature","geometry":{"type":"Point","coordinates":[-117.212783,32.847124]},"properties":{"listingKey":"20251113211355727192000000","listingId":"8N-2510820","listPrice":1874000,"city":"San Diego","baths":3,"slug":"20251113211355727192000000","mlsSource":"CRMLS","propertyType":"A","propertySubType":"Single Family Residence","livingArea":1946,"associationFee":0,"unparsedAddress":"5822 Stadium Street, San Diego, CA 92122"}},{"type":"Feature","geometry":{"type":"Point","coordinates":[-117.210949,32.851684]},"properties":{"listingKey":"20251003060910350619000000","listingId":"8P-2507538","listPrice":1799000,"city":"San Diego","baths":3,"slug":"20251003060910350619000000","mlsSource":"CRMLS","propertyType":"A","propertySubType":"Single Family Residence","livingArea":2575,"associationFee":0,"unparsedAddress":"3542 Governor Drive, San Diego, CA 92122"}},{"type":"Feature","geometry":{"type":"Point","coordinates":[-117.206179,32.855654]},"properties":{"listingKey":"20250919034258321921000000","listingId":"219135574","listPrice":1399900,"city":"San Diego","baths":2,"slug":"20250919034258321921000000","mlsSource":"GPS","propertyType":"A","propertySubType":"Single Family Residence","livingArea":1352,"associationFee":0,"unparsedAddress":"6547 Radcliffe Drive, San Diego, CA 92122"}},{"type":"Feature","geometry":{"type":"Point","coordinates":[-117.204839,32.852891]},"properties":{"listingKey":"20250916080520975217000000","listingId":"8N-2509085","listPrice":359995,"city":"San Diego","baths":1,"slug":"20250916080520975217000000","mlsSource":"CRMLS","propertyType":"A","propertySubType":"Condominium","livingArea":578,"associationFee":326,"unparsedAddress":"6330 Genesee Ave, 220, San Diego, CA 92122"}},{"type":"Feature","id":470696,"properties":{"cluster":true,"cluster_id":470696,"point_count":2,"point_count_abbreviated":2},"geometry":{"type":"Point","coordinates":[-117.21733778715134,32.860334748809734]}},{"type":"Feature","geometry":{"type":"Point","coordinates":[-117.210929,32.858612]},"properties":{"listingKey":"20250827211151535593000000","listingId":"8N-2508387","listPrice":5900,"city":"San Diego","baths":2.5,"slug":"20250827211151535593000000","mlsSource":"CRMLS","propertyType":"B","propertySubType":"Single Family Residence","livingArea":1566,"associationFee":0,"unparsedAddress":"3570 Tony Drive, San Diego, CA 92122"}}]