[{"type":"Feature","id":172551,"properties":{"cluster":true,"cluster_id":172551,"point_count":3,"point_count_abbreviated":3},"geometry":{"type":"Point","coordinates":[-118.54155778884888,34.20710854352552]}},{"type":"Feature","geometry":{"type":"Point","coordinates":[-118.537239,34.209704]},"properties":{"listingKey":"20251105161322587847000000","listingId":"OC-25248665","listPrice":469000,"city":"Reseda","baths":2,"slug":"20251105161322587847000000","mlsSource":"CRMLS","propertyType":"A","propertySubType":"Condominium","livingArea":1146,"associationFee":456,"unparsedAddress":"7651 Reseda, 12, Reseda, CA 91335"}},{"type":"Feature","geometry":{"type":"Point","coordinates":[-118.553801,34.207355]},"properties":{"listingKey":"20250711222006033708000000","listingId":"PW-25152278","listPrice":664900,"city":"Reseda","baths":2.5,"slug":"20250711222006033708000000","mlsSource":"CRMLS","propertyType":"A","propertySubType":"Townhouse","livingArea":1594,"associationFee":225,"unparsedAddress":"7527 Tampa Avenue, 1, Reseda, CA 91335"}},{"type":"Feature","id":103431,"properties":{"cluster":true,"cluster_id":103431,"point_count":5,"point_count_abbreviated":5},"geometry":{"type":"Point","coordinates":[-118.55738818645477,34.20217686165046]}},{"type":"Feature","geometry":{"type":"Point","coordinates":[-118.548851,34.203775]},"properties":{"listingKey":"20251002043247443978000000","listingId":"DW-25230261","listPrice":875000,"city":"Reseda","baths":3,"slug":"20251002043247443978000000","mlsSource":"CRMLS","propertyType":"A","propertySubType":"Single Family Residence","livingArea":1746,"associationFee":0,"unparsedAddress":"7326 Vanalden, Reseda, CA 91335"}},{"type":"Feature","id":752104,"properties":{"cluster":true,"cluster_id":752104,"point_count":2,"point_count_abbreviated":2},"geometry":{"type":"Point","coordinates":[-118.55032861232758,34.21943205001067]}},{"type":"Feature","id":195335,"properties":{"cluster":true,"cluster_id":195335,"point_count":2,"point_count_abbreviated":2},"geometry":{"type":"Point","coordinates":[-118.52707117795944,34.21895741988651]}},{"type":"Feature","geometry":{"type":"Point","coordinates":[-118.541978,34.233042]},"properties":{"listingKey":"20251009170531338009000000","listingId":"P1-24482","listPrice":1225000,"city":"Northridge","baths":2.75,"slug":"20251009170531338009000000","mlsSource":"CRMLS","propertyType":"A","propertySubType":"Single Family Residence","livingArea":2370,"unparsedAddress":"8939 Rhea Avenue, Northridge, CA 91324"}},{"type":"Feature","id":117991,"properties":{"cluster":true,"cluster_id":117991,"point_count":2,"point_count_abbreviated":2},"geometry":{"type":"Point","coordinates":[-118.55405151844025,34.22576611008009]}},{"type":"Feature","id":101575,"properties":{"cluster":true,"cluster_id":101575,"point_count":3,"point_count_abbreviated":3},"geometry":{"type":"Point","coordinates":[-118.53438556194305,34.217385650573476]}},{"type":"Feature","id":516711,"properties":{"cluster":true,"cluster_id":516711,"point_count":3,"point_count_abbreviated":3},"geometry":{"type":"Point","coordinates":[-118.52633357048035,34.232507723528414]}},{"type":"Feature","geometry":{"type":"Point","coordinates":[-118.524851,34.214655]},"properties":{"listingKey":"20251009180945735055000000","listingId":"PI-25235830","listPrice":849999,"city":"Reseda","baths":2,"slug":"20251009180945735055000000","mlsSource":"CRMLS","propertyType":"A","propertySubType":"Single Family Residence","livingArea":1200,"associationFee":0,"unparsedAddress":"7927 Zelzah, Reseda, CA 91335"}},{"type":"Feature","geometry":{"type":"Point","coordinates":[-118.539011,34.227595]},"properties":{"listingKey":"20250918125920718417000000","listingId":"GD-25220024","listPrice":4700,"city":"Northridge","baths":2,"slug":"20250918125920718417000000","mlsSource":"CRMLS","propertyType":"B","propertySubType":"Single Family Residence","livingArea":1528,"associationFee":0,"unparsedAddress":"18621 Bryant St, Northridge, CA 91324"}}]