[{"type":"Feature","geometry":{"type":"Point","coordinates":[-118.528188,34.18282]},"properties":{"listingKey":"20251030035243353383000000","listingId":"BB-25250223","listPrice":4850,"city":"Tarzana","baths":2,"slug":"20251030035243353383000000","mlsSource":"CRMLS","propertyType":"B","propertySubType":"Single Family Residence","livingArea":2128,"associationFee":0,"unparsedAddress":"18123 Delano Street, Tarzana, CA 91335"}},{"type":"Feature","geometry":{"type":"Point","coordinates":[-118.549239,34.180665]},"properties":{"listingKey":"20251111181613847637000000","listingId":"GD-25258175","listPrice":2500,"city":"Tarzana","baths":1,"slug":"20251111181613847637000000","mlsSource":"CRMLS","propertyType":"B","propertySubType":"Single Family Residence","livingArea":437,"associationFee":0,"unparsedAddress":"19120 Bessemer, Tarzana, CA 91335"}},{"type":"Feature","geometry":{"type":"Point","coordinates":[-118.523354,34.178088]},"properties":{"listingKey":"20250904231204478108000000","listingId":"OC-25198772","listPrice":1325000,"city":"Encino","baths":3,"slug":"20250904231204478108000000","mlsSource":"CRMLS","propertyType":"A","propertySubType":"Single Family Residence","livingArea":1834,"associationFee":0,"unparsedAddress":"17908 Califa Street, Encino, CA 91316"}},{"type":"Feature","geometry":{"type":"Point","coordinates":[-118.544249,34.175509]},"properties":{"listingKey":"20251113231924236678000000","listingId":"OC-25260107","listPrice":1149000,"city":"Tarzana","baths":3,"slug":"20251113231924236678000000","mlsSource":"CRMLS","propertyType":"A","propertySubType":"Single Family Residence","livingArea":1970,"associationFee":0,"unparsedAddress":"5732 Wilbur Avenue, Tarzana, CA 91356"}},{"type":"Feature","id":130247,"properties":{"cluster":true,"cluster_id":130247,"point_count":8,"point_count_abbreviated":8},"geometry":{"type":"Point","coordinates":[-118.53118166327477,34.17470971299909]}},{"type":"Feature","id":37287,"properties":{"cluster":true,"cluster_id":37287,"point_count":9,"point_count_abbreviated":9},"geometry":{"type":"Point","coordinates":[-118.53919327259065,34.17649061973488]}},{"type":"Feature","geometry":{"type":"Point","coordinates":[-118.520761,34.164905]},"properties":{"listingKey":"20251028190856773426000000","listingId":"SB-25248859","listPrice":2195,"city":"Encino","baths":2,"slug":"20251028190856773426000000","mlsSource":"CRMLS","propertyType":"B","propertySubType":"Apartment","livingArea":1000,"associationFee":0,"unparsedAddress":"5167 Yarmouth Avenue, 5, Encino, CA 91316"}},{"type":"Feature","geometry":{"type":"Point","coordinates":[-118.539685,34.16807]},"properties":{"listingKey":"20250810065248003333000000","listingId":"TR-25180092","listPrice":1598000,"city":"Tarzana","baths":3,"slug":"20250810065248003333000000","mlsSource":"CRMLS","propertyType":"A","propertySubType":"Single Family Residence","livingArea":2110,"associationFee":0,"unparsedAddress":"5354 Veloz Avenue, Tarzana, CA 91356"}},{"type":"Feature","id":107047,"properties":{"cluster":true,"cluster_id":107047,"point_count":5,"point_count_abbreviated":5},"geometry":{"type":"Point","coordinates":[-118.52410519123079,34.16828792906698]}},{"type":"Feature","id":108455,"properties":{"cluster":true,"cluster_id":108455,"point_count":3,"point_count_abbreviated":3},"geometry":{"type":"Point","coordinates":[-118.52833807468413,34.1972176779484]}},{"type":"Feature","id":181513,"properties":{"cluster":true,"cluster_id":181513,"point_count":2,"point_count_abbreviated":2},"geometry":{"type":"Point","coordinates":[-118.5412734746933,34.195865875626026]}},{"type":"Feature","geometry":{"type":"Point","coordinates":[-118.552021,34.188878]},"properties":{"listingKey":"20251016183204391734000000","listingId":"GD-25239777","listPrice":625000,"city":"Reseda","baths":2,"slug":"20251016183204391734000000","mlsSource":"CRMLS","propertyType":"A","propertySubType":"Townhouse","livingArea":1156,"associationFee":455,"unparsedAddress":"6520 Tampa Avenue, 6, Reseda, CA 91335"}},{"type":"Feature","geometry":{"type":"Point","coordinates":[-118.522074,34.187255]},"properties":{"listingKey":"20250925013030766471000000","listingId":"GD-25224742","listPrice":970000,"city":"Reseda","baths":2.5,"slug":"20250925013030766471000000","mlsSource":"CRMLS","propertyType":"A","propertySubType":"Single Family Residence","livingArea":1123,"associationFee":0,"unparsedAddress":"6413 Jamieson Avenue, Reseda, CA 91335"}},{"type":"Feature","geometry":{"type":"Point","coordinates":[-118.544408,34.185899]},"properties":{"listingKey":"20251021203745351013000000","listingId":"BB-25243576","listPrice":4800,"city":"Tarzana","baths":3,"slug":"20251021203745351013000000","mlsSource":"CRMLS","propertyType":"B","propertySubType":"Single Family Residence","livingArea":2784,"associationFee":0,"unparsedAddress":"6340 Wilbur Avenue, Tarzana, CA 91335"}},{"type":"Feature","id":378151,"properties":{"cluster":true,"cluster_id":378151,"point_count":2,"point_count_abbreviated":2},"geometry":{"type":"Point","coordinates":[-118.5382130742073,34.1904880316702]}}]