[{"type":"Feature","geometry":{"type":"Point","coordinates":[-119.192369,34.217703]},"properties":{"listingKey":"20251114225158019127000000","listingId":"V1-33396","listPrice":2600,"city":"Oxnard","baths":1,"slug":"20251114225158019127000000","mlsSource":"CRMLS","propertyType":"B","propertySubType":"Single Family Residence","livingArea":530,"unparsedAddress":"1301 Kingswood Way, 2, Oxnard, CA 93030"}},{"type":"Feature","geometry":{"type":"Point","coordinates":[-119.197172,34.230085]},"properties":{"listingKey":"20251031214558330058000000","listingId":"V1-33178","listPrice":854900,"city":"Oxnard","baths":2.5,"slug":"20251031214558330058000000","mlsSource":"CRMLS","propertyType":"A","propertySubType":"Townhouse","livingArea":2058,"associationFee":193,"unparsedAddress":"1655 Range Road, Oxnard, CA 93036"}},{"type":"Feature","geometry":{"type":"Point","coordinates":[-119.195294,34.226348]},"properties":{"listingKey":"20251112073320845109000000","listingId":"V1-33337","listPrice":900000,"city":"Oxnard","baths":2,"slug":"20251112073320845109000000","mlsSource":"CRMLS","propertyType":"A","propertySubType":"Single Family Residence","livingArea":2028,"unparsedAddress":"1510 Holly Avenue, Oxnard, CA 93036"}},{"type":"Feature","geometry":{"type":"Point","coordinates":[-119.197032,34.224534]},"properties":{"listingKey":"20250926222610291248000000","listingId":"V1-32683","listPrice":5000,"city":"Oxnard","baths":2,"slug":"20250926222610291248000000","mlsSource":"CRMLS","propertyType":"B","propertySubType":"Single Family Residence","livingArea":2194,"unparsedAddress":"2124 Pamela Street, Oxnard, CA 93036"}},{"type":"Feature","id":121512,"properties":{"cluster":true,"cluster_id":121512,"point_count":3,"point_count_abbreviated":3},"geometry":{"type":"Point","coordinates":[-119.1846138238907,34.21928123325169]}},{"type":"Feature","id":554409,"properties":{"cluster":true,"cluster_id":554409,"point_count":2,"point_count_abbreviated":2},"geometry":{"type":"Point","coordinates":[-119.18032586574554,34.2218095961796]}}]