[{"type":"Feature","geometry":{"type":"Point","coordinates":[-118.441827,34.158319]},"properties":{"listingKey":"20251017175431532646000000","listingId":"GD-25241076","listPrice":4195000,"city":"Sherman Oaks","baths":5.25,"slug":"20251017175431532646000000","mlsSource":"CRMLS","propertyType":"A","propertySubType":"Single Family Residence","livingArea":5050,"associationFee":0,"unparsedAddress":"4824 Calhoun, Sherman Oaks, CA 91423"}},{"type":"Feature","geometry":{"type":"Point","coordinates":[-118.458179,34.153639]},"properties":{"listingKey":"20250923172938661147000000","listingId":"P1-24312","listPrice":849000,"city":"Sherman Oaks","baths":2.25,"slug":"20250923172938661147000000","mlsSource":"CRMLS","propertyType":"A","propertySubType":"Condominium","livingArea":2161,"associationFee":720,"unparsedAddress":"14923 Moorpark Street, 103, Sherman Oaks, CA 91403"}},{"type":"Feature","id":142503,"properties":{"cluster":true,"cluster_id":142503,"point_count":4,"point_count_abbreviated":4},"geometry":{"type":"Point","coordinates":[-118.45333322882652,34.1541808358087]}},{"type":"Feature","id":107463,"properties":{"cluster":true,"cluster_id":107463,"point_count":2,"point_count_abbreviated":2},"geometry":{"type":"Point","coordinates":[-118.43580365180969,34.15338399281214]}},{"type":"Feature","geometry":{"type":"Point","coordinates":[-118.474603,34.15989]},"properties":{"listingKey":"20250920155253566872000000","listingId":"TR-25219321","listPrice":6195,"city":"Los Angeles","baths":2,"slug":"20250920155253566872000000","mlsSource":"CRMLS","propertyType":"B","propertySubType":"Single Family Residence","livingArea":1690,"associationFee":0,"unparsedAddress":"4918 Haskell Avenue, Los Angeles, CA 91436"}},{"type":"Feature","geometry":{"type":"Point","coordinates":[-118.447907,34.155328]},"properties":{"listingKey":"20250827020834760420000000","listingId":"GD-25190151","listPrice":1250000,"city":"Sherman Oaks","baths":0,"slug":"20250827020834760420000000","mlsSource":"CRMLS","propertyType":"C","propertySubType":"Triplex","livingArea":2082,"associationFee":0,"unparsedAddress":"4617 Tilden Avenue, Sherman Oaks, CA 91403"}},{"type":"Feature","geometry":{"type":"Point","coordinates":[-118.442912,34.153992]},"properties":{"listingKey":"20250916083051787721000000","listingId":"BB-25217973","listPrice":13995,"city":"Sherman Oaks","baths":6.5,"slug":"20250916083051787721000000","mlsSource":"CRMLS","propertyType":"B","propertySubType":"Single Family Residence","livingArea":3676,"associationFee":0,"unparsedAddress":"4532 Katherine, Sherman Oaks, CA 91423"}},{"type":"Feature","geometry":{"type":"Point","coordinates":[-118.434437,34.149453]},"properties":{"listingKey":"20250904211016231523000000","listingId":"BB-25197002","listPrice":965000,"city":"Sherman Oaks","baths":2.5,"slug":"20250904211016231523000000","mlsSource":"CRMLS","propertyType":"A","propertySubType":"Townhouse","livingArea":1864,"associationFee":834,"unparsedAddress":"4321 Matilija Avenue, 1, Sherman Oaks, CA 91423"}},{"type":"Feature","id":192616,"properties":{"cluster":true,"cluster_id":192616,"point_count":4,"point_count_abbreviated":4},"geometry":{"type":"Point","coordinates":[-118.44100713729858,34.14811664931804]}},{"type":"Feature","geometry":{"type":"Point","coordinates":[-118.447808,34.142452]},"properties":{"listingKey":"20250707041501977420000000","listingId":"IV-25151049","listPrice":1900000,"city":"Sherman Oaks","baths":4.5,"slug":"20250707041501977420000000","mlsSource":"CRMLS","propertyType":"A","propertySubType":"Single Family Residence","livingArea":2640,"associationFee":0,"unparsedAddress":"3946 Knobhill Drive, Sherman Oaks, CA 91423"}},{"type":"Feature","id":176487,"properties":{"cluster":true,"cluster_id":176487,"point_count":2,"point_count_abbreviated":2},"geometry":{"type":"Point","coordinates":[-118.45148652791977,34.14984139087895]}},{"type":"Feature","id":381319,"properties":{"cluster":true,"cluster_id":381319,"point_count":2,"point_count_abbreviated":2},"geometry":{"type":"Point","coordinates":[-118.46647202968597,34.15087577497248]}}]