[{"type":"Feature","geometry":{"type":"Point","coordinates":[-118.472798,34.088249]},"properties":{"listingKey":"20250926092116994510000000","listingId":"SB-25225759","listPrice":1999999,"city":"Los Angeles","baths":4,"slug":"20250926092116994510000000","mlsSource":"CRMLS","propertyType":"A","propertySubType":"Single Family Residence","livingArea":2985,"associationFee":0,"unparsedAddress":"1387 Casiano, Los Angeles, CA 90049"}},{"type":"Feature","geometry":{"type":"Point","coordinates":[-118.43935,34.08861]},"properties":{"listingKey":"20251014223203736369000000","listingId":"GD-25232109","listPrice":39950000,"city":"Bel Air","baths":11,"slug":"20251014223203736369000000","mlsSource":"CRMLS","propertyType":"A","propertySubType":"Single Family Residence","livingArea":19348,"associationFee":0,"unparsedAddress":"677 Nimes Road, Bel Air, CA 90077"}},{"type":"Feature","id":585767,"properties":{"cluster":true,"cluster_id":585767,"point_count":2,"point_count_abbreviated":2},"geometry":{"type":"Point","coordinates":[-118.45497071743011,34.07031576035027]}},{"type":"Feature","geometry":{"type":"Point","coordinates":[-118.462333,34.066909]},"properties":{"listingKey":"20250803035743301687000000","listingId":"LG-25149818","listPrice":2399000,"city":"Los Angeles","baths":2,"slug":"20250803035743301687000000","mlsSource":"CRMLS","propertyType":"A","propertySubType":"Single Family Residence","livingArea":2374,"associationFee":0,"unparsedAddress":"11333 Montana Avenue, Los Angeles, CA 90049"}},{"type":"Feature","id":290056,"properties":{"cluster":true,"cluster_id":290056,"point_count":2,"point_count_abbreviated":2},"geometry":{"type":"Point","coordinates":[-118.46753150224686,34.077554107005625]}},{"type":"Feature","id":194953,"properties":{"cluster":true,"cluster_id":194953,"point_count":4,"point_count_abbreviated":4},"geometry":{"type":"Point","coordinates":[-118.44915837049484,34.064543302187985]}},{"type":"Feature","id":145543,"properties":{"cluster":true,"cluster_id":145543,"point_count":8,"point_count_abbreviated":8},"geometry":{"type":"Point","coordinates":[-118.43808218836784,34.06019814596959]}},{"type":"Feature","id":214312,"properties":{"cluster":true,"cluster_id":214312,"point_count":3,"point_count_abbreviated":3},"geometry":{"type":"Point","coordinates":[-118.43302488327026,34.055983876011894]}},{"type":"Feature","id":209351,"properties":{"cluster":true,"cluster_id":209351,"point_count":3,"point_count_abbreviated":3},"geometry":{"type":"Point","coordinates":[-118.4650093317032,34.05556314118732]}},{"type":"Feature","id":148615,"properties":{"cluster":true,"cluster_id":148615,"point_count":8,"point_count_abbreviated":8},"geometry":{"type":"Point","coordinates":[-118.44522155821323,34.05377721712888]}}]