[{"type":"Feature","geometry":{"type":"Point","coordinates":[-119.727835,37.345309]},"properties":{"listingKey":"20250913030254997985000000","listingId":"FR-25216384","listPrice":499999,"city":"Ahwahnee","baths":3,"slug":"20250913030254997985000000","mlsSource":"CRMLS","propertyType":"A","propertySubType":"Single Family Residence","livingArea":2210,"associationFee":0,"unparsedAddress":"41028 Shandee Lane, Ahwahnee, CA 93601"}},{"type":"Feature","geometry":{"type":"Point","coordinates":[-119.729396,37.349961]},"properties":{"listingKey":"20250925041424790343000000","listingId":"FR-25224694","listPrice":725000,"city":"Ahwahnee","baths":3.75,"slug":"20250925041424790343000000","mlsSource":"CRMLS","propertyType":"A","propertySubType":"Single Family Residence","livingArea":3050,"associationFee":0,"unparsedAddress":"41345 Singing Hills Circle, Ahwahnee, CA 93601"}},{"type":"Feature","geometry":{"type":"Point","coordinates":[-119.729285,37.369156]},"properties":{"listingKey":"20250811194942548430000000","listingId":"FR-25180580","listPrice":699000,"city":"Ahwahnee","baths":2,"slug":"20250811194942548430000000","mlsSource":"CRMLS","propertyType":"A","propertySubType":"Single Family Residence","livingArea":3583,"associationFee":0,"unparsedAddress":"44800 Ahwahnee Acres Road, Ahwahnee, CA 93601"}},{"type":"Feature","geometry":{"type":"Point","coordinates":[-119.709416,37.336106]},"properties":{"listingKey":"20251111215326773811000000","listingId":"FR-25258040","listPrice":389000,"city":"Oakhurst","baths":1.75,"slug":"20251111215326773811000000","mlsSource":"CRMLS","propertyType":"A","propertySubType":"Single Family Residence","livingArea":1383,"associationFee":120,"unparsedAddress":"40410 Goldside Drive, Oakhurst, CA 93644"}},{"type":"Feature","geometry":{"type":"Point","coordinates":[-119.718871,37.343665]},"properties":{"listingKey":"20250916201313371799000000","listingId":"ND-25218470","listPrice":399999,"city":"Oakhurst","baths":2,"slug":"20250916201313371799000000","mlsSource":"CRMLS","propertyType":"A","propertySubType":"Single Family Residence","livingArea":1472,"associationFee":0,"unparsedAddress":"45412 North Oakview Drive, Oakhurst, CA 93644"}}]