[{"type":"Feature","geometry":{"type":"Point","coordinates":[-116.833585,34.240303]},"properties":{"listingKey":"20250821134213427198000000","listingId":"IV-25182886","listPrice":199900,"baths":1,"slug":"20250821134213427198000000","mlsSource":"CRMLS","propertyType":"A","propertySubType":"Single Family Residence","livingArea":432,"associationFee":0,"unparsedAddress":"650 San Bernardino Avenue, CA 92386"}},{"type":"Feature","geometry":{"type":"Point","coordinates":[-116.833813,34.238079]},"properties":{"listingKey":"20251106010610097510000000","listingId":"IV-25236081","listPrice":490000,"baths":2,"slug":"20251106010610097510000000","mlsSource":"CRMLS","propertyType":"A","propertySubType":"Manufactured On Land","livingArea":1359,"associationFee":0,"unparsedAddress":"775 Riverside, CA 92386"}},{"type":"Feature","id":167593,"properties":{"cluster":true,"cluster_id":167593,"point_count":4,"point_count_abbreviated":4},"geometry":{"type":"Point","coordinates":[-116.83313548564911,34.2368917002902]}},{"type":"Feature","geometry":{"type":"Point","coordinates":[-116.832219,34.23927]},"properties":{"listingKey":"20250926084318882623000000","listingId":"IG-25224572","listPrice":454900,"baths":2.5,"slug":"20250926084318882623000000","mlsSource":"CRMLS","propertyType":"A","propertySubType":"Single Family Residence","livingArea":1264,"associationFee":0,"unparsedAddress":"713 Los Angeles Avenue, CA 92386"}},{"type":"Feature","id":369481,"properties":{"cluster":true,"cluster_id":369481,"point_count":3,"point_count_abbreviated":3},"geometry":{"type":"Point","coordinates":[-116.82872593402863,34.24324292446707]}},{"type":"Feature","geometry":{"type":"Point","coordinates":[-116.830326,34.24086]},"properties":{"listingKey":"20251112143849123043000000","listingId":"SW-25257353","listPrice":499000,"baths":2,"slug":"20251112143849123043000000","mlsSource":"CRMLS","propertyType":"A","propertySubType":"Single Family Residence","livingArea":2005,"associationFee":0,"unparsedAddress":"627 Sunset Lane, CA 92386"}},{"type":"Feature","geometry":{"type":"Point","coordinates":[-116.828689,34.237477]},"properties":{"listingKey":"20251108020850385354000000","listingId":"IG-25244379","listPrice":399000,"baths":2,"slug":"20251108020850385354000000","mlsSource":"CRMLS","propertyType":"A","propertySubType":"Single Family Residence","livingArea":1316,"associationFee":0,"unparsedAddress":"811 Leonard Lane, CA 92386"}}]