[{"type":"Feature","id":254631,"properties":{"cluster":true,"cluster_id":254631,"point_count":3,"point_count_abbreviated":3},"geometry":{"type":"Point","coordinates":[-117.31160044670106,34.51030521432702]}},{"type":"Feature","geometry":{"type":"Point","coordinates":[-117.332721,34.522923]},"properties":{"listingKey":"20251114001139520350000000","listingId":"IG-25259972","listPrice":2300,"city":"Victorville","baths":2,"slug":"20251114001139520350000000","mlsSource":"CRMLS","propertyType":"B","propertySubType":"Single Family Residence","livingArea":1252,"associationFee":0,"unparsedAddress":"15171 Wildrose, Victorville, CA 92394"}},{"type":"Feature","geometry":{"type":"Point","coordinates":[-117.294273,34.490527]},"properties":{"listingKey":"20251027213052607409000000","listingId":"GD-25248211","listPrice":2350,"city":"Victorville","baths":2,"slug":"20251027213052607409000000","mlsSource":"CRMLS","propertyType":"B","propertySubType":"Single Family Residence","livingArea":1880,"associationFee":0,"unparsedAddress":"13179 Butte, Victorville, CA 92395"}},{"type":"Feature","id":261959,"properties":{"cluster":true,"cluster_id":261959,"point_count":5,"point_count_abbreviated":5},"geometry":{"type":"Point","coordinates":[-117.30421400070189,34.501317150410216]}},{"type":"Feature","id":297831,"properties":{"cluster":true,"cluster_id":297831,"point_count":4,"point_count_abbreviated":4},"geometry":{"type":"Point","coordinates":[-117.31741636991501,34.50143297758315]}},{"type":"Feature","geometry":{"type":"Point","coordinates":[-117.30102,34.520937]},"properties":{"listingKey":"20251013225401592001000000","listingId":"IG-25238704","listPrice":375000,"city":"Victorville","baths":2,"slug":"20251013225401592001000000","mlsSource":"CRMLS","propertyType":"A","propertySubType":"Single Family Residence","livingArea":1968,"associationFee":0,"unparsedAddress":"14854 Rama Drive, Victorville, CA 92395"}},{"type":"Feature","geometry":{"type":"Point","coordinates":[-117.29783,34.501413]},"properties":{"listingKey":"20251028004614009707000000","listingId":"WS-25248451","listPrice":349000,"city":"Victorville","baths":3,"slug":"20251028004614009707000000","mlsSource":"CRMLS","propertyType":"A","propertySubType":"Condominium","livingArea":1542,"associationFee":340,"unparsedAddress":"16780 Green Tree Blvd, Victorville, CA 92395"}},{"type":"Feature","geometry":{"type":"Point","coordinates":[-117.307989,34.517994]},"properties":{"listingKey":"20251014232431712665000000","listingId":"OC-25238549","listPrice":610000,"city":"Victorville","baths":0,"slug":"20251014232431712665000000","mlsSource":"CRMLS","propertyType":"C","propertySubType":"Triplex","livingArea":1830,"associationFee":0,"unparsedAddress":"14703 MESA DR, Victorville, CA 92395"}},{"type":"Feature","geometry":{"type":"Point","coordinates":[-117.294636,34.510312]},"properties":{"listingKey":"20250920031937142616000000","listingId":"CV-25219159","listPrice":399000,"city":"Victorville","baths":2,"slug":"20250920031937142616000000","mlsSource":"CRMLS","propertyType":"A","propertySubType":"Single Family Residence","livingArea":1726,"associationFee":0,"unparsedAddress":"16924 Crestview, Victorville, CA 92395"}},{"type":"Feature","id":464233,"properties":{"cluster":true,"cluster_id":464233,"point_count":2,"point_count_abbreviated":2},"geometry":{"type":"Point","coordinates":[-117.30836123228073,34.491078630414876]}},{"type":"Feature","id":158311,"properties":{"cluster":true,"cluster_id":158311,"point_count":4,"point_count_abbreviated":4},"geometry":{"type":"Point","coordinates":[-117.31461077928543,34.49032256238257]}},{"type":"Feature","geometry":{"type":"Point","coordinates":[-117.301744,34.489917]},"properties":{"listingKey":"20251017190601389481000000","listingId":"IG-25240832","listPrice":433000,"city":"Victorville","baths":2,"slug":"20251017190601389481000000","mlsSource":"CRMLS","propertyType":"A","propertySubType":"Single Family Residence","livingArea":1225,"associationFee":0,"unparsedAddress":"16591 Ponca, Victorville, CA 92395"}}]