[{"type":"Feature","geometry":{"type":"Point","coordinates":[-117.295503,34.477697]},"properties":{"listingKey":"20250822153719467922000000","listingId":"CV-25189845","listPrice":365000,"city":"Victorville","baths":2,"slug":"20250822153719467922000000","mlsSource":"CRMLS","propertyType":"A","propertySubType":"Single Family Residence","livingArea":1257,"associationFee":0,"unparsedAddress":"16880 Glennaire Avenue, Victorville, CA 92395"}},{"type":"Feature","geometry":{"type":"Point","coordinates":[-117.315144,34.475391]},"properties":{"listingKey":"20250822063754245928000000","listingId":"CV-25189123","listPrice":399999,"city":"Victorville","baths":1.75,"slug":"20250822063754245928000000","mlsSource":"CRMLS","propertyType":"A","propertySubType":"Single Family Residence","livingArea":1275,"associationFee":0,"unparsedAddress":"15970 Lindero Street, Victorville, CA 92395"}},{"type":"Feature","id":115399,"properties":{"cluster":true,"cluster_id":115399,"point_count":2,"point_count_abbreviated":2},"geometry":{"type":"Point","coordinates":[-117.30883598327637,34.47641587834727]}},{"type":"Feature","geometry":{"type":"Point","coordinates":[-117.304873,34.469455]},"properties":{"listingKey":"20251119231233768153000000","listingId":"CV-25263300","listPrice":3360000,"city":"Hesperia","baths":0,"slug":"20251119231233768153000000","mlsSource":"CRMLS","propertyType":"C","propertySubType":"Apartment","livingArea":11954,"associationFee":0,"unparsedAddress":"16440 Sequoia, Hesperia, CA 92345"}},{"type":"Feature","geometry":{"type":"Point","coordinates":[-117.320805,34.472711]},"properties":{"listingKey":"20250928064718861486000000","listingId":"CV-25226367","listPrice":1850,"city":"Victorville","baths":2,"slug":"20250928064718861486000000","mlsSource":"CRMLS","propertyType":"B","propertySubType":"Single Family Residence","livingArea":1334,"associationFee":0,"unparsedAddress":"15716 Tokay Street, Victorville, CA 92395"}},{"type":"Feature","geometry":{"type":"Point","coordinates":[-117.301778,34.458258]},"properties":{"listingKey":"20251030195700076241000000","listingId":"CV-25250513","listPrice":639000,"city":"Hesperia","baths":2.5,"slug":"20251030195700076241000000","mlsSource":"CRMLS","propertyType":"A","propertySubType":"Single Family Residence","livingArea":2411,"associationFee":0,"unparsedAddress":"11412 Calcite Street, Hesperia, CA 92345"}},{"type":"Feature","geometry":{"type":"Point","coordinates":[-117.307164,34.459676]},"properties":{"listingKey":"20250920041656481809000000","listingId":"CV-25221471","listPrice":499000,"city":"Hesperia","baths":2,"slug":"20250920041656481809000000","mlsSource":"CRMLS","propertyType":"A","propertySubType":"Single Family Residence","livingArea":1959,"associationFee":0,"unparsedAddress":"11490 4th Ave, Hesperia, CA 92345"}},{"type":"Feature","id":338663,"properties":{"cluster":true,"cluster_id":338663,"point_count":2,"point_count_abbreviated":2},"geometry":{"type":"Point","coordinates":[-117.32228994369507,34.488098533054526]}},{"type":"Feature","id":146151,"properties":{"cluster":true,"cluster_id":146151,"point_count":2,"point_count_abbreviated":2},"geometry":{"type":"Point","coordinates":[-117.30430036783218,34.482633270701626]}},{"type":"Feature","id":316007,"properties":{"cluster":true,"cluster_id":316007,"point_count":2,"point_count_abbreviated":2},"geometry":{"type":"Point","coordinates":[-117.29940801858902,34.482036315015065]}},{"type":"Feature","geometry":{"type":"Point","coordinates":[-117.321787,34.477952]},"properties":{"listingKey":"20251007011449947848000000","listingId":"DW-25231994","listPrice":299000,"city":"Victorville","baths":2,"slug":"20251007011449947848000000","mlsSource":"CRMLS","propertyType":"A","propertySubType":"Single Family Residence","livingArea":1157,"associationFee":0,"unparsedAddress":"12494 Hickory Avenue, Victorville, CA 92395"}}]