[{"type":"Feature","geometry":{"type":"Point","coordinates":[-117.318705,34.391169]},"properties":{"listingKey":"20251028234721312116000000","listingId":"219137792","listPrice":535000,"city":"Hesperia","baths":1,"slug":"20251028234721312116000000","mlsSource":"GPS","propertyType":"A","propertySubType":"Single Family Residence","livingArea":1081,"associationFee":0,"unparsedAddress":"15786 El Centro Street, Hesperia, CA 92345"}},{"type":"Feature","geometry":{"type":"Point","coordinates":[-117.299312,34.405949]},"properties":{"listingKey":"20250910233647051068000000","listingId":"CV-25214347","listPrice":355000,"city":"Hesperia","baths":2,"slug":"20250910233647051068000000","mlsSource":"CRMLS","propertyType":"A","propertySubType":"Single Family Residence","livingArea":2367,"associationFee":0,"unparsedAddress":"8511 C Avenue, Hesperia, CA 92345"}},{"type":"Feature","id":364263,"properties":{"cluster":true,"cluster_id":364263,"point_count":3,"point_count_abbreviated":3},"geometry":{"type":"Point","coordinates":[-117.31641590595245,34.39688294366999]}},{"type":"Feature","id":334407,"properties":{"cluster":true,"cluster_id":334407,"point_count":3,"point_count_abbreviated":3},"geometry":{"type":"Point","coordinates":[-117.3051595687866,34.389927275552225]}},{"type":"Feature","geometry":{"type":"Point","coordinates":[-117.299147,34.384435]},"properties":{"listingKey":"20251007223128050457000000","listingId":"IG-25234654","listPrice":2499,"city":"Hesperia","baths":2,"slug":"20251007223128050457000000","mlsSource":"CRMLS","propertyType":"B","propertySubType":"Single Family Residence","livingArea":1628,"associationFee":0,"unparsedAddress":"7365 Chase Avenue, Hesperia, CA 92345"}},{"type":"Feature","geometry":{"type":"Point","coordinates":[-117.29776,34.393147]},"properties":{"listingKey":"20250802104409923738000000","listingId":"IV-25173222","listPrice":425000,"city":"Hesperia","baths":2,"slug":"20250802104409923738000000","mlsSource":"CRMLS","propertyType":"A","propertySubType":"Single Family Residence","livingArea":1474,"associationFee":0,"unparsedAddress":"16725 Mission Street, Hesperia, CA 92345"}},{"type":"Feature","id":358184,"properties":{"cluster":true,"cluster_id":358184,"point_count":2,"point_count_abbreviated":2},"geometry":{"type":"Point","coordinates":[-117.29146867990494,34.40150104631441]}},{"type":"Feature","geometry":{"type":"Point","coordinates":[-117.32406,34.415293]},"properties":{"listingKey":"20251114042635152498000000","listingId":"CV-25259992","listPrice":425000,"city":"Hesperia","baths":1,"slug":"20251114042635152498000000","mlsSource":"CRMLS","propertyType":"A","propertySubType":"Single Family Residence","livingArea":1474,"associationFee":0,"unparsedAddress":"9047 10th Ave, Hesperia, CA 92345"}},{"type":"Feature","geometry":{"type":"Point","coordinates":[-117.30815,34.41234]},"properties":{"listingKey":"20251112010859943109000000","listingId":"IV-25258606","listPrice":450000,"city":"Hesperia","baths":1,"slug":"20251112010859943109000000","mlsSource":"CRMLS","propertyType":"A","propertySubType":"Single Family Residence","livingArea":972,"associationFee":0,"unparsedAddress":"8915 3rd, Hesperia, CA 92345"}},{"type":"Feature","geometry":{"type":"Point","coordinates":[-117.291938,34.385042]},"properties":{"listingKey":"20250928034724470562000000","listingId":"PW-25226784","listPrice":564000,"city":"Hesperia","baths":2,"slug":"20250928034724470562000000","mlsSource":"CRMLS","propertyType":"A","propertySubType":"Single Family Residence","livingArea":2105,"associationFee":0,"unparsedAddress":"17041 Fairburn, Hesperia, CA 92345"}}]