[{"type":"Feature","geometry":{"type":"Point","coordinates":[-117.296071,33.903561]},"properties":{"listingKey":"20250707062336695882000000","listingId":"WS-25138107","listPrice":939000,"city":"Riverside","baths":3.5,"slug":"20250707062336695882000000","mlsSource":"CRMLS","propertyType":"A","propertySubType":"Single Family Residence","livingArea":3746,"associationFee":60,"unparsedAddress":"20800 Indigo, Riverside, CA 92508"}},{"type":"Feature","geometry":{"type":"Point","coordinates":[-117.30011,33.895009]},"properties":{"listingKey":"20251120024623142189000000","listingId":"IG-25199297","listPrice":748800,"city":"Riverside","baths":3,"slug":"20251120024623142189000000","mlsSource":"CRMLS","propertyType":"A","propertySubType":"Single Family Residence","livingArea":2240,"associationFee":0,"unparsedAddress":"8587 Yarrow Lane, Riverside, CA 92508"}},{"type":"Feature","id":590920,"properties":{"cluster":true,"cluster_id":590920,"point_count":2,"point_count_abbreviated":2},"geometry":{"type":"Point","coordinates":[-117.29358226060867,33.8985116977709]}},{"type":"Feature","geometry":{"type":"Point","coordinates":[-117.333766,33.899515]},"properties":{"listingKey":"20251030224729531199000000","listingId":"OC-25250825","listPrice":3500,"city":"Riverside","baths":2,"slug":"20251030224729531199000000","mlsSource":"CRMLS","propertyType":"B","propertySubType":"Single Family Residence","livingArea":2216,"associationFee":0,"unparsedAddress":"18825 18825 Roberts Rd., Riverside, CA 92508"}},{"type":"Feature","id":458311,"properties":{"cluster":true,"cluster_id":458311,"point_count":3,"point_count_abbreviated":3},"geometry":{"type":"Point","coordinates":[-117.3008269071579,33.900552453200746]}},{"type":"Feature","geometry":{"type":"Point","coordinates":[-117.312118,33.892611]},"properties":{"listingKey":"20250714031320051829000000","listingId":"IG-25156644","listPrice":667000,"city":"Riverside","baths":2,"slug":"20250714031320051829000000","mlsSource":"CRMLS","propertyType":"A","propertySubType":"Single Family Residence","livingArea":1678,"associationFee":0,"unparsedAddress":"8751 Rosebay Court, Riverside, CA 92508"}},{"type":"Feature","geometry":{"type":"Point","coordinates":[-117.33264,33.879814]},"properties":{"listingKey":"20251031024943768289000000","listingId":"IG-25250362","listPrice":899999,"city":"Riverside","baths":3,"slug":"20251031024943768289000000","mlsSource":"CRMLS","propertyType":"A","propertySubType":"Single Family Residence","livingArea":3186,"associationFee":37,"unparsedAddress":"9406 Kentfield Court, Riverside, CA 92508"}},{"type":"Feature","id":506983,"properties":{"cluster":true,"cluster_id":506983,"point_count":2,"point_count_abbreviated":2},"geometry":{"type":"Point","coordinates":[-117.31627106666565,33.88157228501527]}},{"type":"Feature","geometry":{"type":"Point","coordinates":[-117.305534,33.892186]},"properties":{"listingKey":"20251115160948457057000000","listingId":"OC-25261134","listPrice":3200,"city":"Riverside","baths":3,"slug":"20251115160948457057000000","mlsSource":"CRMLS","propertyType":"B","propertySubType":"Single Family Residence","livingArea":1840,"associationFee":0,"unparsedAddress":"20425 Tobira, Riverside, CA 92508"}},{"type":"Feature","id":448231,"properties":{"cluster":true,"cluster_id":448231,"point_count":2,"point_count_abbreviated":2},"geometry":{"type":"Point","coordinates":[-117.31448471546173,33.88887125097695]}},{"type":"Feature","id":172009,"properties":{"cluster":true,"cluster_id":172009,"point_count":2,"point_count_abbreviated":2},"geometry":{"type":"Point","coordinates":[-117.32905179262161,33.891271445612816]}},{"type":"Feature","id":196040,"properties":{"cluster":true,"cluster_id":196040,"point_count":2,"point_count_abbreviated":2},"geometry":{"type":"Point","coordinates":[-117.32367396354675,33.883505079922884]}},{"type":"Feature","id":389831,"properties":{"cluster":true,"cluster_id":389831,"point_count":6,"point_count_abbreviated":6},"geometry":{"type":"Point","coordinates":[-117.33065664768218,33.87629769950222]}},{"type":"Feature","id":428327,"properties":{"cluster":true,"cluster_id":428327,"point_count":9,"point_count_abbreviated":9},"geometry":{"type":"Point","coordinates":[-117.32446193695068,33.87453596776621]}},{"type":"Feature","id":184488,"properties":{"cluster":true,"cluster_id":184488,"point_count":2,"point_count_abbreviated":2},"geometry":{"type":"Point","coordinates":[-117.31747806072235,33.87228178887436]}},{"type":"Feature","geometry":{"type":"Point","coordinates":[-117.328357,33.906573]},"properties":{"listingKey":"20250829140648564338000000","listingId":"CV-25193119","listPrice":950000,"city":"Riverside","baths":4.5,"slug":"20250829140648564338000000","mlsSource":"CRMLS","propertyType":"A","propertySubType":"Single Family Residence","livingArea":3783,"associationFee":0,"unparsedAddress":"8004 Palm View Ln, Riverside, CA 92508"}}]