[{"type":"Feature","geometry":{"type":"Point","coordinates":[-117.330056,33.565155]},"properties":{"listingKey":"20251013231457521542000000","listingId":"SW-25236227","listPrice":2748000,"city":"Murrieta","baths":4.5,"slug":"20251013231457521542000000","mlsSource":"CRMLS","propertyType":"A","propertySubType":"Single Family Residence","livingArea":5393,"associationFee":156,"unparsedAddress":"38355 Vista Del Bosque, Murrieta, CA 92562"}},{"type":"Feature","id":659431,"properties":{"cluster":true,"cluster_id":659431,"point_count":2,"point_count_abbreviated":2},"geometry":{"type":"Point","coordinates":[-117.30332940816879,33.574988992920396]}},{"type":"Feature","geometry":{"type":"Point","coordinates":[-117.291928,33.568323]},"properties":{"listingKey":"20250923220338396255000000","listingId":"IV-25223359","listPrice":3250000,"city":"Murrieta","baths":7.5,"slug":"20250923220338396255000000","mlsSource":"CRMLS","propertyType":"A","propertySubType":"Single Family Residence","livingArea":6954,"associationFee":87,"unparsedAddress":"21410 Avenida De Arboles, Murrieta, CA 92562"}},{"type":"Feature","id":226247,"properties":{"cluster":true,"cluster_id":226247,"point_count":2,"point_count_abbreviated":2},"geometry":{"type":"Point","coordinates":[-117.31271982192993,33.55513348788401]}},{"type":"Feature","geometry":{"type":"Point","coordinates":[-117.316914,33.571919]},"properties":{"listingKey":"20250820043811253259000000","listingId":"SW-25179639","listPrice":1598000,"city":"Murrieta","baths":4,"slug":"20250820043811253259000000","mlsSource":"CRMLS","propertyType":"A","propertySubType":"Single Family Residence","livingArea":3611,"associationFee":950,"unparsedAddress":"19750 Avenida Rosella, Murrieta, CA 92562"}},{"type":"Feature","geometry":{"type":"Point","coordinates":[-117.310526,33.566464]},"properties":{"listingKey":"20250802104238707213000000","listingId":"SW-25171040","listPrice":2800000,"city":"Murrieta","baths":3.5,"slug":"20250802104238707213000000","mlsSource":"CRMLS","propertyType":"A","propertySubType":"Single Family Residence","livingArea":3985,"associationFee":880,"unparsedAddress":"37789 Avenida La Cresta, Murrieta, CA 92562"}},{"type":"Feature","geometry":{"type":"Point","coordinates":[-117.320782,33.563722]},"properties":{"listingKey":"20251016033823682413000000","listingId":"SW-25237934","listPrice":2798000,"city":"Murrieta","baths":4.75,"slug":"20251016033823682413000000","mlsSource":"CRMLS","propertyType":"A","propertySubType":"Single Family Residence","livingArea":4423,"associationFee":899,"unparsedAddress":"19315 Avenida Cordoba, Murrieta, CA 92562"}},{"type":"Feature","geometry":{"type":"Point","coordinates":[-117.290071,33.549135]},"properties":{"listingKey":"20250917081738252963000000","listingId":"SW-25217891","listPrice":2498000,"city":"Murrieta","baths":5.5,"slug":"20250917081738252963000000","mlsSource":"CRMLS","propertyType":"A","propertySubType":"Single Family Residence","livingArea":4450,"associationFee":0,"unparsedAddress":"21128 Via Los Laureles, Murrieta, CA 92562"}}]