[{"type":"Feature","geometry":{"type":"Point","coordinates":[-117.294321,33.280842]},"properties":{"listingKey":"20251015204940006904000000","listingId":"OC-25239721","listPrice":1399000,"city":"Oceanside","baths":3,"slug":"20251015204940006904000000","mlsSource":"CRMLS","propertyType":"A","propertySubType":"Single Family Residence","livingArea":2873,"associationFee":126,"unparsedAddress":"5450 Alexandrine, Oceanside, CA 92057"}},{"type":"Feature","geometry":{"type":"Point","coordinates":[-117.304195,33.25806]},"properties":{"listingKey":"20251108073348644104000000","listingId":"8N-2510690","listPrice":780000,"city":"Oceanside","baths":2,"slug":"20251108073348644104000000","mlsSource":"CRMLS","propertyType":"A","propertySubType":"Single Family Residence","livingArea":1180,"associationFee":0,"unparsedAddress":"4795 Stephanie Place, Oceanside, CA 92057"}},{"type":"Feature","id":405511,"properties":{"cluster":true,"cluster_id":405511,"point_count":5,"point_count_abbreviated":5},"geometry":{"type":"Point","coordinates":[-117.30267119407654,33.27204118803179]}},{"type":"Feature","geometry":{"type":"Point","coordinates":[-117.292871,33.271943]},"properties":{"listingKey":"20251010142420379873000000","listingId":"ND-25236447","listPrice":1149000,"city":"Oceanside","baths":3.5,"slug":"20251010142420379873000000","mlsSource":"CRMLS","propertyType":"A","propertySubType":"Single Family Residence","livingArea":3080,"associationFee":139,"unparsedAddress":"1105 Breakaway, Oceanside, CA 92057"}},{"type":"Feature","geometry":{"type":"Point","coordinates":[-117.295813,33.259983]},"properties":{"listingKey":"20251022194807080218000000","listingId":"ND-25244989","listPrice":809900,"city":"Oceanside","baths":2,"slug":"20251022194807080218000000","mlsSource":"CRMLS","propertyType":"A","propertySubType":"Single Family Residence","livingArea":1236,"associationFee":0,"unparsedAddress":"648 Flora, Oceanside, CA 92057"}},{"type":"Feature","geometry":{"type":"Point","coordinates":[-117.290696,33.266714]},"properties":{"listingKey":"20251112182928539478000000","listingId":"8N-2510765","listPrice":1150000,"city":"Oceanside","baths":3,"slug":"20251112182928539478000000","mlsSource":"CRMLS","propertyType":"A","propertySubType":"Single Family Residence","livingArea":2351,"associationFee":139,"unparsedAddress":"1247 Bellingham Drive, Oceanside, CA 92057"}},{"type":"Feature","geometry":{"type":"Point","coordinates":[-117.316852,33.251948]},"properties":{"listingKey":"20251110234445067858000000","listingId":"8N-2510717","listPrice":800000,"city":"Oceanside","baths":2,"slug":"20251110234445067858000000","mlsSource":"CRMLS","propertyType":"A","propertySubType":"Single Family Residence","livingArea":1440,"associationFee":0,"unparsedAddress":"4569 Calle Del Palo, Oceanside, CA 92057"}},{"type":"Feature","id":584776,"properties":{"cluster":true,"cluster_id":584776,"point_count":2,"point_count_abbreviated":2},"geometry":{"type":"Point","coordinates":[-117.30488777160645,33.24819896075235]}},{"type":"Feature","id":106055,"properties":{"cluster":true,"cluster_id":106055,"point_count":3,"point_count_abbreviated":3},"geometry":{"type":"Point","coordinates":[-117.30116665363313,33.25398308094897]}},{"type":"Feature","id":118247,"properties":{"cluster":true,"cluster_id":118247,"point_count":5,"point_count_abbreviated":5},"geometry":{"type":"Point","coordinates":[-117.30984127521513,33.25202657186787]}}]