[{"type":"Feature","geometry":{"type":"Point","coordinates":[-120.639715,35.452682]},"properties":{"listingKey":"20251118173937089849000000","listingId":"NS-25261541","listPrice":625000,"city":"Atascadero","baths":2.5,"slug":"20251118173937089849000000","mlsSource":"CRMLS","propertyType":"A","propertySubType":"Condominium","livingArea":1839,"associationFee":183.6,"unparsedAddress":"9151 Pato Lane, 241, Atascadero, CA 93422"}},{"type":"Feature","geometry":{"type":"Point","coordinates":[-120.637425,35.451545]},"properties":{"listingKey":"20251031175642270160000000","listingId":"NS-25249464","listPrice":725000,"city":"Atascadero","baths":2.5,"slug":"20251031175642270160000000","mlsSource":"CRMLS","propertyType":"A","propertySubType":"Single Family Residence","livingArea":1984,"associationFee":232.2,"unparsedAddress":"11506 Cuervo Way, Atascadero, CA 93446"}},{"type":"Feature","geometry":{"type":"Point","coordinates":[-120.631061,35.450094]},"properties":{"listingKey":"20250629055155534661000000","listingId":"NS-25141702","listPrice":1250000,"city":"Atascadero","baths":2.5,"slug":"20250629055155534661000000","mlsSource":"CRMLS","propertyType":"A","propertySubType":"Single Family Residence","livingArea":2851,"associationFee":221,"unparsedAddress":"11915 Via Marbella, Atascadero, CA 93422"}},{"type":"Feature","geometry":{"type":"Point","coordinates":[-120.637976,35.44786]},"properties":{"listingKey":"20251102012257617028000000","listingId":"SC-25251904","listPrice":610000,"city":"Atascadero","baths":2.5,"slug":"20251102012257617028000000","mlsSource":"CRMLS","propertyType":"A","propertySubType":"Condominium","livingArea":1685,"associationFee":250,"unparsedAddress":"11613 Cardelina Lane, Atascadero, CA 93422"}},{"type":"Feature","id":331912,"properties":{"cluster":true,"cluster_id":331912,"point_count":3,"point_count_abbreviated":3},"geometry":{"type":"Point","coordinates":[-120.64251601696014,35.456853924186916]}}]