[{"type":"Feature","id":153577,"properties":{"cluster":true,"cluster_id":153577,"point_count":2,"point_count_abbreviated":2},"geometry":{"type":"Point","coordinates":[-116.40880465507507,34.12807643379047]}},{"type":"Feature","id":204777,"properties":{"cluster":true,"cluster_id":204777,"point_count":2,"point_count_abbreviated":2},"geometry":{"type":"Point","coordinates":[-116.40708804130554,34.13842680951157]}},{"type":"Feature","geometry":{"type":"Point","coordinates":[-116.406292,34.140483]},"properties":{"listingKey":"20251031012731701828000000","listingId":"JT-25250190","listPrice":779000,"city":"Yucca Valley","baths":2,"slug":"20251031012731701828000000","mlsSource":"CRMLS","propertyType":"A","propertySubType":"Single Family Residence","livingArea":1944,"associationFee":0,"unparsedAddress":"6202 Mandarin Road, Yucca Valley, CA 92284"}},{"type":"Feature","geometry":{"type":"Point","coordinates":[-116.404654,34.128506]},"properties":{"listingKey":"20251018194333937281000000","listingId":"JT-25242070","listPrice":450000,"city":"Yucca Valley","baths":2,"slug":"20251018194333937281000000","mlsSource":"CRMLS","propertyType":"A","propertySubType":"Single Family Residence","livingArea":1444,"associationFee":0,"unparsedAddress":"6873 Warren Vista, Yucca Valley, CA 92284"}},{"type":"Feature","geometry":{"type":"Point","coordinates":[-116.406251,34.135922]},"properties":{"listingKey":"20250804192609404011000000","listingId":"219133689","listPrice":999000,"city":"Yucca Valley","baths":3,"slug":"20250804192609404011000000","mlsSource":"GPS","propertyType":"A","propertySubType":"Single Family Residence","livingArea":2172,"associationFee":0,"unparsedAddress":"6429 Palo Alto Avenue, Yucca Valley, CA 92284"}},{"type":"Feature","id":73928,"properties":{"cluster":true,"cluster_id":73928,"point_count":3,"point_count_abbreviated":3},"geometry":{"type":"Point","coordinates":[-116.39258980751039,34.126975160917155]}},{"type":"Feature","geometry":{"type":"Point","coordinates":[-116.40973,34.137883]},"properties":{"listingKey":"20250918190844569157000000","listingId":"JT-25219183","listPrice":499900,"city":"Yucca Valley","baths":2,"slug":"20250918190844569157000000","mlsSource":"CRMLS","propertyType":"A","propertySubType":"Single Family Residence","livingArea":1632,"associationFee":0,"unparsedAddress":"57440 Airway Court, Yucca Valley, CA 92284"}}]